% program   : rnx2rtkp ver.demo5 b34h
% inp file  : /data/yellowfin/20231109/emlidRaw/YF2Reachm2_raw_20231109125021_RINEX_3_03/YF2Reachm2_raw_20231109125021.23O
% inp file  : /data/yellowfin/20231109/CORS/ncdu313/ncdu3130.23o
% inp file  : /data/yellowfin/20231109/CORS/ncdu313/ncdu3130.23n
% inp file  : /data/yellowfin/20231109/CORS/ncdu313/igr22874.sp3
% obs start : 2023/11/09 13:05:53.0 UTC (trimmed)
% obs end   : 2023/11/09 13:10:53.0 UTC (trimmed)
% ref pos   : 36.181683367  -75.751336986   -26.4869
%
% (lat/lon/height=WGS84/ellipsoidal,Q=1:fix,2:float,3:sbas,4:dgps,5:single,6:ppp,ns=# of satellites)
%  UTC                   latitude(deg) longitude(deg)  height(m)   Q  ns   sdn(m)   sde(m)   sdu(m)  sdne(m)  sdeu(m)  sdun(m) age(s)  ratio
2023/11/09 13:05:53.000   36.183959672  -75.749761592   -40.7827   1   7   0.0050   0.0039   0.0057   0.0027   0.0020   0.0019  -0.00  487.6
2023/11/09 13:05:53.100   36.183959948  -75.749761113   -40.7722   1   7   0.0050   0.0039   0.0057   0.0027   0.0020   0.0019   0.09  488.3
2023/11/09 13:05:53.200   36.183960217  -75.749760690   -40.7544   1   7   0.0050   0.0039   0.0057   0.0027   0.0020   0.0019   0.19  489.2
2023/11/09 13:05:53.300   36.183960527  -75.749760325   -40.7293   1   7   0.0050   0.0039   0.0057   0.0027   0.0020   0.0019   0.29  490.4
2023/11/09 13:05:53.400   36.183960878  -75.749759996   -40.6981   1   7   0.0050   0.0039   0.0057   0.0027   0.0020   0.0019   0.40  491.4
2023/11/09 13:05:53.500   36.183961306  -75.749759672   -40.6611   1   7   0.0050   0.0039   0.0057   0.0027   0.0020   0.0019   0.50  492.5
2023/11/09 13:05:53.600   36.183961736  -75.749759438   -40.6202   1   7   0.0050   0.0039   0.0057   0.0027   0.0020   0.0019  -0.41  493.6
2023/11/09 13:05:53.700   36.183962111  -75.749759302   -40.5737   1   7   0.0050   0.0039   0.0057   0.0027   0.0020   0.0019  -0.31  494.4
2023/11/09 13:05:53.800   36.183962362  -75.749759288   -40.5231   1   7   0.0050   0.0039   0.0057   0.0027   0.0020   0.0019  -0.20  495.4
2023/11/09 13:05:53.900   36.183962527  -75.749759396   -40.4695   1   7   0.0050   0.0039   0.0057   0.0027   0.0020   0.0019  -0.10  496.3
2023/11/09 13:05:54.000   36.183962661  -75.749759549   -40.4139   1   7   0.0050   0.0039   0.0057   0.0027   0.0020   0.0019  -0.00  496.8
2023/11/09 13:05:54.100   36.183962797  -75.749759730   -40.3599   1   7   0.0050   0.0039   0.0057   0.0027   0.0020   0.0019   0.09  497.1
2023/11/09 13:05:54.200   36.183962996  -75.749759934   -40.3083   1   7   0.0050   0.0039   0.0057   0.0027   0.0020   0.0019   0.19  498.0
2023/11/09 13:05:54.300   36.183963220  -75.749760150   -40.2610   1   7   0.0050   0.0039   0.0057   0.0027   0.0020   0.0019   0.29  498.9
2023/11/09 13:05:54.400   36.183963444  -75.749760384   -40.2192   1   7   0.0050   0.0039   0.0057   0.0027   0.0020   0.0019   0.40  499.7
2023/11/09 13:05:54.500   36.183963677  -75.749760640   -40.1823   1   7   0.0050   0.0039   0.0057   0.0027   0.0020   0.0019   0.50  500.6
2023/11/09 13:05:54.600   36.183963851  -75.749760872   -40.1521   1   7   0.0050   0.0039   0.0057   0.0027   0.0020   0.0019  -0.41  501.2
2023/11/09 13:05:54.700   36.183964009  -75.749761120   -40.1294   1   7   0.0050   0.0039   0.0057   0.0027   0.0020   0.0019  -0.31  502.0
2023/11/09 13:05:54.800   36.183964159  -75.749761336   -40.1142   1   7   0.0050   0.0039   0.0057   0.0027   0.0020   0.0019  -0.20  502.8
2023/11/09 13:05:54.900   36.183964286  -75.749761499   -40.1073   1   7   0.0050   0.0039   0.0057   0.0027   0.0020   0.0019  -0.10  502.9
2023/11/09 13:05:55.000   36.183964396  -75.749761630   -40.1067   1   7   0.0050   0.0039   0.0057   0.0027   0.0020   0.0019  -0.00  503.7
2023/11/09 13:05:55.100   36.183964473  -75.749761673   -40.1130   1   7   0.0050   0.0039   0.0057   0.0027   0.0020   0.0019   0.09  503.7
2023/11/09 13:05:55.200   36.183964597  -75.749761623   -40.1238   1   7   0.0050   0.0039   0.0057   0.0027   0.0020   0.0019   0.19  504.5
2023/11/09 13:05:55.300   36.183964709  -75.749761532   -40.1378   1   7   0.0050   0.0039   0.0057   0.0027   0.0020   0.0019   0.29  504.9
2023/11/09 13:05:55.400   36.183964797  -75.749761392   -40.1546   1   7   0.0050   0.0039   0.0057   0.0027   0.0020   0.0019   0.40  505.6
2023/11/09 13:05:55.500   36.183964817  -75.749761255   -40.1721   1   7   0.0050   0.0039   0.0057   0.0027   0.0020   0.0019   0.50  506.1
2023/11/09 13:05:55.600   36.183964760  -75.749761170   -40.1900   1   7   0.0050   0.0039   0.0057   0.0027   0.0020   0.0019  -0.41  506.3
2023/11/09 13:05:55.700   36.183964632  -75.749761122   -40.2073   1   7   0.0050   0.0039   0.0057   0.0027   0.0020   0.0019  -0.31  507.4
2023/11/09 13:05:55.800   36.183964518  -75.749761054   -40.2211   1   7   0.0050   0.0039   0.0057   0.0027   0.0020   0.0019  -0.20  507.9
2023/11/09 13:05:55.900   36.183964430  -75.749760945   -40.2317   1   7   0.0050   0.0039   0.0057   0.0027   0.0020   0.0019  -0.10  508.6
2023/11/09 13:05:56.000   36.183964375  -75.749760806   -40.2379   1   7   0.0050   0.0039   0.0057   0.0027   0.0020   0.0019  -0.00  509.5
2023/11/09 13:05:56.100   36.183964359  -75.749760660   -40.2410   1   7   0.0050   0.0039   0.0057   0.0027   0.0020   0.0019   0.09  509.9
2023/11/09 13:05:56.200   36.183964316  -75.749760535   -40.2410   1   7   0.0050   0.0039   0.0057   0.0027   0.0020   0.0019   0.19  509.8
2023/11/09 13:05:56.300   36.183964262  -75.749760432   -40.2427   1   7   0.0050   0.0039   0.0057   0.0027   0.0020   0.0019   0.29  509.8
2023/11/09 13:05:56.400   36.183964184  -75.749760339   -40.2418   1   7   0.0050   0.0039   0.0057   0.0027   0.0020   0.0019   0.40  510.2
2023/11/09 13:05:56.500   36.183964079  -75.749760282   -40.2449   1   7   0.0050   0.0039   0.0057   0.0027   0.0020   0.0019   0.50  510.4
2023/11/09 13:05:56.600   36.183963958  -75.749760233   -40.2511   1   7   0.0050   0.0039   0.0057   0.0027   0.0020   0.0019  -0.41  510.8
2023/11/09 13:05:56.700   36.183963837  -75.749760156   -40.2618   1   7   0.0050   0.0039   0.0057   0.0027   0.0020   0.0019  -0.31  510.9
2023/11/09 13:05:56.800   36.183963793  -75.749760029   -40.2765   1   7   0.0050   0.0039   0.0057   0.0027   0.0020   0.0019  -0.20  511.0
2023/11/09 13:05:56.900   36.183963830  -75.749759834   -40.2979   1   7   0.0050   0.0039   0.0057   0.0027   0.0020   0.0019  -0.10  511.1
2023/11/09 13:05:57.000   36.183963952  -75.749759553   -40.3234   1   7   0.0050   0.0039   0.0057   0.0027   0.0020   0.0019  -0.00  510.1
2023/11/09 13:05:57.100   36.183964144  -75.749759218   -40.3523   1   7   0.0050   0.0039   0.0057   0.0027   0.0020   0.0019   0.09  509.6
2023/11/09 13:05:57.200   36.183964360  -75.749758866   -40.3843   1   7   0.0050   0.0039   0.0057   0.0027   0.0020   0.0019   0.19  509.4
2023/11/09 13:05:57.300   36.183964575  -75.749758506   -40.4174   1   7   0.0050   0.0039   0.0057   0.0027   0.0020   0.0019   0.29  509.0
2023/11/09 13:05:57.400   36.183964809  -75.749758146   -40.4510   1   7   0.0050   0.0039   0.0057   0.0027   0.0020   0.0019   0.40  509.3
2023/11/09 13:05:57.500   36.183965005  -75.749757793   -40.4867   1   7   0.0050   0.0039   0.0057   0.0027   0.0020   0.0019   0.50  509.6
2023/11/09 13:05:57.600   36.183965213  -75.749757415   -40.5236   1   7   0.0050   0.0039   0.0057   0.0027   0.0020   0.0019  -0.41  509.5
2023/11/09 13:05:57.700   36.183965422  -75.749757025   -40.5610   1   7   0.0050   0.0039   0.0057   0.0027   0.0020   0.0019  -0.31  510.2
2023/11/09 13:05:57.800   36.183965699  -75.749756543   -40.5945   1   7   0.0050   0.0039   0.0057   0.0027   0.0020   0.0019  -0.20  510.7
2023/11/09 13:05:57.900   36.183965994  -75.749755972   -40.6233   1   7   0.0050   0.0039   0.0057   0.0027   0.0020   0.0019  -0.10  510.7
2023/11/09 13:05:58.000   36.183966352  -75.749755325   -40.6498   1   7   0.0050   0.0039   0.0057   0.0027   0.0020   0.0019  -0.00  511.3
2023/11/09 13:05:58.100   36.183966704  -75.749754644   -40.6753   1   7   0.0050   0.0039   0.0057   0.0027   0.0020   0.0019   0.09  512.4
2023/11/09 13:05:58.200   36.183967015  -75.749753975   -40.6979   1   7   0.0050   0.0039   0.0057   0.0027   0.0020   0.0019   0.19  512.4
2023/11/09 13:05:58.300   36.183967249  -75.749753307   -40.7189   1   7   0.0050   0.0039   0.0057   0.0027   0.0020   0.0019   0.29  512.1
2023/11/09 13:05:58.400   36.183967416  -75.749752656   -40.7358   1   7   0.0050   0.0039   0.0057   0.0027   0.0020   0.0019   0.40  512.2
2023/11/09 13:05:58.500   36.183967533  -75.749751982   -40.7462   1   7   0.0050   0.0039   0.0057   0.0027   0.0020   0.0019   0.50  512.7
2023/11/09 13:05:58.600   36.183967674  -75.749751243   -40.7513   1   7   0.0050   0.0039   0.0057   0.0027   0.0020   0.0019  -0.41  512.5
2023/11/09 13:05:58.700   36.183967876  -75.749750414   -40.7513   1   7   0.0050   0.0039   0.0057   0.0027   0.0020   0.0019  -0.31  512.7
2023/11/09 13:05:58.800   36.183968147  -75.749749519   -40.7460   1   7   0.0050   0.0039   0.0057   0.0027   0.0020   0.0019  -0.20  512.4
2023/11/09 13:05:58.900   36.183968401  -75.749748615   -40.7412   1   7   0.0050   0.0039   0.0057   0.0027   0.0020   0.0019  -0.10  513.1
2023/11/09 13:05:59.000   36.183968635  -75.749747783   -40.7359   1   7   0.0050   0.0039   0.0057   0.0027   0.0020   0.0019  -0.00  512.8
2023/11/09 13:05:59.100   36.183968805  -75.749747050   -40.7323   1   7   0.0050   0.0039   0.0057   0.0027   0.0020   0.0019   0.09  514.0
2023/11/09 13:05:59.200   36.183968959  -75.749746328   -40.7271   1   7   0.0050   0.0039   0.0057   0.0027   0.0020   0.0019   0.19  514.4
2023/11/09 13:05:59.300   36.183969129  -75.749745609   -40.7224   1   7   0.0050   0.0039   0.0057   0.0027   0.0020   0.0019   0.29  514.7
2023/11/09 13:05:59.400   36.183969376  -75.749744839   -40.7173   1   7   0.0050   0.0039   0.0057   0.0027   0.0020   0.0019   0.40  515.2
2023/11/09 13:05:59.500   36.183969673  -75.749744027   -40.7119   1   7   0.0050   0.0039   0.0057   0.0027   0.0020   0.0019   0.50  515.6
2023/11/09 13:05:59.600   36.183969986  -75.749743197   -40.7056   1   7   0.0050   0.0039   0.0057   0.0027   0.0020   0.0019  -0.41  515.9
2023/11/09 13:05:59.700   36.183970289  -75.749742393   -40.6977   1   7   0.0050   0.0039   0.0057   0.0027   0.0020   0.0019  -0.31  515.7
2023/11/09 13:05:59.800   36.183970541  -75.749741670   -40.6884   1   7   0.0050   0.0039   0.0057   0.0027   0.0020   0.0019  -0.20  515.8
2023/11/09 13:05:59.900   36.183970740  -75.749741011   -40.6760   1   7   0.0050   0.0039   0.0057   0.0027   0.0020   0.0019  -0.10  516.3
2023/11/09 13:06:00.000   36.183970913  -75.749740393   -40.6608   1   7   0.0050   0.0039   0.0057   0.0027   0.0020   0.0019  -0.00  517.2
2023/11/09 13:06:00.100   36.183971092  -75.749739761   -40.6436   1   7   0.0050   0.0039   0.0057   0.0027   0.0020   0.0019   0.09  518.2
2023/11/09 13:06:00.200   36.183971311  -75.749739124   -40.6214   1   7   0.0050   0.0039   0.0057   0.0027   0.0020   0.0019   0.19  518.6
2023/11/09 13:06:00.300   36.183971577  -75.749738447   -40.5964   1   7   0.0050   0.0039   0.0057   0.0027   0.0020   0.0019   0.29  520.0
2023/11/09 13:06:00.400   36.183971886  -75.749737759   -40.5713   1   7   0.0050   0.0039   0.0057   0.0027   0.0020   0.0019   0.40  520.1
2023/11/09 13:06:00.500   36.183972196  -75.749737081   -40.5453   1   7   0.0050   0.0039   0.0057   0.0027   0.0020   0.0019   0.50  521.2
2023/11/09 13:06:00.600   36.183972507  -75.749736443   -40.5205   1   7   0.0050   0.0039   0.0057   0.0027   0.0020   0.0019  -0.41  521.4
2023/11/09 13:06:00.700   36.183972767  -75.749735839   -40.5000   1   7   0.0050   0.0039   0.0057   0.0027   0.0020   0.0019  -0.31  521.1
2023/11/09 13:06:00.800   36.183972993  -75.749735251   -40.4823   1   7   0.0050   0.0039   0.0057   0.0027   0.0020   0.0019  -0.20  521.7
2023/11/09 13:06:00.900   36.183973189  -75.749734676   -40.4696   1   7   0.0050   0.0039   0.0057   0.0027   0.0020   0.0019  -0.10  521.8
2023/11/09 13:06:01.000   36.183973326  -75.749734099   -40.4607   1   7   0.0050   0.0039   0.0057   0.0027   0.0020   0.0019  -0.00  522.6
2023/11/09 13:06:01.100   36.183973467  -75.749733526   -40.4540   1   7   0.0050   0.0039   0.0057   0.0027   0.0020   0.0019   0.09  523.7
2023/11/09 13:06:01.200   36.183973626  -75.749732922   -40.4481   1   7   0.0050   0.0039   0.0057   0.0027   0.0020   0.0019   0.19  524.9
2023/11/09 13:06:01.300   36.183973816  -75.749732319   -40.4420   1   7   0.0050   0.0039   0.0057   0.0027   0.0020   0.0019   0.29  525.6
2023/11/09 13:06:01.400   36.183973977  -75.749731770   -40.4376   1   7   0.0050   0.0039   0.0057   0.0027   0.0020   0.0019   0.40  526.8
2023/11/09 13:06:01.500   36.183974122  -75.749731307   -40.4295   1   7   0.0050   0.0039   0.0057   0.0027   0.0020   0.0019   0.50  528.0
2023/11/09 13:06:01.600   36.183974212  -75.749730945   -40.4166   1   7   0.0050   0.0039   0.0057   0.0027   0.0020   0.0019  -0.41  528.7
2023/11/09 13:06:01.700   36.183974271  -75.749730692   -40.3981   1   7   0.0050   0.0039   0.0057   0.0027   0.0020   0.0019  -0.31  530.3
2023/11/09 13:06:01.800   36.183974327  -75.749730537   -40.3711   1   7   0.0050   0.0039   0.0057   0.0027   0.0020   0.0019  -0.20  531.9
2023/11/09 13:06:01.900   36.183974366  -75.749730474   -40.3368   1   7   0.0050   0.0039   0.0057   0.0027   0.0020   0.0019  -0.10  532.5
2023/11/09 13:06:02.000   36.183974432  -75.749730520   -40.2967   1   7   0.0050   0.0039   0.0057   0.0027   0.0020   0.0019  -0.00  533.4
2023/11/09 13:06:02.100   36.183974480  -75.749730723   -40.2493   1   7   0.0050   0.0039   0.0057   0.0027   0.0020   0.0019   0.09  534.9
2023/11/09 13:06:02.200   36.183974464  -75.749731076   -40.1969   1   7   0.0050   0.0039   0.0057   0.0027   0.0020   0.0019   0.19  537.2
2023/11/09 13:06:02.300   36.183974448  -75.749731579   -40.1375   1   7   0.0050   0.0039   0.0057   0.0027   0.0020   0.0019   0.29  538.5
2023/11/09 13:06:02.400   36.183974391  -75.749732213   -40.0735   1   7   0.0050   0.0039   0.0057   0.0027   0.0020   0.0019   0.40  539.8
2023/11/09 13:06:02.500   36.183974353  -75.749732972   -40.0070   1   7   0.0050   0.0039   0.0057   0.0027   0.0020   0.0019   0.50  540.6
2023/11/09 13:06:02.600   36.183974272  -75.749733794   -39.9397   1   7   0.0050   0.0039   0.0057   0.0027   0.0020   0.0019  -0.41  541.5
2023/11/09 13:06:02.700   36.183974220  -75.749734649   -39.8758   1   7   0.0050   0.0039   0.0057   0.0027   0.0020   0.0019  -0.31  541.5
2023/11/09 13:06:02.800   36.183974177  -75.749735496   -39.8209   1   7   0.0050   0.0039   0.0057   0.0027   0.0020   0.0019  -0.20  541.6
2023/11/09 13:06:02.900   36.183974141  -75.749736310   -39.7786   1   7   0.0050   0.0039   0.0057   0.0027   0.0020   0.0019  -0.10  542.0
2023/11/09 13:06:03.000   36.183974110  -75.749737100   -39.7516   1   7   0.0050   0.0039   0.0057   0.0027   0.0020   0.0019  -0.00  542.0
2023/11/09 13:06:03.100   36.183974107  -75.749737849   -39.7412   1   7   0.0050   0.0039   0.0057   0.0027   0.0020   0.0019   0.09  542.1
2023/11/09 13:06:03.200   36.183974085  -75.749738550   -39.7506   1   7   0.0050   0.0039   0.0057   0.0027   0.0020   0.0019   0.19  542.5
2023/11/09 13:06:03.300   36.183974129  -75.749739162   -39.7784   1   7   0.0050   0.0039   0.0057   0.0027   0.0020   0.0019   0.29  542.7
2023/11/09 13:06:03.400   36.183974235  -75.749739689   -39.8246   1   7   0.0050   0.0039   0.0057   0.0027   0.0020   0.0019   0.40  543.0
2023/11/09 13:06:03.500   36.183974406  -75.749740082   -39.8854   1   7   0.0050   0.0039   0.0057   0.0027   0.0020   0.0019   0.50  543.4
2023/11/09 13:06:03.600   36.183974635  -75.749740292   -39.9554   1   7   0.0050   0.0039   0.0057   0.0027   0.0020   0.0019  -0.41  542.9
2023/11/09 13:06:03.700   36.183974880  -75.749740396   -40.0357   1   7   0.0050   0.0039   0.0057   0.0027   0.0020   0.0019  -0.31  542.6
2023/11/09 13:06:03.800   36.183975152  -75.749740405   -40.1224   1   7   0.0050   0.0039   0.0057   0.0027   0.0020   0.0019  -0.20  542.3
2023/11/09 13:06:03.900   36.183975372  -75.749740372   -40.2138   1   7   0.0050   0.0039   0.0057   0.0027   0.0020   0.0019  -0.10  541.9
2023/11/09 13:06:04.000   36.183975579  -75.749740285   -40.3061   1   7   0.0050   0.0039   0.0057   0.0027   0.0020   0.0019  -0.00  542.1
2023/11/09 13:06:04.100   36.183975768  -75.749740129   -40.3975   1   7   0.0050   0.0039   0.0057   0.0027   0.0020   0.0019   0.09  542.3
2023/11/09 13:06:04.200   36.183975959  -75.749739849   -40.4837   1   7   0.0050   0.0039   0.0057   0.0027   0.0020   0.0019   0.19  542.2
2023/11/09 13:06:04.300   36.183976138  -75.749739446   -40.5619   1   7   0.0050   0.0039   0.0057   0.0027   0.0020   0.0019   0.29  542.4
2023/11/09 13:06:04.400   36.183976312  -75.749738930   -40.6297   1   7   0.0050   0.0039   0.0057   0.0027   0.0020   0.0019   0.40  542.2
2023/11/09 13:06:04.500   36.183976477  -75.749738343   -40.6880   1   7   0.0050   0.0039   0.0057   0.0027   0.0020   0.0019   0.50  541.8
2023/11/09 13:06:04.600   36.183976611  -75.749737770   -40.7353   1   7   0.0050   0.0039   0.0057   0.0027   0.0020   0.0019  -0.41  541.8
2023/11/09 13:06:04.700   36.183976725  -75.749737246   -40.7731   1   7   0.0050   0.0039   0.0057   0.0027   0.0020   0.0019  -0.31  542.5
2023/11/09 13:06:04.800   36.183976871  -75.749736742   -40.8003   1   7   0.0050   0.0039   0.0057   0.0027   0.0020   0.0019  -0.20  542.6
2023/11/09 13:06:04.900   36.183977032  -75.749736228   -40.8170   1   7   0.0050   0.0039   0.0057   0.0027   0.0020   0.0019  -0.10  542.6
2023/11/09 13:06:05.000   36.183977261  -75.749735694   -40.8238   1   7   0.0050   0.0039   0.0057   0.0027   0.0020   0.0019  -0.00  543.0
2023/11/09 13:06:05.100   36.183977530  -75.749735130   -40.8233   1   7   0.0050   0.0039   0.0057   0.0027   0.0020   0.0019   0.09  544.0
2023/11/09 13:06:05.200   36.183977825  -75.749734562   -40.8131   1   7   0.0050   0.0039   0.0057   0.0027   0.0020   0.0019   0.19  544.9
2023/11/09 13:06:05.300   36.183978139  -75.749734028   -40.7942   1   7   0.0050   0.0039   0.0057   0.0027   0.0020   0.0019   0.29  544.8
2023/11/09 13:06:05.400   36.183978400  -75.749733523   -40.7702   1   7   0.0050   0.0039   0.0057   0.0027   0.0020   0.0019   0.40  545.4
2023/11/09 13:06:05.500   36.183978648  -75.749733049   -40.7402   1   7   0.0050   0.0039   0.0057   0.0027   0.0020   0.0019   0.50  546.3
2023/11/09 13:06:05.600   36.183978876  -75.749732607   -40.7076   1   7   0.0050   0.0039   0.0057   0.0027   0.0020   0.0019  -0.41  547.1
2023/11/09 13:06:05.700   36.183979103  -75.749732169   -40.6722   1   7   0.0050   0.0039   0.0057   0.0027   0.0020   0.0019  -0.31  547.3
2023/11/09 13:06:05.800   36.183979293  -75.749731743   -40.6355   1   7   0.0050   0.0039   0.0057   0.0027   0.0020   0.0019  -0.20  548.1
2023/11/09 13:06:05.900   36.183979471  -75.749731345   -40.6003   1   7   0.0050   0.0039   0.0057   0.0027   0.0020   0.0019  -0.10  549.0
2023/11/09 13:06:06.000   36.183979620  -75.749731011   -40.5655   1   7   0.0050   0.0039   0.0057   0.0027   0.0020   0.0019  -0.00  549.8
2023/11/09 13:06:06.100   36.183979726  -75.749730698   -40.5289   1   7   0.0050   0.0039   0.0057   0.0027   0.0020   0.0019   0.09  551.0
2023/11/09 13:06:06.200   36.183979844  -75.749730415   -40.4893   1   7   0.0050   0.0039   0.0057   0.0027   0.0020   0.0019   0.19  552.2
2023/11/09 13:06:06.300   36.183979918  -75.749730194   -40.4503   1   7   0.0050   0.0039   0.0057   0.0027   0.0020   0.0019   0.29  553.2
2023/11/09 13:06:06.400   36.183979981  -75.749729986   -40.4128   1   7   0.0050   0.0039   0.0057   0.0027   0.0020   0.0019   0.40  553.9
2023/11/09 13:06:06.500   36.183980032  -75.749729851   -40.3777   1   7   0.0050   0.0039   0.0057   0.0027   0.0020   0.0019   0.50  554.9
2023/11/09 13:06:06.600   36.183980088  -75.749729754   -40.3455   1   7   0.0050   0.0039   0.0057   0.0027   0.0020   0.0019  -0.41  555.3
2023/11/09 13:06:06.700   36.183980168  -75.749729627   -40.3184   1   7   0.0050   0.0039   0.0057   0.0027   0.0020   0.0019  -0.31  555.6
2023/11/09 13:06:06.800   36.183980284  -75.749729434   -40.2961   1   7   0.0050   0.0039   0.0057   0.0027   0.0020   0.0019  -0.20  555.7
2023/11/09 13:06:06.900   36.183980438  -75.749729194   -40.2796   1   7   0.0050   0.0039   0.0057   0.0027   0.0020   0.0019  -0.10  556.0
2023/11/09 13:06:07.000   36.183980578  -75.749728931   -40.2730   1   7   0.0050   0.0039   0.0057   0.0027   0.0020   0.0019  -0.00  555.4
2023/11/09 13:06:07.100   36.183980702  -75.749728701   -40.2735   1   7   0.0050   0.0039   0.0057   0.0027   0.0020   0.0019   0.09  555.5
2023/11/09 13:06:07.200   36.183980814  -75.749728524   -40.2821   1   7   0.0050   0.0039   0.0057   0.0027   0.0020   0.0019   0.19  555.7
2023/11/09 13:06:07.300   36.183980872  -75.749728332   -40.2966   1   7   0.0050   0.0039   0.0057   0.0027   0.0020   0.0019   0.29  556.1
2023/11/09 13:06:07.400   36.183980947  -75.749728099   -40.3152   1   7   0.0050   0.0039   0.0057   0.0027   0.0020   0.0019   0.40  556.0
2023/11/09 13:06:07.500   36.183981024  -75.749727809   -40.3360   1   7   0.0050   0.0039   0.0057   0.0027   0.0020   0.0019   0.50  555.3
2023/11/09 13:06:07.600   36.183981126  -75.749727457   -40.3598   1   7   0.0050   0.0039   0.0057   0.0027   0.0020   0.0019  -0.41  556.3
2023/11/09 13:06:07.700   36.183981263  -75.749727071   -40.3849   1   7   0.0050   0.0039   0.0057   0.0027   0.0020   0.0019  -0.31  556.3
2023/11/09 13:06:07.800   36.183981423  -75.749726683   -40.4113   1   7   0.0050   0.0039   0.0057   0.0027   0.0020   0.0019  -0.20  556.4
2023/11/09 13:06:07.900   36.183981577  -75.749726288   -40.4350   1   7   0.0050   0.0039   0.0057   0.0027   0.0020   0.0019  -0.10  556.7
2023/11/09 13:06:08.000   36.183981736  -75.749725882   -40.4576   1   7   0.0050   0.0039   0.0057   0.0027   0.0020   0.0019  -0.00  556.3
2023/11/09 13:06:08.100   36.183981900  -75.749725444   -40.4777   1   7   0.0050   0.0039   0.0057   0.0027   0.0020   0.0019   0.09  556.0
2023/11/09 13:06:08.200   36.183982075  -75.749724945   -40.4942   1   7   0.0050   0.0039   0.0057   0.0027   0.0020   0.0019   0.19  556.4
2023/11/09 13:06:08.300   36.183982263  -75.749724401   -40.5101   1   7   0.0050   0.0039   0.0057   0.0027   0.0020   0.0019   0.29  556.3
2023/11/09 13:06:08.400   36.183982431  -75.749723860   -40.5275   1   7   0.0050   0.0039   0.0057   0.0027   0.0020   0.0019   0.40  557.1
2023/11/09 13:06:08.500   36.183982616  -75.749723298   -40.5477   1   7   0.0050   0.0039   0.0057   0.0027   0.0020   0.0019   0.50  557.6
2023/11/09 13:06:08.600   36.183982785  -75.749722706   -40.5708   1   7   0.0050   0.0039   0.0057   0.0027   0.0020   0.0019  -0.41  558.8
2023/11/09 13:06:08.700   36.183982966  -75.749722114   -40.5969   1   7   0.0050   0.0039   0.0057   0.0027   0.0020   0.0019  -0.31  559.3
2023/11/09 13:06:08.800   36.183983167  -75.749721467   -40.6237   1   7   0.0050   0.0039   0.0057   0.0027   0.0020   0.0019  -0.20  559.6
2023/11/09 13:06:08.900   36.183983421  -75.749720763   -40.6513   1   7   0.0050   0.0039   0.0057   0.0027   0.0020   0.0019  -0.10  560.1
2023/11/09 13:06:09.000   36.183983649  -75.749720060   -40.6817   1   7   0.0050   0.0039   0.0057   0.0027   0.0020   0.0019  -0.00  560.8
2023/11/09 13:06:09.100   36.183983905  -75.749719351   -40.7101   1   7   0.0050   0.0039   0.0057   0.0027   0.0020   0.0019   0.09  561.4
2023/11/09 13:06:09.200   36.183984126  -75.749718712   -40.7336   1   7   0.0050   0.0039   0.0057   0.0027   0.0020   0.0019   0.19  561.5
2023/11/09 13:06:09.300   36.183984326  -75.749718084   -40.7522   1   7   0.0050   0.0039   0.0057   0.0027   0.0020   0.0019   0.29  562.0
2023/11/09 13:06:09.400   36.183984540  -75.749717483   -40.7606   1   7   0.0050   0.0039   0.0057   0.0027   0.0020   0.0019   0.40  562.5
2023/11/09 13:06:09.500   36.183984805  -75.749716873   -40.7607   1   7   0.0050   0.0039   0.0057   0.0027   0.0020   0.0019   0.50  563.1
2023/11/09 13:06:09.600   36.183985112  -75.749716294   -40.7523   1   7   0.0050   0.0039   0.0057   0.0027   0.0020   0.0019  -0.41  563.1
2023/11/09 13:06:09.700   36.183985445  -75.749715719   -40.7369   1   7   0.0050   0.0039   0.0057   0.0027   0.0020   0.0019  -0.31  563.4
2023/11/09 13:06:09.800   36.183985768  -75.749715164   -40.7158   1   7   0.0050   0.0039   0.0057   0.0027   0.0020   0.0019  -0.20  563.6
2023/11/09 13:06:09.900   36.183986065  -75.749714667   -40.6926   1   7   0.0050   0.0039   0.0057   0.0027   0.0020   0.0019  -0.10  564.3
2023/11/09 13:06:10.000   36.183986306  -75.749714209   -40.6685   1   7   0.0050   0.0039   0.0057   0.0027   0.0020   0.0019  -0.00  565.2
2023/11/09 13:06:10.100   36.183986536  -75.749713725   -40.6441   1   7   0.0050   0.0039   0.0057   0.0027   0.0020   0.0019   0.09  566.1
2023/11/09 13:06:10.200   36.183986753  -75.749713230   -40.6229   1   7   0.0050   0.0039   0.0057   0.0027   0.0020   0.0019   0.19  567.2
2023/11/09 13:06:10.300   36.183986981  -75.749712675   -40.6044   1   7   0.0050   0.0039   0.0057   0.0027   0.0020   0.0019   0.29  567.6
2023/11/09 13:06:10.400   36.183987210  -75.749712034   -40.5888   1   7   0.0050   0.0039   0.0057   0.0027   0.0020   0.0019   0.40  568.3
2023/11/09 13:06:10.500   36.183987415  -75.749711392   -40.5760   1   7   0.0050   0.0039   0.0057   0.0027   0.0020   0.0020   0.50  568.3
2023/11/09 13:06:10.600   36.183987601  -75.749710799   -40.5656   1   7   0.0050   0.0039   0.0057   0.0027   0.0020   0.0020  -0.41  568.4
2023/11/09 13:06:10.700   36.183987686  -75.749710300   -40.5569   1   7   0.0050   0.0039   0.0057   0.0027   0.0020   0.0020  -0.31  568.6
2023/11/09 13:06:10.800   36.183987740  -75.749709878   -40.5491   1   7   0.0050   0.0039   0.0057   0.0027   0.0020   0.0019  -0.20  568.9
2023/11/09 13:06:10.900   36.183987787  -75.749709518   -40.5380   1   7   0.0050   0.0039   0.0057   0.0027   0.0020   0.0019  -0.10  569.1
2023/11/09 13:06:11.000   36.183987882  -75.749709138   -40.5228   1   7   0.0050   0.0039   0.0057   0.0027   0.0020   0.0019  -0.00  569.7
2023/11/09 13:06:11.100   36.183988075  -75.749708746   -40.5021   1   7   0.0050   0.0039   0.0057   0.0027   0.0020   0.0019   0.09  570.3
2023/11/09 13:06:11.200   36.183988337  -75.749708344   -40.4757   1   7   0.0050   0.0039   0.0057   0.0027   0.0020   0.0019   0.19  570.7
2023/11/09 13:06:11.300   36.183988630  -75.749708049   -40.4464   1   7   0.0050   0.0039   0.0057   0.0027   0.0020   0.0019   0.29  570.4
2023/11/09 13:06:11.400   36.183988911  -75.749707886   -40.4143   1   7   0.0050   0.0039   0.0057   0.0027   0.0020   0.0019   0.40  571.2
2023/11/09 13:06:11.500   36.183989164  -75.749707871   -40.3791   1   7   0.0050   0.0039   0.0057   0.0027   0.0020   0.0020   0.50  571.8
2023/11/09 13:06:11.600   36.183989392  -75.749707996   -40.3429   1   7   0.0050   0.0039   0.0057   0.0027   0.0020   0.0020  -0.41  573.1
2023/11/09 13:06:11.700   36.183989603  -75.749708168   -40.3031   1   7   0.0050   0.0039   0.0057   0.0027   0.0020   0.0020  -0.31  574.6
2023/11/09 13:06:11.800   36.183989871  -75.749708366   -40.2603   1   7   0.0050   0.0039   0.0057   0.0027   0.0020   0.0020  -0.20  575.0
2023/11/09 13:06:11.900   36.183990171  -75.749708590   -40.2189   1   7   0.0050   0.0039   0.0057   0.0027   0.0020   0.0019  -0.10  575.9
2023/11/09 13:06:12.000   36.183990494  -75.749708865   -40.1781   1   7   0.0050   0.0039   0.0057   0.0027   0.0020   0.0019  -0.00  576.3
2023/11/09 13:06:12.100   36.183990844  -75.749709211   -40.1383   1   7   0.0050   0.0039   0.0057   0.0027   0.0020   0.0019   0.09  577.9
2023/11/09 13:06:12.200   36.183991165  -75.749709662   -40.1017   1   7   0.0050   0.0039   0.0057   0.0027   0.0020   0.0019   0.19  578.3
2023/11/09 13:06:12.300   36.183991481  -75.749710231   -40.0667   1   7   0.0050   0.0039   0.0057   0.0027   0.0020   0.0019   0.29  579.1
2023/11/09 13:06:12.400   36.183991760  -75.749710875   -40.0343   1   7   0.0050   0.0039   0.0057   0.0027   0.0020   0.0020   0.40  579.5
2023/11/09 13:06:12.500   36.183992047  -75.749711556   -40.0060   1   7   0.0050   0.0039   0.0057   0.0027   0.0020   0.0020   0.50  579.1
2023/11/09 13:06:12.600   36.183992334  -75.749712200   -39.9826   1   7   0.0050   0.0039   0.0057   0.0027   0.0020   0.0020  -0.41  580.0
2023/11/09 13:06:12.700   36.183992647  -75.749712825   -39.9691   1   7   0.0050   0.0039   0.0057   0.0027   0.0020   0.0020  -0.31  581.0
2023/11/09 13:06:12.800   36.183993028  -75.749713384   -39.9646   1   7   0.0050   0.0039   0.0057   0.0027   0.0020   0.0020  -0.20  581.2
2023/11/09 13:06:12.900   36.183993424  -75.749713877   -39.9703   1   7   0.0050   0.0039   0.0057   0.0027   0.0020   0.0019  -0.10  581.1
2023/11/09 13:06:13.000   36.183993818  -75.749714320   -39.9863   1   7   0.0050   0.0039   0.0057   0.0027   0.0020   0.0019  -0.00  581.0
2023/11/09 13:06:13.100   36.183994191  -75.749714704   -40.0120   1   7   0.0050   0.0039   0.0057   0.0027   0.0020   0.0019   0.09  580.9
2023/11/09 13:06:13.200   36.183994529  -75.749715016   -40.0467   1   7   0.0050   0.0039   0.0057   0.0027   0.0020   0.0019   0.19  581.5
2023/11/09 13:06:13.300   36.183994817  -75.749715214   -40.0873   1   7   0.0050   0.0039   0.0057   0.0027   0.0020   0.0019   0.29  581.7
2023/11/09 13:06:13.400   36.183995024  -75.749715360   -40.1332   1   7   0.0050   0.0039   0.0057   0.0027   0.0020   0.0020   0.40  581.7
2023/11/09 13:06:13.500   36.183995190  -75.749715399   -40.1837   1   7   0.0050   0.0039   0.0057   0.0027   0.0020   0.0020   0.50  581.9
2023/11/09 13:06:13.600   36.183995363  -75.749715334   -40.2379   1   7   0.0050   0.0039   0.0057   0.0027   0.0020   0.0020  -0.41  580.2
2023/11/09 13:06:13.700   36.183995535  -75.749715160   -40.2952   1   7   0.0050   0.0039   0.0057   0.0027   0.0020   0.0020  -0.31  579.7
2023/11/09 13:06:13.800   36.183995703  -75.749714899   -40.3514   1   7   0.0050   0.0039   0.0057   0.0027   0.0020   0.0020  -0.20  578.9
2023/11/09 13:06:13.900   36.183995844  -75.749714546   -40.4070   1   7   0.0050   0.0039   0.0057   0.0027   0.0020   0.0020  -0.10  578.2
2023/11/09 13:06:14.000   36.183995935  -75.749714170   -40.4613   1   7   0.0050   0.0039   0.0057   0.0027   0.0020   0.0020  -0.00  578.1
2023/11/09 13:06:14.100   36.183995993  -75.749713774   -40.5129   1   7   0.0050   0.0039   0.0057   0.0027   0.0020   0.0019   0.09  578.0
2023/11/09 13:06:14.200   36.183996013  -75.749713363   -40.5616   1   7   0.0050   0.0039   0.0057   0.0027   0.0020   0.0019   0.19  577.4
2023/11/09 13:06:14.300   36.183996013  -75.749712958   -40.6083   1   7   0.0050   0.0039   0.0057   0.0027   0.0020   0.0020   0.29  577.4
2023/11/09 13:06:14.400   36.183996039  -75.749712487   -40.6495   1   7   0.0050   0.0039   0.0057   0.0027   0.0020   0.0020   0.40  576.7
2023/11/09 13:06:14.500   36.183996121  -75.749711942   -40.6860   1   7   0.0050   0.0039   0.0057   0.0027   0.0020   0.0020   0.50  576.0
2023/11/09 13:06:14.600   36.183996266  -75.749711306   -40.7147   1   7   0.0050   0.0039   0.0057   0.0027   0.0020   0.0020  -0.41  576.1
2023/11/09 13:06:14.700   36.183996445  -75.749710613   -40.7350   1   7   0.0050   0.0039   0.0057   0.0027   0.0020   0.0020  -0.31  575.9
2023/11/09 13:06:14.800   36.183996627  -75.749709935   -40.7498   1   7   0.0050   0.0039   0.0057   0.0027   0.0020   0.0020  -0.20  575.9
2023/11/09 13:06:14.900   36.183996773  -75.749709306   -40.7565   1   7   0.0050   0.0039   0.0057   0.0027   0.0020   0.0020  -0.10  575.9
2023/11/09 13:06:15.000   36.183996840  -75.749708737   -40.7586   1   7   0.0050   0.0039   0.0057   0.0027   0.0020   0.0020  -0.00  576.3
2023/11/09 13:06:15.100   36.183996914  -75.749708200   -40.7535   1   7   0.0050   0.0039   0.0057   0.0027   0.0020   0.0020   0.09  577.5
2023/11/09 13:06:15.200   36.183997045  -75.749707607   -40.7426   1   7   0.0050   0.0039   0.0057   0.0027   0.0020   0.0020   0.19  578.0
2023/11/09 13:06:15.300   36.183997239  -75.749706969   -40.7295   1   7   0.0050   0.0039   0.0057   0.0027   0.0020   0.0020   0.29  579.0
2023/11/09 13:06:15.400   36.183997514  -75.749706270   -40.7112   1   7   0.0050   0.0039   0.0057   0.0027   0.0020   0.0020   0.40  580.6
2023/11/09 13:06:15.500   36.183997863  -75.749705551   -40.6914   1   7   0.0050   0.0039   0.0057   0.0027   0.0020   0.0020   0.50  581.1
2023/11/09 13:06:15.600   36.183998195  -75.749704858   -40.6705   1   7   0.0050   0.0039   0.0057   0.0027   0.0020   0.0020  -0.41  581.0
2023/11/09 13:06:15.700   36.183998483  -75.749704225   -40.6478   1   7   0.0050   0.0039   0.0057   0.0027   0.0020   0.0020  -0.31  580.5
2023/11/09 13:06:15.800   36.183998735  -75.749703689   -40.6263   1   7   0.0050   0.0039   0.0057   0.0027   0.0020   0.0020  -0.20  580.7
2023/11/09 13:06:15.900   36.183998974  -75.749703200   -40.6061   1   7   0.0050   0.0039   0.0057   0.0027   0.0020   0.0020  -0.10  580.8
2023/11/09 13:06:16.000   36.183999205  -75.749702717   -40.5857   1   7   0.0050   0.0039   0.0057   0.0027   0.0020   0.0020  -0.00  581.6
2023/11/09 13:06:16.100   36.183999455  -75.749702215   -40.5667   1   7   0.0050   0.0039   0.0057   0.0027   0.0020   0.0020   0.09  581.8
2023/11/09 13:06:16.200   36.183999762  -75.749701643   -40.5482   1   7   0.0050   0.0039   0.0057   0.0027   0.0020   0.0020   0.19  582.6
2023/11/09 13:06:16.300   36.184000105  -75.749701030   -40.5308   1   7   0.0050   0.0039   0.0057   0.0027   0.0020   0.0020   0.29  583.0
2023/11/09 13:06:16.400   36.184000456  -75.749700422   -40.5119   1   7   0.0050   0.0039   0.0057   0.0027   0.0020   0.0020   0.40  583.5
2023/11/09 13:06:16.500   36.184000807  -75.749699820   -40.4930   1   7   0.0050   0.0039   0.0057   0.0027   0.0020   0.0020   0.50  584.1
2023/11/09 13:06:16.600   36.184001131  -75.749699215   -40.4734   1   7   0.0050   0.0039   0.0057   0.0027   0.0020   0.0020  -0.41  583.3
2023/11/09 13:06:16.700   36.184001369  -75.749698655   -40.4557   1   7   0.0050   0.0039   0.0057   0.0027   0.0020   0.0020  -0.31  582.7
2023/11/09 13:06:16.800   36.184001551  -75.749698126   -40.4419   1   7   0.0050   0.0039   0.0057   0.0027   0.0020   0.0020  -0.20  582.7
2023/11/09 13:06:16.900   36.184001677  -75.749697617   -40.4346   1   7   0.0050   0.0039   0.0057   0.0027   0.0020   0.0020  -0.10  583.5
2023/11/09 13:06:17.000   36.184001777  -75.749697143   -40.4328   1   7   0.0050   0.0039   0.0057   0.0027   0.0020   0.0020  -0.00  584.6
2023/11/09 13:06:17.100   36.184001885  -75.749696632   -40.4349   1   7   0.0050   0.0039   0.0057   0.0027   0.0020   0.0020   0.09  584.9
2023/11/09 13:06:17.200   36.184002051  -75.749696035   -40.4395   1   7   0.0050   0.0039   0.0057   0.0027   0.0020   0.0020   0.19  585.0
2023/11/09 13:06:17.300   36.184002245  -75.749695374   -40.4462   1   7   0.0050   0.0039   0.0057   0.0027   0.0020   0.0020   0.29  584.5
2023/11/09 13:06:17.400   36.184002427  -75.749694693   -40.4537   1   7   0.0050   0.0039   0.0057   0.0027   0.0020   0.0020   0.40  584.8
2023/11/09 13:06:17.500   36.184002599  -75.749694058   -40.4621   1   7   0.0050   0.0039   0.0057   0.0027   0.0020   0.0020   0.50  584.5
2023/11/09 13:06:17.600   36.184002680  -75.749693509   -40.4701   1   7   0.0050   0.0039   0.0057   0.0027   0.0020   0.0020  -0.41  585.5
2023/11/09 13:06:17.700   36.184002730  -75.749693027   -40.4779   1   7   0.0050   0.0039   0.0057   0.0027   0.0020   0.0020  -0.31  585.7
2023/11/09 13:06:17.800   36.184002791  -75.749692558   -40.4857   1   7   0.0050   0.0039   0.0057   0.0027   0.0020   0.0020  -0.20  585.4
2023/11/09 13:06:17.900   36.184002888  -75.749692040   -40.4916   1   7   0.0050   0.0039   0.0057   0.0027   0.0020   0.0020  -0.10  584.8
2023/11/09 13:06:18.000   36.184003033  -75.749691477   -40.4984   1   7   0.0050   0.0039   0.0057   0.0027   0.0020   0.0020  -0.00  584.8
2023/11/09 13:06:18.100   36.184003278  -75.749690832   -40.5044   1   7   0.0050   0.0039   0.0057   0.0027   0.0020   0.0020   0.09  584.6
2023/11/09 13:06:18.200   36.184003565  -75.749690166   -40.5079   1   7   0.0050   0.0039   0.0057   0.0027   0.0020   0.0020   0.19  584.4
2023/11/09 13:06:18.300   36.184003866  -75.749689466   -40.5099   1   7   0.0050   0.0039   0.0057   0.0027   0.0020   0.0020   0.29  584.6
2023/11/09 13:06:18.400   36.184004144  -75.749688816   -40.5140   1   7   0.0050   0.0039   0.0057   0.0027   0.0020   0.0020   0.40  585.0
2023/11/09 13:06:18.500   36.184004370  -75.749688221   -40.5168   1   7   0.0050   0.0039   0.0057   0.0027   0.0020   0.0020   0.50  585.4
2023/11/09 13:06:18.600   36.184004562  -75.749687700   -40.5188   1   7   0.0050   0.0039   0.0057   0.0027   0.0020   0.0020  -0.41  586.2
2023/11/09 13:06:18.700   36.184004780  -75.749687200   -40.5197   1   7   0.0050   0.0039   0.0057   0.0027   0.0020   0.0020  -0.31  586.0
2023/11/09 13:06:18.800   36.184005027  -75.749686711   -40.5192   1   7   0.0050   0.0039   0.0057   0.0027   0.0020   0.0020  -0.20  586.2
2023/11/09 13:06:18.900   36.184005316  -75.749686221   -40.5168   1   7   0.0050   0.0039   0.0057   0.0027   0.0020   0.0020  -0.10  586.5
2023/11/09 13:06:19.000   36.184005664  -75.749685712   -40.5131   1   7   0.0050   0.0039   0.0057   0.0027   0.0020   0.0020  -0.00  586.5
2023/11/09 13:06:19.100   36.184006028  -75.749685225   -40.5088   1   7   0.0050   0.0039   0.0057   0.0027   0.0020   0.0020   0.09  586.2
2023/11/09 13:06:19.200   36.184006390  -75.749684749   -40.5063   1   7   0.0050   0.0039   0.0057   0.0027   0.0020   0.0020   0.19  586.0
2023/11/09 13:06:19.300   36.184006739  -75.749684285   -40.5032   1   7   0.0050   0.0039   0.0057   0.0027   0.0020   0.0020   0.29  585.5
2023/11/09 13:06:19.400   36.184007042  -75.749683814   -40.5002   1   7   0.0050   0.0039   0.0057   0.0027   0.0020   0.0020   0.40  584.2
2023/11/09 13:06:19.500   36.184007294  -75.749683332   -40.4995   1   7   0.0050   0.0039   0.0057   0.0027   0.0020   0.0020   0.50  583.9
2023/11/09 13:06:19.600   36.184007543  -75.749682798   -40.5004   1   7   0.0050   0.0039   0.0057   0.0027   0.0020   0.0020  -0.41  583.5
2023/11/09 13:06:19.700   36.184007788  -75.749682237   -40.5053   1   7   0.0050   0.0039   0.0057   0.0027   0.0020   0.0020  -0.31  584.1
2023/11/09 13:06:19.800   36.184008058  -75.749681651   -40.5098   1   7   0.0050   0.0039   0.0057   0.0027   0.0020   0.0020  -0.20  584.3
2023/11/09 13:06:19.900   36.184008325  -75.749681047   -40.5148   1   7   0.0050   0.0039   0.0057   0.0027   0.0020   0.0020  -0.10  584.1
2023/11/09 13:06:20.000   36.184008538  -75.749680449   -40.5204   1   7   0.0050   0.0039   0.0057   0.0027   0.0020   0.0020  -0.00  584.6
2023/11/09 13:06:20.100   36.184008759  -75.749679857   -40.5221   1   7   0.0050   0.0039   0.0057   0.0027   0.0020   0.0020   0.09  584.8
2023/11/09 13:06:20.200   36.184008925  -75.749679321   -40.5214   1   7   0.0050   0.0039   0.0057   0.0027   0.0020   0.0020   0.19  585.4
2023/11/09 13:06:20.300   36.184009061  -75.749678834   -40.5177   1   7   0.0050   0.0039   0.0057   0.0027   0.0020   0.0020   0.29  585.7
2023/11/09 13:06:20.400   36.184009203  -75.749678395   -40.5103   1   7   0.0050   0.0039   0.0057   0.0027   0.0020   0.0020   0.40  586.7
2023/11/09 13:06:20.500   36.184009327  -75.749678007   -40.4998   1   7   0.0050   0.0039   0.0057   0.0027   0.0020   0.0020   0.50  587.1
2023/11/09 13:06:20.600   36.184009476  -75.749677658   -40.4881   1   7   0.0050   0.0039   0.0057   0.0027   0.0020   0.0020  -0.41  587.2
2023/11/09 13:06:20.700   36.184009690  -75.749677357   -40.4706   1   7   0.0050   0.0039   0.0057   0.0027   0.0020   0.0020  -0.31  587.8
2023/11/09 13:06:20.800   36.184009941  -75.749677116   -40.4479   1   7   0.0050   0.0039   0.0057   0.0027   0.0020   0.0020  -0.20  587.5
2023/11/09 13:06:20.900   36.184010209  -75.749676985   -40.4205   1   7   0.0050   0.0039   0.0057   0.0027   0.0020   0.0020  -0.10  587.7
2023/11/09 13:06:21.000   36.184010471  -75.749676963   -40.3877   1   7   0.0050   0.0039   0.0057   0.0027   0.0020   0.0020  -0.00  588.9
2023/11/09 13:06:21.100   36.184010741  -75.749677059   -40.3500   1   7   0.0050   0.0039   0.0057   0.0027   0.0020   0.0020   0.09  589.4
2023/11/09 13:06:21.200   36.184011015  -75.749677243   -40.3066   1   7   0.0050   0.0039   0.0057   0.0027   0.0020   0.0020   0.19  590.7
2023/11/09 13:06:21.300   36.184011290  -75.749677501   -40.2607   1   7   0.0050   0.0039   0.0057   0.0027   0.0020   0.0020   0.29  591.3
2023/11/09 13:06:21.400   36.184011609  -75.749677815   -40.2147   1   7   0.0050   0.0039   0.0057   0.0027   0.0020   0.0020   0.40  592.2
2023/11/09 13:06:21.500   36.184011967  -75.749678178   -40.1713   1   7   0.0050   0.0039   0.0057   0.0027   0.0020   0.0020   0.50  592.8
2023/11/09 13:06:21.600   36.184012364  -75.749678528   -40.1301   1   7   0.0050   0.0039   0.0057   0.0027   0.0020   0.0020  -0.41  593.1
2023/11/09 13:06:21.700   36.184012787  -75.749678858   -40.0972   1   7   0.0050   0.0039   0.0057   0.0027   0.0020   0.0020  -0.31  593.8
2023/11/09 13:06:21.800   36.184013196  -75.749679179   -40.0727   1   7   0.0050   0.0039   0.0057   0.0027   0.0020   0.0020  -0.20  593.7
2023/11/09 13:06:21.900   36.184013511  -75.749679522   -40.0580   1   7   0.0050   0.0039   0.0057   0.0027   0.0020   0.0020  -0.10  593.7
2023/11/09 13:06:22.000   36.184013713  -75.749679901   -40.0555   1   7   0.0050   0.0039   0.0057   0.0027   0.0020   0.0020  -0.00  594.2
2023/11/09 13:06:22.100   36.184013803  -75.749680279   -40.0632   1   7   0.0050   0.0039   0.0057   0.0027   0.0020   0.0020   0.09  594.5
2023/11/09 13:06:22.200   36.184013849  -75.749680616   -40.0768   1   7   0.0050   0.0039   0.0057   0.0027   0.0020   0.0020   0.19  594.0
2023/11/09 13:06:22.300   36.184013879  -75.749680874   -40.0961   1   7   0.0050   0.0039   0.0057   0.0027   0.0020   0.0020   0.29  593.3
2023/11/09 13:06:22.400   36.184013956  -75.749681016   -40.1193   1   7   0.0050   0.0039   0.0057   0.0027   0.0020   0.0020   0.40  592.7
2023/11/09 13:06:22.500   36.184014030  -75.749681121   -40.1497   1   7   0.0050   0.0039   0.0057   0.0027   0.0020   0.0020   0.50  592.3
2023/11/09 13:06:22.600   36.184014065  -75.749681188   -40.1801   1   7   0.0050   0.0039   0.0057   0.0027   0.0020   0.0020  -0.41  591.9
2023/11/09 13:06:22.700   36.184014040  -75.749681297   -40.2148   1   7   0.0050   0.0039   0.0057   0.0027   0.0020   0.0020  -0.31  591.1
2023/11/09 13:06:22.800   36.184013984  -75.749681409   -40.2515   1   7   0.0050   0.0039   0.0057   0.0027   0.0020   0.0020  -0.20  590.5
2023/11/09 13:06:22.900   36.184013917  -75.749681533   -40.2866   1   7   0.0050   0.0039   0.0057   0.0027   0.0020   0.0020  -0.10  590.7
2023/11/09 13:06:23.000   36.184013926  -75.749681629   -40.3214   1   7   0.0050   0.0039   0.0057   0.0027   0.0020   0.0020  -0.00  590.4
2023/11/09 13:06:23.100   36.184014035  -75.749681651   -40.3534   1   7   0.0050   0.0039   0.0057   0.0027   0.0020   0.0020   0.09  589.2
2023/11/09 13:06:23.200   36.184014254  -75.749681586   -40.3830   1   7   0.0050   0.0039   0.0057   0.0027   0.0020   0.0020   0.19  588.0
2023/11/09 13:06:23.300   36.184014532  -75.749681474   -40.4115   1   7   0.0050   0.0039   0.0057   0.0027   0.0020   0.0020   0.29  587.8
2023/11/09 13:06:23.400   36.184014833  -75.749681310   -40.4389   1   7   0.0050   0.0039   0.0057   0.0027   0.0020   0.0020   0.40  587.3
2023/11/09 13:06:23.500   36.184015095  -75.749681115   -40.4641   1   7   0.0050   0.0039   0.0057   0.0027   0.0020   0.0020   0.50  586.1
2023/11/09 13:06:23.600   36.184015296  -75.749680897   -40.4875   1   7   0.0050   0.0039   0.0057   0.0027   0.0020   0.0020  -0.41  585.5
2023/11/09 13:06:23.700   36.184015474  -75.749680647   -40.5117   1   7   0.0050   0.0039   0.0057   0.0027   0.0020   0.0020  -0.31  585.1
2023/11/09 13:06:23.800   36.184015695  -75.749680339   -40.5328   1   7   0.0050   0.0039   0.0057   0.0027   0.0020   0.0020  -0.20  584.1
2023/11/09 13:06:23.900   36.184015953  -75.749679983   -40.5539   1   7   0.0050   0.0039   0.0057   0.0027   0.0020   0.0020  -0.10  583.5
2023/11/09 13:06:24.000   36.184016299  -75.749679563   -40.5722   1   7   0.0050   0.0039   0.0057   0.0027   0.0020   0.0020  -0.00  582.8
2023/11/09 13:06:24.100   36.184016680  -75.749679111   -40.5876   1   7   0.0050   0.0039   0.0057   0.0027   0.0020   0.0020   0.09  582.2
2023/11/09 13:06:24.200   36.184017070  -75.749678686   -40.6008   1   7   0.0050   0.0039   0.0057   0.0027   0.0020   0.0020   0.19  582.5
2023/11/09 13:06:24.300   36.184017419  -75.749678296   -40.6072   1   7   0.0050   0.0039   0.0057   0.0027   0.0020   0.0020   0.29  582.1
2023/11/09 13:06:24.400   36.184017702  -75.749677977   -40.6090   1   7   0.0050   0.0039   0.0057   0.0027   0.0020   0.0020   0.40  582.0
2023/11/09 13:06:24.500   36.184017982  -75.749677702   -40.6035   1   7   0.0050   0.0039   0.0057   0.0027   0.0020   0.0020   0.50  582.8
2023/11/09 13:06:24.600   36.184018266  -75.749677448   -40.5883   1   7   0.0050   0.0039   0.0057   0.0027   0.0020   0.0020  -0.41  582.7
2023/11/09 13:06:24.700   36.184018592  -75.749677248   -40.5672   1   7   0.0050   0.0039   0.0057   0.0027   0.0020   0.0020  -0.31  582.6
2023/11/09 13:06:24.800   36.184018957  -75.749677087   -40.5421   1   7   0.0050   0.0039   0.0057   0.0027   0.0020   0.0020  -0.20  582.6
2023/11/09 13:06:24.900   36.184019311  -75.749676978   -40.5128   1   7   0.0050   0.0039   0.0057   0.0027   0.0020   0.0020  -0.10  583.1
2023/11/09 13:06:25.000   36.184019629  -75.749676937   -40.4820   1   7   0.0050   0.0039   0.0057   0.0027   0.0020   0.0020  -0.00  583.3
2023/11/09 13:06:25.100   36.184019895  -75.749676949   -40.4511   1   7   0.0050   0.0039   0.0057   0.0027   0.0020   0.0020   0.09  583.3
2023/11/09 13:06:25.200   36.184020164  -75.749676992   -40.4202   1   7   0.0050   0.0039   0.0057   0.0027   0.0020   0.0020   0.19  583.5
2023/11/09 13:06:25.300   36.184020430  -75.749677049   -40.3889   1   7   0.0050   0.0039   0.0057   0.0027   0.0020   0.0020   0.29  582.6
2023/11/09 13:06:25.400   36.184020719  -75.749677104   -40.3603   1   7   0.0050   0.0039   0.0057   0.0027   0.0020   0.0020   0.40  582.5
2023/11/09 13:06:25.500   36.184021028  -75.749677174   -40.3382   1   7   0.0050   0.0039   0.0057   0.0027   0.0020   0.0020   0.50  582.4
2023/11/09 13:06:25.600   36.184021334  -75.749677261   -40.3214   1   7   0.0050   0.0039   0.0057   0.0027   0.0020   0.0020  -0.41  582.6
2023/11/09 13:06:25.700   36.184021624  -75.749677345   -40.3105   1   7   0.0050   0.0039   0.0057   0.0027   0.0020   0.0020  -0.31  581.4
2023/11/09 13:06:25.800   36.184021879  -75.749677453   -40.3065   1   7   0.0050   0.0039   0.0057   0.0027   0.0020   0.0020  -0.20  581.3
2023/11/09 13:06:25.900   36.184022105  -75.749677551   -40.3082   1   7   0.0050   0.0039   0.0057   0.0027   0.0020   0.0020  -0.10  579.8
2023/11/09 13:06:26.000   36.184022372  -75.749677595   -40.3156   1   7   0.0050   0.0039   0.0057   0.0027   0.0020   0.0020  -0.00  579.6
2023/11/09 13:06:26.100   36.184022701  -75.749677577   -40.3279   1   7   0.0050   0.0039   0.0057   0.0027   0.0020   0.0020   0.09  579.8
2023/11/09 13:06:26.200   36.184023100  -75.749677493   -40.3420   1   7   0.0050   0.0039   0.0057   0.0027   0.0020   0.0020   0.19  579.0
2023/11/09 13:06:26.300   36.184023524  -75.749677329   -40.3611   1   7   0.0050   0.0039   0.0057   0.0027   0.0020   0.0020   0.29  579.0
2023/11/09 13:06:26.400   36.184023953  -75.749677116   -40.3825   1   7   0.0050   0.0039   0.0057   0.0027   0.0020   0.0020   0.40  578.5
2023/11/09 13:06:26.500   36.184024353  -75.749676857   -40.4038   1   7   0.0050   0.0039   0.0057   0.0027   0.0020   0.0020   0.50  577.9
2023/11/09 13:06:26.600   36.184024706  -75.749676570   -40.4236   1   7   0.0050   0.0039   0.0057   0.0027   0.0020   0.0020  -0.41  577.1
2023/11/09 13:06:26.700   36.184025047  -75.749676273   -40.4423   1   7   0.0050   0.0039   0.0057   0.0027   0.0020   0.0020  -0.31  576.5
2023/11/09 13:06:26.800   36.184025396  -75.749675969   -40.4605   1   7   0.0050   0.0039   0.0057   0.0027   0.0020   0.0020  -0.20  576.6
2023/11/09 13:06:26.900   36.184025769  -75.749675661   -40.4780   1   7   0.0050   0.0039   0.0057   0.0027   0.0020   0.0020  -0.10  576.2
2023/11/09 13:06:27.000   36.184026137  -75.749675386   -40.4927   1   7   0.0050   0.0039   0.0057   0.0027   0.0020   0.0020  -0.00  576.8
2023/11/09 13:06:27.100   36.184026474  -75.749675129   -40.5039   1   7   0.0050   0.0039   0.0057   0.0027   0.0020   0.0020   0.09  577.3
2023/11/09 13:06:27.200   36.184026795  -75.749674899   -40.5102   1   7   0.0050   0.0039   0.0057   0.0027   0.0020   0.0020   0.19  577.3
2023/11/09 13:06:27.300   36.184027118  -75.749674699   -40.5116   1   7   0.0050   0.0039   0.0057   0.0027   0.0020   0.0020   0.29  576.9
2023/11/09 13:06:27.400   36.184027422  -75.749674536   -40.5083   1   7   0.0050   0.0039   0.0057   0.0027   0.0020   0.0020   0.40  576.5
2023/11/09 13:06:27.500   36.184027758  -75.749674394   -40.5028   1   7   0.0050   0.0039   0.0057   0.0027   0.0020   0.0020   0.50  575.7
2023/11/09 13:06:27.600   36.184028071  -75.749674304   -40.4962   1   7   0.0050   0.0039   0.0057   0.0027   0.0020   0.0020  -0.41  575.2
2023/11/09 13:06:27.700   36.184028356  -75.749674258   -40.4900   1   7   0.0050   0.0039   0.0057   0.0027   0.0020   0.0020  -0.31  575.0
2023/11/09 13:06:27.800   36.184028653  -75.749674247   -40.4840   1   7   0.0050   0.0039   0.0057   0.0027   0.0020   0.0020  -0.20  574.3
2023/11/09 13:06:27.900   36.184029005  -75.749674220   -40.4789   1   7   0.0050   0.0039   0.0057   0.0027   0.0020   0.0020  -0.10  573.8
2023/11/09 13:06:28.000   36.184029438  -75.749674163   -40.4743   1   7   0.0050   0.0039   0.0057   0.0027   0.0020   0.0020  -0.00  573.6
2023/11/09 13:06:28.100   36.184029940  -75.749674059   -40.4710   1   7   0.0050   0.0039   0.0057   0.0027   0.0020   0.0020   0.09  572.2
2023/11/09 13:06:28.200   36.184030488  -75.749673907   -40.4704   1   7   0.0050   0.0039   0.0057   0.0027   0.0020   0.0020   0.19  571.8
2023/11/09 13:06:28.300   36.184031018  -75.749673731   -40.4739   1   7   0.0050   0.0039   0.0057   0.0027   0.0020   0.0020   0.29  571.8
2023/11/09 13:06:28.400   36.184031513  -75.749673534   -40.4808   1   7   0.0050   0.0039   0.0057   0.0027   0.0020   0.0020   0.40  571.4
2023/11/09 13:06:28.500   36.184031943  -75.749673323   -40.4927   1   7   0.0050   0.0039   0.0057   0.0027   0.0020   0.0020   0.50  570.9
2023/11/09 13:06:28.600   36.184032351  -75.749673092   -40.5058   1   7   0.0050   0.0039   0.0057   0.0027   0.0020   0.0020  -0.41  570.7
2023/11/09 13:06:28.700   36.184032718  -75.749672826   -40.5205   1   7   0.0050   0.0039   0.0057   0.0027   0.0020   0.0020  -0.31  570.6
2023/11/09 13:06:28.800   36.184033095  -75.749672518   -40.5359   1   7   0.0050   0.0039   0.0057   0.0027   0.0020   0.0020  -0.20  569.9
2023/11/09 13:06:28.900   36.184033482  -75.749672190   -40.5480   1   7   0.0050   0.0039   0.0057   0.0027   0.0020   0.0020  -0.10  569.3
2023/11/09 13:06:29.000   36.184033834  -75.749671857   -40.5583   1   7   0.0050   0.0039   0.0057   0.0027   0.0020   0.0020  -0.00  568.4
2023/11/09 13:06:29.100   36.184034157  -75.749671525   -40.5623   1   7   0.0050   0.0039   0.0057   0.0027   0.0020   0.0020   0.09  568.1
2023/11/09 13:06:29.200   36.184034449  -75.749671189   -40.5609   1   7   0.0050   0.0039   0.0057   0.0027   0.0020   0.0020   0.19  567.5
2023/11/09 13:06:29.300   36.184034702  -75.749670865   -40.5536   1   7   0.0050   0.0039   0.0057   0.0027   0.0020   0.0020   0.29  568.5
2023/11/09 13:06:29.400   36.184034931  -75.749670583   -40.5417   1   7   0.0050   0.0039   0.0057   0.0027   0.0020   0.0020   0.40  568.4
2023/11/09 13:06:29.500   36.184035133  -75.749670351   -40.5298   1   7   0.0050   0.0039   0.0057   0.0027   0.0020   0.0020   0.50  568.0
2023/11/09 13:06:29.600   36.184035321  -75.749670157   -40.5164   1   7   0.0050   0.0039   0.0057   0.0027   0.0020   0.0020  -0.41  568.2
2023/11/09 13:06:29.700   36.184035517  -75.749670018   -40.5054   1   7   0.0050   0.0039   0.0057   0.0027   0.0020   0.0020  -0.31  568.7
2023/11/09 13:06:29.800   36.184035744  -75.749669874   -40.4966   1   7   0.0050   0.0039   0.0057   0.0027   0.0020   0.0020  -0.20  568.7
2023/11/09 13:06:29.900   36.184036034  -75.749669732   -40.4885   1   7   0.0050   0.0039   0.0057   0.0027   0.0020   0.0020  -0.10  569.2
2023/11/09 13:06:30.000   36.184036339  -75.749669613   -40.4826   1   7   0.0050   0.0039   0.0057   0.0027   0.0020   0.0020  -0.00  569.2
2023/11/09 13:06:30.100   36.184036632  -75.749669493   -40.4792   1   7   0.0050   0.0039   0.0057   0.0027   0.0020   0.0020   0.09  569.2
2023/11/09 13:06:30.200   36.184036899  -75.749669391   -40.4773   1   7   0.0050   0.0039   0.0057   0.0027   0.0020   0.0020   0.19  568.8
2023/11/09 13:06:30.300   36.184037110  -75.749669294   -40.4763   1   7   0.0050   0.0039   0.0057   0.0027   0.0020   0.0020   0.29  567.8
2023/11/09 13:06:30.400   36.184037280  -75.749669184   -40.4786   1   7   0.0050   0.0039   0.0057   0.0027   0.0020   0.0020   0.40  568.1
2023/11/09 13:06:30.500   36.184037421  -75.749669064   -40.4805   1   7   0.0050   0.0039   0.0057   0.0027   0.0020   0.0020   0.50  567.5
2023/11/09 13:06:30.600   36.184037547  -75.749668924   -40.4843   1   7   0.0050   0.0039   0.0057   0.0027   0.0020   0.0020  -0.41  568.1
2023/11/09 13:06:30.700   36.184037731  -75.749668749   -40.4879   1   7   0.0050   0.0039   0.0057   0.0027   0.0020   0.0020  -0.31  568.2
2023/11/09 13:06:30.800   36.184037943  -75.749668510   -40.4917   1   7   0.0050   0.0039   0.0057   0.0027   0.0020   0.0020  -0.20  567.9
2023/11/09 13:06:30.900   36.184038199  -75.749668239   -40.4945   1   7   0.0050   0.0039   0.0057   0.0027   0.0020   0.0020  -0.10  567.7
2023/11/09 13:06:31.000   36.184038529  -75.749667927   -40.4974   1   7   0.0050   0.0039   0.0057   0.0027   0.0020   0.0020  -0.00  567.3
2023/11/09 13:06:31.100   36.184038908  -75.749667595   -40.4991   1   7   0.0050   0.0039   0.0057   0.0027   0.0020   0.0020   0.09  567.2
2023/11/09 13:06:31.200   36.184039340  -75.749667229   -40.5010   1   7   0.0050   0.0039   0.0057   0.0027   0.0020   0.0020   0.19  567.0
2023/11/09 13:06:31.300   36.184039759  -75.749666856   -40.5007   1   7   0.0050   0.0039   0.0057   0.0027   0.0020   0.0020   0.29  567.0
2023/11/09 13:06:31.400   36.184040128  -75.749666489   -40.4990   1   7   0.0050   0.0039   0.0057   0.0027   0.0020   0.0020   0.40  567.1
2023/11/09 13:06:31.500   36.184040470  -75.749666164   -40.4961   1   7   0.0050   0.0039   0.0057   0.0027   0.0020   0.0020   0.50  567.0
2023/11/09 13:06:31.600   36.184040815  -75.749665852   -40.4952   1   7   0.0050   0.0039   0.0057   0.0027   0.0020   0.0020  -0.41  566.8
2023/11/09 13:06:31.700   36.184041194  -75.749665531   -40.4935   1   7   0.0050   0.0039   0.0057   0.0027   0.0020   0.0020  -0.31  566.8
2023/11/09 13:06:31.800   36.184041605  -75.749665218   -40.4934   1   7   0.0050   0.0039   0.0057   0.0027   0.0020   0.0020  -0.20  566.4
2023/11/09 13:06:31.900   36.184042060  -75.749664891   -40.4948   1   7   0.0050   0.0039   0.0057   0.0027   0.0020   0.0020  -0.10  566.7
2023/11/09 13:06:32.000   36.184042540  -75.749664541   -40.4964   1   7   0.0050   0.0039   0.0057   0.0027   0.0020   0.0020  -0.00  566.3
2023/11/09 13:06:32.100   36.184043036  -75.749664180   -40.4987   1   7   0.0050   0.0039   0.0057   0.0027   0.0020   0.0020   0.09  566.6
2023/11/09 13:06:32.200   36.184043506  -75.749663825   -40.5030   1   7   0.0050   0.0039   0.0057   0.0027   0.0020   0.0020   0.19  566.3
2023/11/09 13:06:32.300   36.184043911  -75.749663447   -40.5067   1   7   0.0050   0.0039   0.0057   0.0027   0.0020   0.0020   0.29  566.1
2023/11/09 13:06:32.400   36.184044268  -75.749663088   -40.5119   1   7   0.0050   0.0039   0.0057   0.0027   0.0020   0.0020   0.40  566.2
2023/11/09 13:06:32.500   36.184044595  -75.749662716   -40.5184   1   7   0.0050   0.0039   0.0057   0.0027   0.0020   0.0020   0.50  565.9
2023/11/09 13:06:32.600   36.184044864  -75.749662351   -40.5272   1   7   0.0050   0.0039   0.0057   0.0027   0.0020   0.0020  -0.41  565.3
2023/11/09 13:06:32.700   36.184045141  -75.749661959   -40.5361   1   7   0.0050   0.0039   0.0057   0.0027   0.0020   0.0020  -0.31  564.7
2023/11/09 13:06:32.800   36.184045439  -75.749661556   -40.5453   1   7   0.0050   0.0039   0.0057   0.0027   0.0020   0.0020  -0.20  564.6
2023/11/09 13:06:32.900   36.184045796  -75.749661121   -40.5522   1   7   0.0050   0.0039   0.0057   0.0027   0.0020   0.0020  -0.10  564.4
2023/11/09 13:06:33.000   36.184046173  -75.749660693   -40.5571   1   7   0.0050   0.0039   0.0057   0.0027   0.0020   0.0020  -0.00  563.9
2023/11/09 13:06:33.100   36.184046590  -75.749660268   -40.5594   1   7   0.0050   0.0039   0.0057   0.0027   0.0020   0.0020   0.09  563.0
2023/11/09 13:06:33.200   36.184046976  -75.749659855   -40.5563   1   7   0.0050   0.0039   0.0057   0.0027   0.0020   0.0020   0.19  561.7
2023/11/09 13:06:33.300   36.184047302  -75.749659442   -40.5508   1   7   0.0050   0.0039   0.0057   0.0027   0.0020   0.0020   0.29  561.3
2023/11/09 13:06:33.400   36.184047570  -75.749659060   -40.5438   1   7   0.0050   0.0039   0.0057   0.0027   0.0020   0.0020   0.40  560.9
2023/11/09 13:06:33.500   36.184047820  -75.749658698   -40.5352   1   7   0.0050   0.0039   0.0057   0.0027   0.0020   0.0020   0.50  561.2
2023/11/09 13:06:33.600   36.184048116  -75.749658374   -40.5247   1   7   0.0050   0.0039   0.0057   0.0027   0.0020   0.0020  -0.41  561.3
2023/11/09 13:06:33.700   36.184048471  -75.749658047   -40.5142   1   7   0.0050   0.0039   0.0057   0.0027   0.0020   0.0020  -0.31  561.2
2023/11/09 13:06:33.800   36.184048881  -75.749657722   -40.5026   1   7   0.0050   0.0039   0.0057   0.0027   0.0020   0.0020  -0.20  560.9
2023/11/09 13:06:33.900   36.184049292  -75.749657439   -40.4928   1   7   0.0050   0.0039   0.0057   0.0027   0.0020   0.0020  -0.10  560.8
2023/11/09 13:06:34.000   36.184049698  -75.749657173   -40.4819   1   7   0.0050   0.0039   0.0057   0.0027   0.0020   0.0020  -0.00  560.1
2023/11/09 13:06:34.100   36.184050073  -75.749656936   -40.4701   1   7   0.0050   0.0039   0.0057   0.0027   0.0020   0.0020   0.09  559.4
2023/11/09 13:06:34.200   36.184050383  -75.749656748   -40.4579   1   7   0.0050   0.0039   0.0057   0.0027   0.0020   0.0020   0.19  557.9
2023/11/09 13:06:34.300   36.184050648  -75.749656615   -40.4445   1   7   0.0050   0.0039   0.0057   0.0027   0.0020   0.0020   0.29  557.2
2023/11/09 13:06:34.400   36.184050923  -75.749656505   -40.4324   1   7   0.0050   0.0039   0.0057   0.0027   0.0020   0.0020   0.40  557.2
2023/11/09 13:06:34.500   36.184051180  -75.749656436   -40.4200   1   7   0.0050   0.0039   0.0057   0.0027   0.0020   0.0020   0.50  557.1
2023/11/09 13:06:34.600   36.184051443  -75.749656395   -40.4059   1   7   0.0050   0.0039   0.0057   0.0027   0.0020   0.0020  -0.41  556.8
2023/11/09 13:06:34.700   36.184051702  -75.749656406   -40.3909   1   7   0.0050   0.0039   0.0057   0.0027   0.0020   0.0020  -0.31  557.2
2023/11/09 13:06:34.800   36.184051952  -75.749656470   -40.3715   1   7   0.0050   0.0039   0.0057   0.0027   0.0020   0.0020  -0.20  556.7
2023/11/09 13:06:34.900   36.184052199  -75.749656599   -40.3515   1   7   0.0050   0.0039   0.0057   0.0027   0.0020   0.0020  -0.10  557.4
