     2.11           OBSERVATION DATA    M (MIXED)           RINEX VERSION / TYPE
teqc  2019Feb25     NGS Web             20231110 19:32:41UTCPGM / RUN BY / DATE
Linux 2.4.21-27.ELsmp|Opteron|gcc|Linux 64|=+               COMMENT
teqc  2019Feb25     NOAA/NOS/NGS/CORS   20231110 02:12:04UTCCOMMENT
+36.181669728 (latitude)                                    COMMENT
-075.75133202 (longitude)                                   COMMENT
-24.7749      (elevation)                                   COMMENT
+.000000      (antenna height)                              COMMENT
BIT 2 OF LLI FLAGS DATA COLLECTED UNDER A/S CONDITION       COMMENT
 SNR is mapped to RINEX snr flag value [0-9]                COMMENT
  L1 & L2: min(max(int(snr_dBHz/6), 0), 9)                  COMMENT
teqc.e edited: all SBAS satellites excluded                 COMMENT
teqc.e edited: all QZSS satellites excluded                 COMMENT
NCDU                                                        MARKER NAME
49846M001                                                   MARKER NUMBER
Bart Alligood       NCGS                                    OBSERVER / AGENCY
6039R40019          TRIMBLE ALLOY       5.44                REC # / TYPE / VERS
60393G0007          TRM115000.00    NONE                    ANT # / TYPE
  1268583.6010 -4995546.6620  3744466.5730                  APPROX POSITION XYZ
        0.0000        0.0000        0.0000                  ANTENNA: DELTA H/E/N
     1     1                                                WAVELENGTH FACT L1/2
    11    L1    L2    L5    C1    P1    C2    P2    C5    S1# / TYPES OF OBSERV
          S2    S5                                          # / TYPES OF OBSERV
     1.0000                                                 INTERVAL
teqc.w windowed: start @ 2023 Nov  9 00:00:00.000           COMMENT
teqc.w windowed:  end  @ 2023 Nov 10 00:00:00.000           COMMENT
  2023    11     9     0     0    0.0000000     GPS         TIME OF FIRST OBS
    18                                                      LEAP SECONDS
                                                            END OF HEADER
 23 11  9 13  5 53.0000000  0 28G05G10G13G15G18G23G24G27G29G32R05R06
                                R07R08R09R15R16R20R21R22R23E03E07E08
                                E13E15E26E33
 124210897.005 7  96787636.194 6                  23636559.531
  23636562.387    23636561.859                          45.000          39.500

 127136857.812 7  99067666.157 7  94939835.486 7  24193341.820
  24193344.824    24193345.699    24193341.207          42.000          42.100
        45.700
 120522819.315 7  93913801.47044                  22934739.477
                  22934741.164                          43.000          26.500

 106841198.417 8  83252875.745 8                  20331209.016
  20331208.738    20331208.262                          48.900          48.200

 107155582.669 8  83497853.649 8  80018776.178 9  20391033.844
  20391032.559    20391032.758    20391034.063          48.800          53.900
        56.400
 112587779.114 7  87730740.946 8  84075285.659 8  21424747.273
  21424746.828    21424746.758    21424748.082          47.000          49.100
        51.400
 111477023.368 7  86865239.756 8  83245838.728 8  21213370.961
  21213373.918    21213373.906    21213371.430          46.400          48.500
        52.200
 129123869.934 6 100616109.656 6  96423757.759 7  24571488.922
  24571491.891    24571491.871    24571489.426          40.000          39.800
        45.100
 128056518.505 6  99784188.249 6                  24368361.117
  24368364.891    24368365.285                          40.100          38.400

 134733859.907 6 104987464.115 5 100612974.342 6  25639007.164
  25639013.473    25639012.965    25639011.277          38.000          35.900
        37.600
 131374097.882 7 102179833.161 6                  24576310.070    24576309.250
  24576312.801    24576312.508                          42.300          37.900

 108347788.133 6                                  20304320.055    20304318.461
                                                        38.400

 109590471.449 8  85237038.961 8                  20472425.789    20472425.734
  20472424.375    20472423.867                          50.300          48.200

 127267870.845 6  98986140.477 5                  23766380.039    23766379.883
  23766379.367    23766379.188                          40.600          31.400

 129629887.223 6 100823162.189 6                  24275513.148    24275511.781
  24275517.680    24275516.844                          36.100          37.000

 125898102.484 7  97920764.967 6                  23560113.477    23560112.965
  23560115.113    23560114.934                          43.200          41.300

 122267413.316 7  95096920.194 7                  22888707.289    22888706.773
  22888708.730    22888708.652                          44.700          42.600

 127478315.33015  99149541.67915                  23839093.609    23839088.953
  23839096.328    23839096.219                          30.400          32.700

 106198370.034 8  82598717.292 8                  19845673.906    19845672.969
  19845670.820    19845671.281                          50.700          49.400

 107718859.051 8  83781321.584 8                  20179377.664    20179376.797
  20179373.336    20179373.605                          50.200          49.300

 129757910.566 6                                  24256876.016    24256877.004
                                                        38.000

 151232218.736 6                 112933112.517 6  28778548.992
                                  28778552.875          37.700
        41.000
 123514263.859 8                  92234661.451 8  23503984.773
                                  23503982.883          48.200
        52.200
 128980681.665 8                  96316715.435 8  24544212.742
                                  24544209.688          49.600
        49.800
 124734654.874 8                  93145989.813 8  23736220.055
                                  23736218.648          48.300
        51.500
 144810511.190 6                 108137690.824 6  27556539.453
                                  27556543.887          41.000
        39.700
 126378736.434 8                  94373694.194 8  24049076.641
                                  24049072.719          49.100
        50.600
 146926455.702 6                 109717773.716 6  27959182.797
                                  27959181.527          40.900
        41.500
 23 11  9 13  5 54.0000000  0 28G05G10G13G15G18G23G24G27G29G32R05R06
                                R07R08R09R15R16R20R21R22R23E03E07E08
                                E13E15E26E33
 124213395.116 7  96789582.761 6                  23637035.273
  23637037.801    23637037.234                          45.300          39.800

 127134380.835 7  99065736.025 6  94937985.798 7  24192871.297
  24192873.941    24192874.496    24192869.820          42.300          41.600
        45.900
 120526142.364 7  93916390.85944                  22935372.117
                  22935373.598                          43.500          27.500

 106842855.395 8  83254166.901 8                  20331524.516
  20331524.051    20331523.496                          48.800          48.100

 107155087.861 8  83497468.082 9  80018406.673 9  20390939.266
  20390938.621    20390938.492    20390939.930          49.100          54.100
        56.400
 112586104.729 7  87729436.230 8  84074035.302 8  21424428.469
  21424428.000    21424428.137    21424429.438          47.200          48.600
        51.200
 111474935.178 7  86863612.609 8  83244279.367 8  21212973.320
  21212976.727    21212976.480    21212974.129          46.700          48.700
        51.900
 129122956.422 6 100615397.846 6  96423075.592 7  24571315.383
  24571318.059    24571317.973    24571315.570          40.400          40.000
        45.200
 128059891.552 6  99786816.574 6                  24369002.461
  24369007.000    24369007.168                          40.200          38.600

 134730765.496 6 104985052.862 6 100610663.575 6  25638419.016
  25638424.379    25638424.004    25638422.242          38.800          36.300
        38.100
 131377195.106 6 102182242.123 6                  24576889.422    24576888.223
  24576892.832    24576891.969                          41.400          38.300

 108349390.762 6                                  20304620.609    20304619.035
                                                        38.600

 109589412.955 8  85236215.677 7                  20472228.047    20472228.020
  20472226.699    20472226.063                          50.300          47.500

 127265159.370 6  98984031.539 5                  23765874.352    23765873.711
  23765874.207    23765872.922                          40.200          30.800

 129626291.195 6 100820365.309 6                  24274838.570    24274838.641
  24274843.402    24274843.289                          36.200          36.500

 125898564.377 7  97921124.218 6                  23560200.297    23560199.547
  23560201.574    23560201.516                          43.200          41.600

 122264986.793 7  95095032.895 7                  22888252.969    22888252.227
  22888254.273    22888254.512                          44.600          42.600

 127482873.866 5  99153087.219 5                  23839943.828    23839942.070
  23839947.234    23839948.813                          30.400          32.600

 106200731.133 8  82600553.709 8                  19846115.438    19846113.996
  19846112.004    19846112.488                          50.300          49.300

 107717096.904 8  83779951.016 8                  20179047.047    20179046.465
  20179042.621    20179043.551                          50.100          49.400

 129753687.435 6                                  24256087.305    24256087.633
                                                        38.400

 151234826.050 6                 112935059.517 6  28779044.805
                                  28779049.102          38.900
        41.000
 123513681.326 8                  92234226.438 8  23503873.727
                                  23503872.012          48.300
        52.600
 128982484.869 8                  96318061.980 8  24544555.945
                                  24544552.832          49.700
        49.600
 124736069.731 8                  93147046.361 8  23736489.250
                                  23736487.902          48.600
        51.700
 144813458.116 6                 108139891.440 6  27557099.992
                                  27557104.555          40.900
        40.200
 126377289.402 8                  94372613.617 8  24048801.320
                                  24048797.379          49.300
        50.300
 146923602.737 6                 109715643.232 6  27958639.625
                                  27958638.668          41.300
        41.400
 23 11  9 13  5 55.0000000  0 28G05G10G13G15G18G23G24G27G29G32R05R06
                                R07R08R09R15R16R20R21R22R23E03E07E08
                                E13E15E26E33
 124215893.365 7  96791529.444 6                  23637510.836
  23637513.504    23637512.559                          45.600          39.900

 127131903.861 7  99063805.908 6  94936136.090 7  24192399.250
  24192402.457    24192403.094    24192398.551          42.100          41.400
        46.200
 120529465.542 7  93918980.34844                  22936004.438
                  22936005.949                          43.900          27.500

 106844512.792 8  83255458.373 8                  20331840.211
  20331839.453    20331838.949                          49.100          48.300

 107154593.658 8  83497082.981 9  80018037.625 9  20390845.438
  20390844.563    20390844.582    20390845.855          49.300          54.100
        56.600
 112584430.489 7  87728131.631 8  84072785.067 8  21424110.375
  21424109.656    21424109.508    21424110.887          47.500          48.400
        51.200
 111472847.578 7  86861985.905 8  83242720.437 8  21212575.719
  21212579.219    21212579.363    21212576.785          46.900          48.900
        51.900
 129122043.521 6 100614686.451 6  96422393.860 7  24571141.641
  24571144.957    24571144.492    24571141.813          39.400          39.900
        45.100
 128063264.588 6  99789444.930 6                  24369644.336
  24369648.840    24369649.109                          40.800          38.900

 134727671.201 6 104982641.724 5 100608352.877 6  25637829.648
  25637835.621    25637835.285    25637833.340          38.800          35.000
        37.800
 131380292.187 6 102184650.940 6                  24577468.750    24577467.699
  24577471.449    24577471.227                          41.500          38.400

 108350993.586 6                                  20304920.523    20304919.309
                                                        38.800

 109588354.775 8  85235392.651 7                  20472030.625    20472030.191
  20472028.227    20472028.398                          50.200          47.600

 127262448.135 6  98981922.850 5                  23765367.867    23765367.254
  23765366.438    23765366.621                          40.000          31.700

 129622695.039 6 100817568.311 6                  24274167.273    24274165.574
  24274168.836    24274169.746                          36.300          37.000

 125899027.013 7  97921484.056 6                  23560287.188    23560286.023
  23560287.227    23560288.074                          43.700          41.300

 122262560.762 7  95093145.985 7                  22887798.648    22887798.109
  22887800.367    22887800.480                          44.600          42.300

 127487432.535 4  99156632.809 5                  23840797.055    23840794.730
  23840800.332    23840801.402                          29.700          32.100

 106203093.023 8  82602390.725 8                  19846556.227    19846555.434
  19846553.559    19846553.938                          50.500          49.500

 107715335.557 8  83778581.085 8                  20178717.258    20178716.691
  20178713.008    20178713.574                          50.400          49.100

 129749464.478 6                                  24255297.789    24255297.992
                                                        37.800

 151237433.290 6                 112937006.474 6  28779541.242
                                  28779545.172          39.500
        41.200
 123513099.083 8                  92233791.651 8  23503763.078
                                  23503761.254          48.200
        52.500
 128984288.221 8                  96319408.624 8  24544899.172
                                  24544895.973          49.800
        49.900
 124737484.977 8                  93148103.197 8  23736758.750
                                  23736757.168          48.200
        51.700
 144816405.185 6                 108142092.162 6  27557660.656
                                  27557665.398          41.300
        39.900
 126375842.706 8                  94371533.289 8  24048525.828
                                  24048522.066          49.500
        50.500
 146920749.821 6                 109713512.822 6  27958097.102
                                  27958095.797          41.300
        41.500
 23 11  9 13  5 56.0000000  0 28G05G10G13G15G18G23G24G27G29G32R05R06
                                R07R08R09R15R16R20R21R22R23E03E07E08
                                E13E15E26E33
 124218391.773 7  96793476.261 6                  23637986.430
  23637988.926    23637987.789                          45.200          40.200

 127129426.878 7  99061875.810 6  94934286.412 7  24191928.000
  24191930.820    24191931.766    24191927.230          42.100          41.500
        46.300
 120532788.938 7  93921570.00244                  22936637.031
                  22936638.438                          43.600          27.800

 106846170.622 8  83256750.191 8                  20332155.773
  20332154.781    20332154.332                          48.600          48.400

 107154100.127 8  83496698.412 9  80017669.071 9  20390751.805
  20390750.500    20390750.559    20390751.996          49.100          54.300
        56.600
 112582756.458 7  87726827.191 8  84071534.973 8  21423791.688
  21423791.074    21423790.875    21423792.387          46.900          48.600
        51.100
 111470760.598 7  86860359.689 8  83241161.980 8  21212178.953
  21212182.113    21212182.203    21212179.633          46.800          48.900
        52.000
 129121131.241 6 100613975.600 6  96421712.615 7  24570967.727
  24570970.930    24570970.832    24570968.117          39.700          40.300
        45.100
 128066637.678 6  99792073.264 6                  24370286.461
  24370291.281    24370291.211                          40.900          39.100

 134724577.067 6 104980230.700 5 100606042.321 6  25637240.906
  25637246.836    25637246.563    25637244.367          38.600          35.500
        37.700
 131383389.176 6 102187059.698 6                  24578047.531    24578047.109
  24578050.410    24578050.605                          40.200          37.900

 108352596.682 6                                  20305221.328    20305219.633
                                                        38.800

 109587296.979 8  85234569.921 7                  20471833.523    20471832.523
  20471831.063    20471830.746                          50.200          47.800

 127259737.131 6  98979814.252 5                  23764861.695    23764861.055
  23764859.543    23764860.473                          40.100          32.100

 129619098.803 6 100814771.262 6                  24273492.891    24273491.824
  24273496.586    24273496.273                          36.800          37.100

 125899490.502 7  97921844.565 6                  23560373.172    23560372.430
  23560374.711    23560374.582                          43.100          41.400

 122260135.293 7  95091259.510 7                  22887344.078    22887344.215
  22887346.422    22887346.391                          44.400          43.100

 127491991.282 4  99160178.496 5                  23841647.609    23841647.285
  23841654.570    23841653.859                          29.700          32.100

 106205455.758 8  82604228.416 8                  19846998.430    19846997.055
  19846995.355    19846995.473                          50.200          49.300

 107713575.040 8  83777211.791 8                  20178387.086    20178386.840
  20178383.191    20178383.840                          50.200          49.000

 129745241.801 6                                  24254508.109    24254508.652
                                                        38.200

 151240040.481 6                 112938953.396 6  28780037.313
                                  28780041.453          39.600
        41.500
 123512517.200 8                  92233357.131 8  23503652.219
                                  23503650.496          48.300
        52.400
 128986091.780 8                  96320755.441 8  24545242.313
                                  24545239.129          49.800
        49.800
 124738900.667 8                  93149160.374 8  23737028.055
                                  23737026.637          48.200
        51.500
 144819352.397 6                 108144293.006 6  27558221.805
                                  27558226.199          40.800
        40.200
 126374396.401 8                  94370453.267 8  24048250.781
                                  24048246.898          49.100
        50.800
 146917896.982 6                 109711382.450 6  27957554.094
                                  27957552.945          41.200
        41.300
 23 11  9 13  5 57.0000000  0 28G05G10G13G15G18G23G24G27G29G32R05R06
                                R07R08R09R15R16R20R21R22R23E03E07E08
                                E13E15E26E33
 124220890.307 7  96795423.182 6                  23638461.594
  23638464.313    23638463.320                          45.200          40.500

 127126949.932 6  99059945.704 6  94932436.721 7  24191456.680
  24191459.512    24191460.363    24191455.715          41.800          41.400
        46.100
 120536112.472 7  93924159.76344                  22937269.109
                  22937270.914                          43.600          27.300

 106847828.866 8  83258042.327 8                  20332470.891
  20332470.387    20332469.902                          48.300          48.400

 107153607.219 8  83496314.324 9  80017300.990 9  20390657.828
  20390656.715    20390656.699    20390658.137          48.600          54.200
        56.800
 112581082.573 7  87725522.880 8  84070284.998 8  21423472.984
  21423472.559    21423472.418    21423473.715          46.800          48.600
        51.300
 111468674.203 7  86858733.915 8  83239603.959 8  21211782.117
  21211785.207    21211785.180    21211782.629          46.900          49.100
        52.200
 129120219.561 6 100613265.180 6  96421031.801 7  24570793.508
  24570797.316    24570797.305    24570794.586          39.500          39.900
        45.400
 128070010.735 6  99794701.648 6                  24370928.336
  24370933.301    24370933.031                          40.300          39.100

 134721483.060 6 104977819.792 5 100603731.869 6  25636652.234
  25636657.996    25636657.664    25636655.434          38.800          35.200
        38.100
 131386486.028 6 102189468.370 6                  24578627.430    24578626.469
  24578629.727    24578629.922                          40.100          37.900

 108354199.998 6                                  20305521.586    20305519.816
                                                        38.700

 109586239.521 8  85233747.467 7                  20471635.563    20471635.113
  20471634.133    20471633.297                          50.200          47.900

 127257026.334 6  98977705.860 5                  23764355.133    23764354.656
  23764354.711    23764354.355                          39.600          31.800

 129615502.476 6 100811974.086 6                  24272820.188    24272818.191
  24272823.563    24272822.730                          36.700          37.500

 125899954.814 7  97922205.669 6                  23560461.359    23560459.324
  23560461.484    23560461.547                          42.600          41.700

 122257710.376 7  95089373.465 7                  22886890.500    22886890.258
  22886891.832    22886892.344                          44.300          43.400

 127496550.063 4  99163724.240 5                  23842500.594    23842499.570
  23842506.289    23842506.227                          29.200          31.800

 106207819.315 8  82606066.728 8                  19847439.945    19847438.660
  19847437.105    19847437.066                          50.300          49.600

 107711815.331 8  83775843.134 8                  20178058.016    20178057.102
  20178053.633    20178054.207                          50.100          49.100

 129741019.300 6                                  24253720.180    24253719.289
                                                        38.100

 151242647.666 6                 112940900.296 6  28780533.383
                                  28780537.500          39.900
        41.800
 123511935.633 8                  92232922.840 8  23503541.539
                                  23503539.719          48.200
        52.200
 128987895.500 8                  96322102.376 8  24545585.586
                                  24545582.320          49.700
        49.900
 124740316.762 8                  93150217.839 8  23737297.430
                                  23737296.086          48.300
        51.600
 144822299.739 6                 108146493.929 6  27558782.422
                                  27558787.207          41.200
        39.900
 126372950.438 8                  94369373.482 8  24047975.586
                                  24047971.711          49.100
        50.700
 146915044.213 6                 109709252.123 6  27957011.398
                                  27957010.152          40.900
        41.400
 23 11  9 13  5 58.0000000  0 28G05G10G13G15G18G23G24G27G29G32R05R06
                                R07R08R09R15R16R20R21R22R23E03E07E08
                                E13E15E26E33
 124223388.953 7  96797370.172 6                  23638936.930
  23638939.293    23638939.008                          45.200          40.600

 127124472.904 6  99058015.560 6  94930587.011 7  24190985.602
  24190988.328    24190988.941    24190984.441          41.900          41.400
        46.200
 120539436.119 7  93926749.61844                  22937902.141
                  22937903.480                          44.000          28.000

 106849487.479 8  83259334.740 8                  20332786.563
  20332785.891    20332785.672                          48.000          48.100

 107153114.887 8  83495930.692 8  80016933.339 9  20390564.281
  20390563.133    20390563.098    20390564.457          48.600          53.800
        56.700
 112579408.824 7  87724218.648 8  84069035.115 8  21423154.703
  21423153.996    21423153.926    21423155.301          47.200          49.000
        51.400
 111466588.354 7  86857108.584 8  83238046.338 8  21211385.039
  21211388.313    21211388.238    21211385.773          46.800          49.400
        51.800
 129119308.432 6 100612555.205 6  96420351.419 7  24570620.508
  24570623.887    24570623.805    24570621.199          39.900          39.700
        45.200
 128073383.777 6  99797329.971 6                  24371569.914
  24371574.910    24371574.805                          40.200          39.200

 134718389.156 6 104975408.967 5 100601421.493 6  25636063.141
  25636069.418    25636068.930    25636066.992          38.900          35.500
        38.100
 131389582.715 6 102191876.899 6                  24579206.484    24579205.969
  24579209.684    24579209.277                          39.500          37.600

 108355803.516 6                                  20305822.172    20305820.406
                                                        39.100

 109585182.437 8  85232925.277 8                  20471437.914    20471437.480
  20471436.082    20471435.809                          50.000          48.100

 127254315.686 6  98975597.541 5                  23763849.156    23763848.770
  23763847.359    23763848.172                          39.900          31.500

 129611906.008 6 100809176.835 6                  24272145.734    24272144.934
  24272149.375    24272149.449                          36.800          37.600

 125900419.856 7  97922567.379 6                  23560547.711    23560546.605
  23560548.547    23560548.621                          42.900          41.100

 122255285.941 7  95087487.791 7                  22886436.297    22886436.836
  22886437.715    22886438.617                          44.000          42.800

 127501108.938 5  99167270.010 5                  23843354.078    23843351.609
  23843359.395    23843358.957                          30.100          32.000

 106210183.636 8  82607905.647 8                  19847881.664    19847880.438
  19847878.422    19847879.074                          50.500          49.400

 107710056.406 8  83774475.074 8                  20177728.047    20177727.547
  20177724.082    20177724.652                          50.400          49.500

 129736797.000 6                                  24252930.109    24252929.844
                                                        38.000

 151245254.701 6                 112942847.087 6  28781029.383
                                  28781033.496          40.000
        41.800
 123511354.352 8                  92232488.771 8  23503430.961
                                  23503429.188          48.700
        52.300
 128989699.361 8                  96323449.403 8  24545928.656
                                  24545925.727          49.800
        50.200
 124741733.222 8                  93151275.584 8  23737567.047
                                  23737565.668          48.100
        51.300
 144825247.166 6                 108148694.915 6  27559343.492
                                  27559347.906          41.000
        39.700
 126371504.785 8                  94368293.932 8  24047700.461
                                  24047696.512          49.200
        50.500
 146912191.441 6                 109707121.820 6  27956468.586
                                  27956467.129          41.400
        41.400
 23 11  9 13  5 59.0000000  0 28G05G10G13G15G18G23G24G27G29G32R05R06
                                R07R08R09R15R16R20R21R22R23E03E07E08
                                E13E15E26E33
 124225887.691 7  96799317.245 6                  23639412.484
  23639414.766    23639414.496                          45.200          40.300

 127121995.848 6  99056085.393 6  94928737.272 7  24190514.086
  24190516.797    24190517.574    24190513.055          41.700          41.600
        46.400
 120542759.905 7  93929339.57144                  22938534.000
                  22938536.203                          44.300          27.800

 106851146.474 8  83260627.464 8                  20333102.641
  20333101.898    20333101.301                          48.300          48.300

 107152623.147 8  83495547.522 8  80016566.141 9  20390470.570
  20390469.535    20390469.594    20390470.926          48.700          53.600
        56.600
 112577735.192 7  87722914.519 8  84067785.330 8  21422836.289
  21422835.398    21422835.414    21422836.789          47.000          48.400
        51.500
 111464503.054 7  86855483.672 8  83236489.141 8  21210988.383
  21210991.441    21210991.492    21210988.906          46.900          49.500
        51.900
 129118397.890 6 100611845.700 6  96419671.463 7  24570447.336
  24570450.512    24570450.465    24570447.777          40.400          39.400
        45.100
 128076756.777 6  99799958.268 6                  24372211.992
  24372216.711    24372216.676                          39.400          39.000

 134715295.354 6 104972998.199 6 100599111.171 6  25635474.422
  25635480.852    25635480.195    25635478.453          39.200          36.000
        37.900
 131392679.234 6 102194285.295 6                  24579785.359    24579784.730
  24579788.289    24579788.590                          39.400          36.900

 108357407.202 6                                  20306122.508    20306121.293
                                                        38.900

 109584125.693 8  85232103.371 7                  20471241.156    20471240.000
  20471238.984    20471238.398                          50.100          47.500

 127251605.204 6  98973489.427 5                  23763343.234    23763342.430
  23763340.805    23763342.133                          39.700          32.100

 129608309.387 5 100806379.473 6                  24271472.398    24271470.602
  24271475.680    24271475.961                          35.800          36.400

 125900885.631 7  97922929.661 6                  23560634.273    23560634.051
  23560634.836    23560635.723                          43.000          41.000

 122252861.956 7  95085602.467 7                  22885982.891    22885982.957
  22885984.188    22885984.789                          44.500          43.200

 127505667.800 5  99170815.791 5                  23844205.273    23844203.707
  23844213.383    23844211.535                          30.400          32.200

 106212548.695 8  82609745.136 8                  19848324.039    19848322.578
  19848321.117    19848321.035                          50.400          48.900

 107708298.252 8  83773107.619 8                  20177399.242    20177398.297
  20177394.594    20177395.246                          50.200          49.700

 129732574.836 6                                  24252140.227    24252140.477
                                                        37.900

 151247861.632 6                 112944793.837 6  28781525.367
                                  28781529.668          40.800
        41.600
 123510773.349 8                  92232054.900 8  23503320.422
                                  23503318.648          48.800
        52.700
 128991503.344 8                  96324796.538 8  24546272.086
                                  24546268.941          49.900
        50.300
 124743150.047 8                  93152333.599 8  23737836.617
                                  23737835.184          48.000
        51.200
 144828194.701 6                 108150896.004 6  27559904.156
                                  27559908.777          41.300
        39.600
 126370059.446 8                  94367214.615 8  24047425.344
                                  24047421.551          49.300
        50.600
 146909338.726 6                 109704991.525 6  27955925.617
                                  27955924.262          41.200
        41.500
 23 11  9 13  6  0.0000000  0 28G05G10G13G15G18G23G24G27G29G32R05R06
                                R07R08R09R15R16R20R21R22R23E03E07E08
                                E13E15E26E33
 124228386.605 7  96801264.446 6                  23639888.047
  23639890.691    23639890.008                          44.600          39.600

 127119518.815 7  99054155.220 7  94926887.514 7  24190042.508
  24190045.648    24190046.313    24190041.621          42.100          42.100
        46.200
 120546083.843 7  93931929.64644                  22939166.242
                  22939168.645                          43.400          27.300

 106852805.882 8  83261920.513 8                  20333418.250
  20333417.441    20333417.063                          48.400          48.500

 107152132.051 8  83495164.846 8  80016199.403 9  20390376.992
  20390376.133    20390376.129    20390377.469          48.600          53.800
        56.400
 112576061.733 7  87721610.527 8  84066535.667 8  21422517.414
  21422516.848    21422517.102    21422518.457          46.900          48.700
        51.600
 111462418.361 7  86853859.244 8  83234932.395 8  21210591.805
  21210594.617    21210594.742    21210592.270          47.000          49.600
        51.700
 129117487.954 6 100611136.640 6  96418991.960 7  24570274.094
  24570277.633    24570277.309    24570274.676          39.700          39.400
        45.400
 128080129.793 6  99802586.578 6                  24372854.117
  24372858.492    24372858.438                          39.400          38.700

 134712201.687 6 104970587.571 6 100596800.980 6  25634886.563
  25634892.355    25634891.617    25634889.691          39.500          36.300
        37.900
 131395775.600 6 102196693.586 6                  24580365.305    24580364.313
  24580367.516    24580367.738                          38.800          36.900

 108359011.139 6                                  20306423.484    20306421.406
                                                        38.600

 109583069.335 8  85231281.766 8                  20471043.781    20471042.750
  20471041.500    20471041.059                          50.000          48.000

 127248894.952 6  98971381.434 5                  23762837.320    23762836.336
  23762835.613    23762836.113                          39.900          32.100

 129604712.638 6 100803582.023 5                  24270799.281    24270796.965
  24270801.461    24270802.344                          36.600          34.600

 125901352.226 7  97923292.535 6                  23560721.313    23560721.246
  23560722.699    23560723.008                          42.300          41.300

 122250438.492 7  95083717.559 7                  22885529.664    22885529.117
  22885531.145    22885531.008                          44.800          43.400

 127510226.860 4  99174361.680 5                  23845058.898    23845055.906
  23845066.320    23845064.125                          29.900          32.400

 106214914.516 8  82611585.213 8                  19848765.891    19848764.563
  19848762.832    19848763.102                          50.200          48.300

 107706540.909 8  83771740.800 8                  20177069.648    20177069.152
  20177065.469    20177066.086                          49.800          49.700

 129728352.876 6                                  24251351.680    24251351.402
                                                        38.000

 151250468.545 6                 112946740.545 6  28782021.781
                                  28782025.809          40.600
        41.500
 123510192.677 8                  92231621.275 8  23503209.797
                                  23503208.207          48.400
        52.600
 128993307.517 8                  96326143.800 8  24546615.359
                                  24546612.258          49.900
        50.000
 124744567.289 8                  93153391.929 8  23738106.156
                                  23738104.898          48.000
        51.100
 144831142.367 6                 108153097.182 6  27560464.984
                                  27560469.797          41.200
        39.800
 126368614.456 8                  94366135.572 8  24047150.281
                                  24047146.605          49.300
        50.900
 146906486.057 6                 109702861.282 6  27955383.180
                                  27955381.453          41.600
        41.700
 23 11  9 13  6  1.0000000  0 28G05G10G13G15G18G23G24G27G29G32R05R06
                                R07R08R09R15R16R20R21R22R23E03E07E08
                                E13E15E26E33
 124230885.643 7  96803211.745 6                  23640363.469
  23640366.000    23640365.621                          45.200          39.500

 127117041.757 7  99052225.072 7  94925037.780 7  24189571.109
  24189574.227    24189574.969    24189570.246          42.300          42.200
        46.200
 120549407.937 7  93934519.84444                  22939799.133
                  22939801.273                          43.100          26.900

 106854465.718 8  83263213.898 8                  20333733.492
  20333733.227    20333732.953                          48.400          48.700

 107151641.599 8  83494782.664 9  80015833.157 9  20390283.828
  20390282.934    20390282.738    20390284.102          49.200          54.100
        56.400
 112574388.455 7  87720306.670 8  84065286.133 8  21422199.516
  21422198.438    21422198.793    21422199.984          47.000          48.500
        51.400
 111460334.272 7  86852235.279 8  83233376.090 8  21210194.938
  21210198.246    21210198.238    21210195.684          47.000          49.100
        51.900
 129116578.624 6 100610428.063 6  96418312.910 7  24570101.508
  24570104.512    24570104.215    24570101.504          40.200          38.900
        44.700
 128083502.809 6  99805214.909 6                  24373495.734
  24373500.512    24373500.320                          39.900          38.500

 134709108.198 6 104968177.038 6 100594490.885 6  25634296.984
  25634303.035    25634303.074    25634301.070          39.600          36.300
        38.000
 131398871.862 6 102199101.809 6                  24580943.469    24580943.727
  24580947.195    24580946.922                          38.700          37.500

 108360615.304 6                                  20306724.000    20306722.309
                                                        39.200

 109582013.381 8  85230460.461 8                  20470846.047    20470845.508
  20470844.051    20470843.695                          49.800          48.100

 127246184.949 6  98969273.650 5                  23762331.063    23762330.301
  23762330.832    23762329.949                          40.300          32.000

 129601115.808 6 100800784.455 5                  24270125.172    24270123.617
  24270128.238    24270128.375                          38.300          35.700

 125901819.617 7  97923656.084 6                  23560809.594    23560808.844
  23560810.051    23560810.586                          43.000          40.900

 122248015.556 7  95081833.058 7                  22885076.141    22885075.668
  22885076.898    22885077.484                          45.100          43.200

 127514785.930 5  99177907.660 5                  23845911.008    23845908.793
  23845916.727    23845916.574                          30.100          32.400

 106217281.156 8  82613425.932 7                  19849207.883    19849206.750
  19849204.746    19849205.336                          50.200          47.900

 107704784.396 8  83770374.631 8                  20176740.367    20176739.906
  20176736.660    20176737.063                          49.500          49.900

 129724131.117 6                                  24250561.852    24250562.242
                                                        37.800

 151253075.386 6                 112948687.203 6  28782518.078
                                  28782521.973          40.600
        41.800
 123509612.336 8                  92231187.903 8  23503099.453
                                  23503097.691          48.500
        52.600
 128995111.856 8                  96327491.201 8  24546958.695
                                  24546955.641          49.900
        50.100
 124745984.941 8                  93154450.565 8  23738376.031
                                  23738374.719          48.100
        51.300
 144834090.190 6                 108155298.457 6  27561025.836
                                  27561030.801          41.200
        40.000
 126367169.833 8                  94365056.794 8  24046875.359
                                  24046871.715          49.400
        50.900
 146903633.464 6                 109700731.073 6  27954840.133
                                  27954838.559          41.900
        41.500
 23 11  9 13  6  2.0000000  0 28G05G10G13G15G18G23G24G27G29G32R05R06
                                R07R08R09R15R16R20R21R22R23E03E07E08
                                E13E15E26E33
 124233384.833 7  96805159.145 6                  23640839.242
  23640841.594    23640841.203                          44.600          39.600

 127114564.711 7  99050294.884 6  94923188.017 7  24189099.625
  24189103.141    24189103.512    24189099.059          42.100          41.900
        46.300
 120552732.207 7  93937110.18144                  22940432.063
                  22940433.898                          43.400          27.100

 106856125.948 8  83264507.585 8                  20334049.813
  20334049.445    20334048.938                          48.600          49.000

 107151151.748 8  83494400.969 8  80015467.355 9  20390190.688
  20390189.590    20390189.375    20390190.867          48.900          53.900
        56.400
 112572715.325 7  87719002.929 8  84064036.714 8  21421880.867
  21421880.344    21421880.309    21421881.563          47.500          48.300
        51.700
 111458250.749 7  86850611.752 8  83231820.213 8  21209798.625
  21209801.609    21209801.762    21209799.125          47.000          49.300
        52.000
 129115669.870 6 100609719.950 6  96417634.290 7  24569928.664
  24569931.930    24569931.281    24569928.547          39.200          39.000
        44.700
 128086875.821 6  99807843.220 6                  24374137.570
  24374141.668    24374142.055                          39.900          38.400

 134706014.805 6 104965766.591 5 100592180.872 6  25633708.586
  25633714.906    25633714.277    25633712.316          39.500          35.700
        37.900
 131401967.954 6 102201509.881 6                  24581524.023    24581523.570
  24581526.863    24581526.188                          39.200          37.300

 108362219.712 6                                  20307024.766    20307022.891
                                                        38.200

 109580957.726 8  85229639.392 7                  20470648.977    20470648.363
  20470647.238    20470646.680                          49.500          47.800

 127243475.120 6  98967165.979 5                  23761825.070    23761824.246
  23761824.250    23761823.848                          40.100          31.900

 129597518.801 6 100797986.820 5                  24269451.797    24269450.277
  24269453.938    24269454.645                          38.900          35.700

 125902287.771 7  97924020.193 6                  23560897.477    23560896.457
  23560897.875    23560898.148                          42.700          41.300

 122245593.128 7  95079948.946 7                  22884622.617    22884622.242
  22884623.270    22884624.168                          44.700          43.000

 127519345.090 5  99181453.652 5                  23846763.914    23846761.438
  23846769.270    23846769.211                          30.100          32.700

 106219648.602 8  82615267.283 7                  19849650.539    19849649.293
  19849647.672    19849647.754                          50.300          47.900

 107703028.670 8  83769009.063 8                  20176411.734    20176411.035
  20176407.113    20176408.207                          49.100          49.700

 129719909.556 6                                  24249774.203    24249773.234
                                                        38.100

 151255682.166 6                 112950633.816 6  28783013.813
                                  28783017.973          41.600
        41.500
 123509032.301 8                  92230754.760 8  23502988.883
                                  23502987.313          48.600
        52.600
 128996916.358 8                  96328838.715 8  24547302.211
                                  24547298.953          50.000
        50.300
 124747402.998 7                  93155509.504 8  23738645.813
                                  23738644.496          47.900
        51.100
 144837038.123 6                 108157499.846 6  27561586.875
                                  27561591.852          41.200
        39.700
 126365725.545 8                  94363978.265 8  24046600.422
                                  24046596.742          49.400
        51.100
 146900780.880 6                 109698600.928 6  27954296.938
                                  27954295.754          41.900
        41.300
 23 11  9 13  6  3.0000000  0 28G05G10G13G15G18G23G24G27G29G32R05R06
                                R07R08R09R15R16R20R21R22R23E03E07E08
                                E13E15E26E33
 124235884.161 7  96807106.679 6                  23641314.719
  23641317.031    23641316.875                          44.600          39.200

 127112087.659 7  99048364.720 6  94921338.288 7  24188628.203
  24188631.621    24188632.160    24188627.492          42.600          41.900
        46.200
 120556056.645 7  93939700.64744                  22941064.867
                  22941066.527                          43.500          27.100

 106857786.591 8  83265801.588 8                  20334365.453
  20334365.285    20334364.875                          48.800          48.900

 107150662.549 8  83494019.777 9  80015102.047 9  20390097.531
  20390096.484    20390096.371    20390097.773          49.000          54.000
        56.600
 112571042.349 7  87717699.318 8  84062787.424 8  21421562.234
  21421561.930    21421562.066    21421563.180          47.200          48.600
        51.600
 111456167.832 7  86848988.697 8  83230264.793 8  21209402.203
  21209405.211    21209405.418    21209402.809          47.300          49.100
        52.500
 129114761.760 6 100609012.306 6  96416956.153 7  24569755.516
  24569758.852    24569758.504    24569755.754          39.200          39.200
        45.000
 128090248.836 6  99810471.541 6                  24374779.328
  24374783.832    24374783.797                          39.900          37.800

 134702921.575 6 104963356.285 5 100589870.994 6  25633120.273
  25633126.465    25633125.664    25633123.695          39.400          35.700
        37.700
 131405063.941 6 102203917.884 6                  24582103.188    24582102.316
  24582105.434    24582105.273                          39.500          38.000

 108363824.340 6                                  20307324.898    20307323.719
                                                        38.400

 109579902.468 8  85228818.630 7                  20470451.547    20470450.996
  20470449.668    20470449.426                          49.100          47.800

 127240765.533 6  98965058.545 5                  23761317.805    23761318.188
  23761319.180    23761317.820                          39.900          31.800

 129593921.708 6 100795189.129 5                  24268777.703    24268777.145
  24268780.707    24268780.750                          39.700          35.600

 125902756.726 7  97924384.931 6                  23560984.992    23560984.035
  23560985.973    23560985.926                          43.100          41.100

 122243171.267 7  95078065.279 7                  22884168.617    22884168.832
  22884170.184    22884170.668                          44.600          42.800

 127523904.323 5  99184999.711 5                  23847615.969    23847614.258
  23847621.391    23847621.559                          30.600          32.600

 106222016.878 8  82617109.261 8                  19850092.758    19850091.531
  19850090.059    19850090.316                          50.500          48.100

 107701273.783 8  83767644.138 8                  20176083.203    20176082.480
  20176079.258    20176079.340                          49.300          49.800

 129715688.207 6                                  24248984.625    24248983.828
                                                        38.400

 151258288.902 6                 112952580.388 6  28783510.031
                                  28783513.914          41.500
        41.200
 123508452.589 8                  92230321.860 8  23502878.695
                                  23502877.031          48.300
        52.600
 128998721.049 8                  96330186.368 8  24547645.438
                                  24547642.477          50.000
        49.800
 124748821.467 8                  93156568.743 8  23738915.930
                                  23738914.484          48.000
        51.300
 144839986.181 6                 108159701.315 6  27562147.797
                                  27562153.039          41.200
        40.000
 126364281.610 8                  94362900.008 8  24046325.719
                                  24046321.992          49.000
        50.900
 146897928.409 7                 109696470.817 6  27953754.336
                                  27953752.875          42.000
        41.400
 23 11  9 13  6  4.0000000  0 28G05G10G13G15G18G23G24G27G29G32R05R06
                                R07R08R09R15R16R20R21R22R23E03E07E08
                                E13E15E26E33
 124238383.622 7  96809054.313 6                  23641790.875
  23641792.512    23641792.453                          44.400          39.500

 127109610.598 7  99046434.553 7  94919488.527 7  24188156.930
  24188160.094    24188160.871    24188156.086          43.200          42.100
        46.400
 120559381.230 7  93942291.22744                  22941696.805
                  22941699.039                          43.500          27.200

 106859447.674 8  83267095.941 8                  20334682.133
  20334681.238    20334681.000                          49.100          48.800

 107150173.977 8  83493639.070 9  80014737.212 9  20390004.680
  20390003.438    20390003.477    20390004.828          48.800          54.100
        56.600
 112569369.566 7  87716395.840 8  84061538.265 8  21421244.047
  21421243.531    21421243.594    21421244.797          47.200          48.700
        51.500
 111454085.506 7  86847366.103 8  83228709.809 8  21209005.633
  21209008.895    21209009.074    21209006.551          47.200          49.200
        52.400
 129113854.224 6 100608305.158 6  96416278.448 7  24569583.086
  24569586.285    24569585.844    24569583.039          39.200          39.000
        44.700
 128093621.865 6  99813099.865 6                  24375420.945
  24375425.633    24375425.578                          39.600          37.500

 134699828.499 6 104960946.055 5 100587561.206 6  25632531.266
  25632536.969    25632537.078    25632535.160          39.200          35.700
        37.900
 131408159.800 6 102206325.761 6                  24582681.914    24582681.469
  24582684.852    24582684.438                          39.700          38.800

 108365429.221 6                                  20307625.578    20307624.656
                                                        38.600

 109578847.560 8  85227998.158 7                  20470254.609    20470254.090
  20470252.922    20470252.477                          49.200          47.800

 127238056.150 6  98962951.218 5                  23760812.656    23760812.148
  23760812.715    23760811.926                          40.000          31.700

 129590324.502 6 100792391.331 6                  24268103.656    24268103.363
  24268107.727    24268107.035                          39.900          36.500

 125903226.440 7  97924750.271 6                  23561072.820    23561072.359
  23561073.668    23561073.918                          43.000          41.300

 122240749.921 7  95076181.994 7                  22883715.273    22883715.453
  22883716.715    22883717.324                          44.800          42.800

 127528463.701 5  99188545.857 5                  23848469.094    23848467.316
  23848475.246    23848474.207                          30.700          32.900

 106224385.943 8  82618951.871 7                  19850535.820    19850534.340
  19850531.848    19850533.125                          50.400          47.800

 107699519.693 8  83766279.854 8                  20175754.547    20175753.730
  20175750.031    20175750.813                          49.300          49.700

 129711467.080 6                                  24248194.555    24248194.988
                                                        38.300

 151260895.566 6                 112954526.919 6  28784005.852
                                  28784009.957          41.900
        41.400
 123507873.202 8                  92229889.199 8  23502768.586
                                  23502766.797          48.200
        52.500
 129000525.905 8                  96331534.144 8  24547989.016
                                  24547985.930          49.800
        50.000
 124750240.359 8                  93157628.301 8  23739185.844
                                  23739184.352          48.200
        51.500
 144842934.410 6                 108161902.896 6  27562708.906
                                  27562714.215          41.400
        40.200
 126362838.053 8                  94361822.018 8  24046051.117
                                  24046047.410          49.100
        50.800
 146895075.978 6                 109694340.745 6  27953211.563
                                  27953210.078          41.500
        41.600
 23 11  9 13  6  5.0000000  0 28G05G10G13G15G18G23G24G27G29G32R05R06
                                R07R08R09R15R16R20R21R22R23E03E07E08
                                E13E15E26E33
 124240883.124 7  96811001.970 6                  23642266.188
  23642268.492    23642268.250                          44.400          39.900

 127107133.431 7  99044504.281 7  94917638.693 7  24187685.359
  24187688.707    24187689.492    24187684.832          43.100          42.000
        46.000
 120562705.872 7  93944881.84944                  22942329.672
                  22942331.680                          43.800          27.400

 106861109.049 8  83268390.511 8                  20334998.219
  20334997.621    20334997.094                          48.700          48.200

 107149685.928 8  83493258.772 9  80014372.755 9  20389911.836
  20389910.734    20389910.402    20389911.977          49.000          54.000
        56.600
 112567696.822 7  87715092.408 8  84060289.140 8  21420925.883
  21420925.082    21420925.316    21420926.574          47.200          48.700
        51.800
 111452003.666 7  86845743.890 8  83227155.182 8  21208609.914
  21208612.766    21208612.980    21208610.426          47.000          48.900
        52.300
 129112947.182 6 100607598.376 6  96415601.124 7  24569409.977
  24569413.414    24569413.254    24569410.383          39.300          39.200
        44.600
 128096994.794 6  99815728.113 6                  24376063.406
  24376067.297    24376067.316                          40.100          37.500

 134696735.414 6 104958535.891 6 100585251.464 6  25631943.242
  25631948.875    25631948.426    25631946.469          38.700          36.100
        37.800
 131411255.455 6 102208733.485 6                  24583260.313    24583261.188
  24583263.555    24583263.660                          39.800          39.500

 108367034.246 6                                  20307925.711    20307925.031
                                                        38.300

 109577792.906 8  85227177.866 7                  20470057.914    20470057.059
  20470055.953    20470055.430                          49.100          47.900

 127235346.899 6  98960844.033 5                  23760306.469    23760306.336
  23760306.020    23760305.891                          39.900          31.900

 129586727.050 6 100789593.318 6                  24267430.852    24267430.121
  24267435.215    24267433.508                          40.300          37.300

 125903696.835 7  97925116.122 6                  23561160.422    23561160.234
  23561160.938    23561161.930                          42.600          41.100

 122238328.976 7  95074299.054 7                  22883262.047    22883262.313
  22883264.676    22883264.332                          44.800          42.500

 127533022.954 5  99192091.948 5                  23849321.391    23849319.984
  23849327.484    23849327.039                          31.000          33.200

 106226755.694 8  82620795.017 7                  19850978.570    19850977.180
  19850975.586    19850975.902                          50.300          47.900

 107697766.319 8  83764916.120 8                  20175425.711    20175425.223
  20175421.883    20175422.371                          49.400          49.600

 129707246.017 6                                  24247404.852    24247405.574
                                                        38.000

 151263502.050 7                 112956473.327 6  28784502.234
                                  28784505.910          42.200
        41.100
 123507294.032 7                  92229456.699 8  23502658.344
                                  23502656.594          47.800
        52.600
 129002330.816 8                  96332881.980 8  24548332.336
                                  24548329.398          49.600
        50.100
 124751659.530 8                  93158688.071 8  23739455.828
                                  23739454.520          48.500
        51.300
 144845882.641 6                 108164104.501 6  27563269.938
                                  27563275.133          41.400
        40.400
 126361394.724 8                  94360744.210 8  24045776.398
                                  24045772.793          49.000
        50.900
 146892223.524 6                 109692210.636 6  27952668.805
                                  27952667.426          41.300
        41.600
 23 11  9 13  6  6.0000000  0 28G05G10G13G15G18G23G24G27G29G32R05R06
                                R07R08R09R15R16R20R21R22R23E03E07E08
                                E13E15E26E33
 124243382.880 7  96812949.828 6                  23642741.766
  23642744.211    23642744.051                          44.700          40.200

 127104656.347 7  99042574.096 7  94915788.924 7  24187213.625
  24187217.480    24187218.102    24187213.508          43.100          42.300
        45.700
 120566030.779 7  93947472.67744                  22942962.539
                  22942964.418                          43.600          27.700

