###2023-11-09 13:08:37.147938$GBGSV,2,2,06,28,43,287,47,33,59,304,47,,,,,,,,*66
###2023-11-09 13:08:37.149439$GNVTG,127.04,T,,M,3.79,N,7.02,K,A*2B
###2023-11-09 13:08:37.230123$GNGGA,130837.40,3611.0201721,N,07545.0174172,W,1,24,0.6,0.904,M,-39.962,M,0.0,*64
###2023-11-09 13:08:37.232721$GPGSV,2,1,07,05,20,090,41,10,19,293,44,13,24,045,42,15,61,037,45*72
###2023-11-09 13:08:37.234971$GPGSV,2,2,07,18,78,277,46,23,50,316,46,24,50,135,45,,,,*4F
###2023-11-09 13:08:37.237555$GLGSV,2,1,05,70,50,017,36,71,48,290,49,80,18,090,43,85,57,203,48*63
###2023-11-09 13:08:37.239154$GLGSV,2,2,05,86,53,308,48,,,,,,,,,,,,*5F
###2023-11-09 13:08:37.241708$GAGSV,1,1,04,07,72,258,46,08,48,043,44,13,64,160,44,26,57,310,44*63
###2023-11-09 13:08:37.244285$GBGSV,2,1,06,11,23,180,42,14,65,008,46,24,20,132,43,26,23,081,41*66
###2023-11-09 13:08:37.246223$GBGSV,2,2,06,28,43,287,47,33,59,304,47,,,,,,,,*66
###2023-11-09 13:08:37.247704$GNVTG,126.57,T,,M,3.60,N,6.66,K,A*27
###2023-11-09 13:08:37.329990$GNGGA,130837.50,3611.0201136,N,07545.0173159,W,1,24,0.6,0.937,M,-39.962,M,0.0,*6B
###2023-11-09 13:08:37.332587$GPGSV,2,1,07,05,20,090,41,10,19,293,44,13,24,045,42,15,61,037,45*72
###2023-11-09 13:08:37.334842$GPGSV,2,2,07,18,78,277,46,23,50,316,46,24,50,135,45,,,,*4F
###2023-11-09 13:08:37.337446$GLGSV,2,1,05,70,50,017,36,71,48,290,49,80,18,090,43,85,57,203,48*63
###2023-11-09 13:08:37.339059$GLGSV,2,2,05,86,53,308,48,,,,,,,,,,,,*5F
###2023-11-09 13:08:37.341626$GAGSV,1,1,04,07,72,258,46,08,48,043,44,13,64,160,44,26,57,310,44*63
###2023-11-09 13:08:37.344207$GBGSV,2,1,06,11,23,180,42,14,65,008,46,24,20,132,43,26,23,081,41*66
###2023-11-09 13:08:37.346143$GBGSV,2,2,06,28,43,287,47,33,59,304,48,,,,,,,,*69
###2023-11-09 13:08:37.347623$GNVTG,124.73,T,,M,3.62,N,6.70,K,A*26
###2023-11-09 13:08:37.431119$GNGGA,130837.60,3611.0200548,N,07545.0172105,W,1,24,0.6,0.965,M,-39.962,M,0.0,*6B
###2023-11-09 13:08:37.433709$GPGSV,2,1,07,05,20,090,41,10,19,293,44,13,24,045,42,15,61,037,45*72
###2023-11-09 13:08:37.435959$GPGSV,2,2,07,18,78,277,46,23,50,316,46,24,50,135,45,,,,*4F
###2023-11-09 13:08:37.438589$GLGSV,2,1,05,70,50,017,36,71,48,290,49,80,18,090,43,85,57,203,48*63
###2023-11-09 13:08:37.440206$GLGSV,2,2,05,86,53,308,48,,,,,,,,,,,,*5F
###2023-11-09 13:08:37.442779$GAGSV,1,1,04,07,72,258,46,08,48,043,44,13,64,160,44,26,57,310,44*63
###2023-11-09 13:08:37.445356$GBGSV,2,1,06,11,23,180,42,14,65,008,46,24,20,132,43,26,23,081,41*66
###2023-11-09 13:08:37.447309$GBGSV,2,2,06,28,43,287,47,33,59,304,47,,,,,,,,*66
###2023-11-09 13:08:37.448775$GNVTG,124.78,T,,M,3.81,N,7.06,K,A*20
###2023-11-09 13:08:37.529985$GNGGA,130837.70,3611.0199926,N,07545.0171019,W,1,24,0.6,0.974,M,-39.962,M,0.0,*62
###2023-11-09 13:08:37.532561$GPGSV,2,1,07,05,20,090,41,10,19,293,44,13,24,045,42,15,61,037,45*72
###2023-11-09 13:08:37.534802$GPGSV,2,2,07,18,78,277,46,23,50,316,46,24,50,135,45,,,,*4F
###2023-11-09 13:08:37.537386$GLGSV,2,1,05,70,50,017,36,71,48,290,49,80,18,090,43,85,57,203,48*63
###2023-11-09 13:08:37.538986$GLGSV,2,2,05,86,53,308,48,,,,,,,,,,,,*5F
###2023-11-09 13:08:37.541533$GAGSV,1,1,04,07,72,258,46,08,48,043,44,13,64,160,44,26,57,310,44*63
###2023-11-09 13:08:37.544091$GBGSV,2,1,06,11,23,180,42,14,65,008,46,24,20,132,43,26,23,081,41*66
###2023-11-09 13:08:37.546013$GBGSV,2,2,06,28,43,287,47,33,59,304,47,,,,,,,,*66
###2023-11-09 13:08:37.547480$GNVTG,126.10,T,,M,3.91,N,7.24,K,A*2D
###2023-11-09 13:08:37.629021$GNGGA,130837.80,3611.0199307,N,07545.0169916,W,1,24,0.6,0.958,M,-39.962,M,0.0,*65
###2023-11-09 13:08:37.631623$GPGSV,2,1,07,05,20,090,43,10,19,293,44,13,24,045,42,15,61,037,46*73
###2023-11-09 13:08:37.633870$GPGSV,2,2,07,18,78,277,46,23,50,316,45,24,50,135,46,,,,*4F
###2023-11-09 13:08:37.636446$GLGSV,2,1,05,70,50,017,36,71,48,290,49,80,18,090,44,85,57,203,48*64
###2023-11-09 13:08:37.638069$GLGSV,2,2,05,86,53,308,48,,,,,,,,,,,,*5F
###2023-11-09 13:08:37.640644$GAGSV,1,1,04,07,72,258,46,08,48,043,44,13,64,160,44,26,57,310,44*63
###2023-11-09 13:08:37.643229$GBGSV,2,1,06,11,23,180,42,14,65,008,46,24,20,132,43,26,23,081,41*66
###2023-11-09 13:08:37.645158$GBGSV,2,2,06,28,43,287,47,33,59,304,47,,,,,,,,*66
###2023-11-09 13:08:37.646629$GNVTG,123.86,T,,M,3.87,N,7.16,K,A*21
###2023-11-09 13:08:37.730005$GNGGA,130837.90,3611.0198729,N,07545.0168773,W,1,24,0.6,0.931,M,-39.962,M,0.0,*6E
###2023-11-09 13:08:37.732606$GPGSV,2,1,07,05,20,090,42,10,19,293,44,13,24,045,42,15,61,037,46*72
###2023-11-09 13:08:37.734866$GPGSV,2,2,07,18,78,277,46,23,50,316,46,24,50,135,46,,,,*4C
###2023-11-09 13:08:37.737462$GLGSV,2,1,05,70,50,017,36,71,48,290,48,80,18,090,44,85,57,203,48*65
###2023-11-09 13:08:37.739074$GLGSV,2,2,05,86,53,308,48,,,,,,,,,,,,*5F
###2023-11-09 13:08:37.741654$GAGSV,1,1,04,07,72,258,46,08,48,043,44,13,64,160,44,26,57,310,44*63
###2023-11-09 13:08:37.744237$GBGSV,2,1,06,11,23,180,42,14,65,008,46,24,20,132,43,26,23,081,41*66
###2023-11-09 13:08:37.746178$GBGSV,2,2,06,28,43,287,47,33,59,304,47,,,,,,,,*66
###2023-11-09 13:08:37.747656$GNVTG,120.46,T,,M,3.95,N,7.31,K,A*28
###2023-11-09 13:08:37.832090$GNGGA,130838.00,3611.0198195,N,07545.0167555,W,1,24,0.6,0.907,M,-39.962,M,0.0,*65
###2023-11-09 13:08:37.834657$GPGSV,2,1,07,05,20,090,42,10,19,293,44,13,24,045,42,15,61,037,46*72
###2023-11-09 13:08:37.836899$GPGSV,2,2,07,18,78,277,46,23,50,316,46,24,50,135,46,,,,*4C
###2023-11-09 13:08:37.839491$GLGSV,2,1,05,70,50,017,36,71,48,290,48,80,18,090,44,85,57,203,48*65
###2023-11-09 13:08:37.841092$GLGSV,2,2,05,86,53,308,48,,,,,,,,,,,,*5F
###2023-11-09 13:08:37.843655$GAGSV,1,1,04,07,72,258,45,08,48,043,44,13,64,160,44,26,57,310,44*60
###2023-11-09 13:08:37.846224$GBGSV,2,1,06,11,23,180,42,14,65,008,46,24,20,132,43,26,23,081,41*66
###2023-11-09 13:08:37.848165$GBGSV,2,2,06,28,43,287,47,33,59,304,47,,,,,,,,*66
###2023-11-09 13:08:37.849624$GNVTG,116.85,T,,M,4.08,N,7.56,K,A*20
###2023-11-09 13:08:37.934865$GNGGA,130838.10,3611.0197675,N,07545.0166275,W,1,24,0.6,0.878,M,-39.962,M,0.0,*6F
###2023-11-09 13:08:37.937487$GPGSV,2,1,07,05,20,090,42,10,19,293,44,13,24,045,42,15,61,037,46*72
###2023-11-09 13:08:37.939743$GPGSV,2,2,07,18,78,277,46,23,50,316,46,24,50,135,46,,,,*4C
###2023-11-09 13:08:37.942326$GLGSV,2,1,05,70,50,017,36,71,48,290,48,80,18,090,44,85,57,203,48*65
###2023-11-09 13:08:37.943937$GLGSV,2,2,05,86,53,308,48,,,,,,,,,,,,*5F
###2023-11-09 13:08:37.946511$GAGSV,1,1,04,07,72,258,45,08,48,043,44,13,64,160,44,26,57,310,44*60
###2023-11-09 13:08:37.949107$GBGSV,2,1,06,11,23,180,42,14,65,008,46,24,20,132,43,26,23,081,41*66
###2023-11-09 13:08:37.951054$GBGSV,2,2,06,28,43,287,47,33,59,304,47,,,,,,,,*66
###2023-11-09 13:08:37.952522$GNVTG,116.92,T,,M,4.22,N,7.81,K,A*24
###2023-11-09 13:08:38.033980$GNGGA,130838.20,3611.0197138,N,07545.0164953,W,1,24,0.6,0.852,M,-39.962,M,0.0,*67
###2023-11-09 13:08:38.036571$GPGSV,2,1,07,05,20,090,42,10,19,293,44,13,24,045,42,15,61,037,46*72
###2023-11-09 13:08:38.038843$GPGSV,2,2,07,18,78,277,46,23,50,316,45,24,50,135,46,,,,*4F
###2023-11-09 13:08:38.041427$GLGSV,2,1,05,70,50,017,36,71,48,290,48,80,18,090,44,85,57,203,48*65
###2023-11-09 13:08:38.043034$GLGSV,2,2,05,86,53,308,48,,,,,,,,,,,,*5F
###2023-11-09 13:08:38.045601$GAGSV,1,1,04,07,72,258,45,08,48,043,44,13,64,160,44,26,57,310,44*60
###2023-11-09 13:08:38.048188$GBGSV,2,1,06,11,23,180,42,14,65,008,46,24,20,132,43,26,23,081,41*66
###2023-11-09 13:08:38.050118$GBGSV,2,2,06,28,43,287,46,33,59,304,47,,,,,,,,*67
###2023-11-09 13:08:38.051579$GNVTG,116.70,T,,M,4.33,N,8.03,K,A*2D
###2023-11-09 13:08:38.133722$GNGGA,130838.30,3611.0196602,N,07545.0163590,W,1,24,0.6,0.822,M,-39.962,M,0.0,*6A
###2023-11-09 13:08:38.136311$GPGSV,2,1,07,05,20,090,41,10,19,293,44,13,24,045,42,15,61,037,46*71
###2023-11-09 13:08:38.138576$GPGSV,2,2,07,18,78,277,46,23,50,316,45,24,50,135,46,,,,*4F
###2023-11-09 13:08:38.141142$GLGSV,2,1,05,70,50,017,36,71,48,290,48,80,18,090,43,85,57,203,48*62
###2023-11-09 13:08:38.142734$GLGSV,2,2,05,86,53,308,48,,,,,,,,,,,,*5F
###2023-11-09 13:08:38.145293$GAGSV,1,1,04,07,72,258,45,08,48,043,44,13,64,160,44,26,57,310,44*60
###2023-11-09 13:08:38.147877$GBGSV,2,1,06,11,23,180,42,14,65,008,46,24,20,132,43,26,23,081,41*66
###2023-11-09 13:08:38.150109$GBGSV,2,2,06,28,43,287,47,33,59,304,47,,,,,,,,*66
###2023-11-09 13:08:38.151573$GNVTG,115.42,T,,M,4.45,N,8.24,K,A*2B
###2023-11-09 13:08:38.230118$GNGGA,130838.40,3611.0196101,N,07545.0162193,W,1,24,0.6,0.802,M,-39.962,M,0.0,*6D
###2023-11-09 13:08:38.232729$GPGSV,2,1,07,05,20,090,41,10,19,293,44,13,24,045,42,15,61,037,46*71
###2023-11-09 13:08:38.234987$GPGSV,2,2,07,18,78,277,46,23,50,316,45,24,50,135,46,,,,*4F
###2023-11-09 13:08:38.237582$GLGSV,2,1,05,70,50,017,36,71,48,290,48,80,18,090,43,85,57,203,48*62
###2023-11-09 13:08:38.239196$GLGSV,2,2,05,86,53,308,48,,,,,,,,,,,,*5F
###2023-11-09 13:08:38.241763$GAGSV,1,1,04,07,72,258,45,08,48,043,44,13,64,160,44,26,57,310,44*60
###2023-11-09 13:08:38.244334$GBGSV,2,1,06,11,23,180,42,14,65,008,46,24,20,132,43,26,23,081,42*65
###2023-11-09 13:08:38.246265$GBGSV,2,2,06,28,43,287,47,33,59,304,47,,,,,,,,*66
