###2023-11-09 13:08:48.248856$GNVTG,102.26,T,,M,5.11,N,9.47,K,A*2B
###2023-11-09 13:08:48.330948$GNGGA,130848.50,3611.0188313,N,07544.9995856,W,1,24,0.6,0.819,M,-39.962,M,0.0,*67
###2023-11-09 13:08:48.333501$GPGSV,2,1,07,05,20,090,40,10,19,293,44,13,24,045,42,15,61,037,45*73
###2023-11-09 13:08:48.335724$GPGSV,2,2,07,18,78,277,47,23,50,316,45,24,50,135,46,,,,*4E
###2023-11-09 13:08:48.338276$GLGSV,2,1,05,70,50,017,36,71,48,290,49,80,18,090,43,85,57,203,48*63
###2023-11-09 13:08:48.339859$GLGSV,2,2,05,86,53,308,48,,,,,,,,,,,,*5F
###2023-11-09 13:08:48.342384$GAGSV,1,1,04,07,72,258,45,08,48,043,45,13,64,160,44,26,57,310,44*61
###2023-11-09 13:08:48.344919$GBGSV,2,1,06,11,23,180,41,14,65,008,45,24,20,132,43,26,23,081,43*64
###2023-11-09 13:08:48.346831$GBGSV,2,2,06,28,43,287,47,33,59,304,47,,,,,,,,*66
###2023-11-09 13:08:48.348305$GNVTG,104.43,T,,M,5.11,N,9.47,K,A*2E
###2023-11-09 13:08:48.428761$GNGGA,130848.60,3611.0187951,N,07544.9994140,W,1,24,0.6,0.838,M,-39.962,M,0.0,*6B
###2023-11-09 13:08:48.431362$GPGSV,2,1,07,05,20,090,40,10,19,293,44,13,24,045,42,15,61,037,45*73
###2023-11-09 13:08:48.433616$GPGSV,2,2,07,18,78,277,47,23,50,316,45,24,50,135,46,,,,*4E
###2023-11-09 13:08:48.436188$GLGSV,2,1,05,70,50,017,35,71,48,290,49,80,18,090,43,85,57,203,48*60
###2023-11-09 13:08:48.437817$GLGSV,2,2,05,86,53,308,47,,,,,,,,,,,,*50
###2023-11-09 13:08:48.440401$GAGSV,1,1,04,07,72,258,45,08,48,043,45,13,64,160,44,26,57,310,44*61
###2023-11-09 13:08:48.442986$GBGSV,2,1,06,11,23,180,42,14,65,008,45,24,20,132,43,26,23,081,42*66
###2023-11-09 13:08:48.444929$GBGSV,2,2,06,28,43,287,47,33,59,304,48,,,,,,,,*69
###2023-11-09 13:08:48.446399$GNVTG,104.65,T,,M,5.15,N,9.54,K,A*2C
###2023-11-09 13:08:48.531369$GNGGA,130848.70,3611.0187622,N,07544.9992410,W,1,24,0.6,0.861,M,-39.962,M,0.0,*6B
###2023-11-09 13:08:48.533973$GPGSV,2,1,07,05,20,090,40,10,19,293,44,13,24,045,41,15,61,037,45*70
###2023-11-09 13:08:48.536245$GPGSV,2,2,07,18,78,277,47,23,50,316,45,24,50,135,46,,,,*4E
###2023-11-09 13:08:48.538835$GLGSV,2,1,05,70,50,017,35,71,48,290,49,80,18,090,43,85,57,203,49*61
###2023-11-09 13:08:48.540444$GLGSV,2,2,05,86,53,308,47,,,,,,,,,,,,*50
###2023-11-09 13:08:48.543009$GAGSV,1,1,04,07,72,258,45,08,48,043,45,13,64,160,44,26,57,310,44*61
###2023-11-09 13:08:48.545593$GBGSV,2,1,06,11,23,180,42,14,65,008,45,24,20,132,43,26,23,081,42*66
###2023-11-09 13:08:48.547554$GBGSV,2,2,06,28,43,287,47,33,59,304,48,,,,,,,,*69
###2023-11-09 13:08:48.549014$GNVTG,101.65,T,,M,5.13,N,9.50,K,A*2B
###2023-11-09 13:08:48.630472$GNGGA,130848.80,3611.0187350,N,07544.9990665,W,1,24,0.6,0.881,M,-39.962,M,0.0,*68
###2023-11-09 13:08:48.633061$GPGSV,2,1,07,05,20,090,40,10,19,293,44,13,24,045,41,15,61,037,45*70
###2023-11-09 13:08:48.635302$GPGSV,2,2,07,18,78,277,47,23,50,316,45,24,50,135,46,,,,*4E
###2023-11-09 13:08:48.637890$GLGSV,2,1,05,70,50,017,35,71,48,290,49,80,18,090,42,85,57,203,49*60
###2023-11-09 13:08:48.639485$GLGSV,2,2,05,86,53,308,47,,,,,,,,,,,,*50
###2023-11-09 13:08:48.642047$GAGSV,1,1,04,07,72,258,45,08,48,043,45,13,64,160,44,26,57,310,44*61
###2023-11-09 13:08:48.644613$GBGSV,2,1,06,11,23,180,42,14,65,008,45,24,20,132,43,26,23,081,42*66
###2023-11-09 13:08:48.646561$GBGSV,2,2,06,28,43,287,47,33,59,304,47,,,,,,,,*66
###2023-11-09 13:08:48.648041$GNVTG,100.02,T,,M,5.15,N,9.54,K,A*29
###2023-11-09 13:08:48.729768$GNGGA,130848.90,3611.0187107,N,07544.9988912,W,1,24,0.6,0.894,M,-39.962,M,0.0,*6B
###2023-11-09 13:08:48.732378$GPGSV,2,1,07,05,20,090,40,10,19,293,44,13,24,045,41,15,61,037,45*70
###2023-11-09 13:08:48.734640$GPGSV,2,2,07,18,78,277,47,23,50,316,45,24,50,135,46,,,,*4E
###2023-11-09 13:08:48.737228$GLGSV,2,1,05,70,50,017,35,71,48,290,49,80,18,090,42,85,57,203,49*60
###2023-11-09 13:08:48.738834$GLGSV,2,2,05,86,53,308,47,,,,,,,,,,,,*50
###2023-11-09 13:08:48.741390$GAGSV,1,1,04,07,72,258,45,08,48,043,45,13,64,160,44,26,57,310,44*61
###2023-11-09 13:08:48.743968$GBGSV,2,1,06,11,23,180,42,14,65,008,45,24,20,132,43,26,23,081,42*66
###2023-11-09 13:08:48.745910$GBGSV,2,2,06,28,43,287,47,33,59,304,47,,,,,,,,*66
###2023-11-09 13:08:48.747350$GNVTG,99.39,T,,M,5.15,N,9.54,K,A*10
###2023-11-09 13:08:48.832977$GNGGA,130849.00,3611.0186890,N,07544.9987163,W,1,24,0.6,0.902,M,-39.962,M,0.0,*6A
###2023-11-09 13:08:48.835560$GPGSV,2,1,07,05,20,090,40,10,19,293,44,13,24,045,41,15,61,037,45*70
###2023-11-09 13:08:48.837828$GPGSV,2,2,07,18,78,277,47,23,50,316,45,24,50,135,46,,,,*4E
###2023-11-09 13:08:48.840404$GLGSV,2,1,05,70,50,017,35,71,48,290,48,80,18,090,42,85,57,203,48*60
###2023-11-09 13:08:48.842009$GLGSV,2,2,05,86,53,308,47,,,,,,,,,,,,*50
###2023-11-09 13:08:48.844578$GAGSV,1,1,04,07,72,258,45,08,48,043,45,13,64,160,45,26,57,310,44*60
###2023-11-09 13:08:48.847181$GBGSV,2,1,06,11,23,180,42,14,65,008,45,24,20,132,43,26,23,081,42*66
###2023-11-09 13:08:48.849110$GBGSV,2,2,06,28,43,287,47,33,59,304,47,,,,,,,,*66
###2023-11-09 13:08:48.850532$GNVTG,97.95,T,,M,5.09,N,9.43,K,A*13
###2023-11-09 13:08:48.933489$GNGGA,130849.10,3611.0186665,N,07544.9985412,W,1,24,0.6,0.906,M,-39.962,M,0.0,*6A
###2023-11-09 13:08:48.936085$GPGSV,2,1,07,05,20,090,40,10,19,293,44,13,24,045,41,15,61,037,45*70
###2023-11-09 13:08:48.938353$GPGSV,2,2,07,18,78,277,47,23,50,316,45,24,50,135,46,,,,*4E
###2023-11-09 13:08:48.940918$GLGSV,2,1,05,70,50,017,35,71,48,290,48,80,18,090,42,85,57,203,48*60
###2023-11-09 13:08:48.942518$GLGSV,2,2,05,86,53,308,47,,,,,,,,,,,,*50
###2023-11-09 13:08:48.945074$GAGSV,1,1,04,07,72,258,45,08,48,043,45,13,64,160,44,26,57,310,44*61
###2023-11-09 13:08:48.947647$GBGSV,2,1,06,11,23,180,42,14,65,008,45,24,20,132,43,26,23,081,42*66
###2023-11-09 13:08:48.949571$GBGSV,2,2,06,28,43,287,47,33,59,304,47,,,,,,,,*66
###2023-11-09 13:08:48.950990$GNVTG,99.91,T,,M,5.15,N,9.54,K,A*12
###2023-11-09 13:08:49.032612$GNGGA,130849.20,3611.0186394,N,07544.9983648,W,1,24,0.6,0.904,M,-39.962,M,0.0,*6B
###2023-11-09 13:08:49.035195$GPGSV,2,1,07,05,20,090,40,10,19,293,44,13,24,045,42,15,61,037,45*73
###2023-11-09 13:08:49.037471$GPGSV,2,2,07,18,78,277,47,23,50,316,46,24,50,135,46,,,,*4D
###2023-11-09 13:08:49.040034$GLGSV,2,1,05,70,50,017,35,71,48,290,48,80,18,090,42,85,57,203,48*60
###2023-11-09 13:08:49.041634$GLGSV,2,2,05,86,53,308,47,,,,,,,,,,,,*50
###2023-11-09 13:08:49.044191$GAGSV,1,1,04,07,72,258,45,08,48,043,45,13,64,160,44,26,57,310,44*61
###2023-11-09 13:08:49.046765$GBGSV,2,1,06,11,23,180,41,14,65,008,45,24,20,132,43,26,23,081,42*65
###2023-11-09 13:08:49.048710$GBGSV,2,2,06,28,43,287,47,33,59,304,47,,,,,,,,*66
###2023-11-09 13:08:49.050176$GNVTG,101.56,T,,M,5.23,N,9.68,K,A*23
###2023-11-09 13:08:49.130718$GNGGA,130849.30,3611.0186069,N,07544.9981881,W,1,24,0.6,0.894,M,-39.962,M,0.0,*6A
###2023-11-09 13:08:49.133308$GPGSV,2,1,07,05,20,090,40,10,19,293,44,13,24,045,42,15,61,037,45*73
###2023-11-09 13:08:49.135558$GPGSV,2,2,07,18,78,277,47,23,50,316,46,24,50,135,46,,,,*4D
###2023-11-09 13:08:49.138149$GLGSV,2,1,05,70,50,017,35,71,48,290,49,80,18,090,42,85,57,203,48*61
###2023-11-09 13:08:49.139753$GLGSV,2,2,05,86,53,308,47,,,,,,,,,,,,*50
###2023-11-09 13:08:49.142319$GAGSV,1,1,04,07,72,258,45,08,48,043,45,13,64,160,44,26,57,310,44*61
###2023-11-09 13:08:49.144900$GBGSV,2,1,06,11,23,180,41,14,65,008,45,24,20,132,43,26,23,081,42*65
###2023-11-09 13:08:49.146854$GBGSV,2,2,06,28,43,287,47,33,59,304,47,,,,,,,,*66
###2023-11-09 13:08:49.148342$GNVTG,104.03,T,,M,5.25,N,9.72,K,A*2B
###2023-11-09 13:08:49.229608$GNGGA,130849.40,3611.0185711,N,07544.9980129,W,1,24,0.6,0.880,M,-39.962,M,0.0,*69
###2023-11-09 13:08:49.232183$GPGSV,2,1,07,05,20,090,40,10,19,293,44,13,24,045,41,15,61,037,45*70
###2023-11-09 13:08:49.234423$GPGSV,2,2,07,18,78,277,47,23,50,316,46,24,50,135,46,,,,*4D
###2023-11-09 13:08:49.236991$GLGSV,2,1,05,70,50,017,35,71,48,290,49,80,18,090,42,85,57,203,48*61
###2023-11-09 13:08:49.238589$GLGSV,2,2,05,86,53,308,47,,,,,,,,,,,,*50
###2023-11-09 13:08:49.241144$GAGSV,1,1,04,07,72,258,45,08,48,043,45,13,64,160,44,26,57,310,44*61
###2023-11-09 13:08:49.243700$GBGSV,2,1,06,11,23,180,41,14,65,008,45,24,20,132,43,26,23,081,42*65
###2023-11-09 13:08:49.245619$GBGSV,2,2,06,28,43,287,47,33,59,304,47,,,,,,,,*66
###2023-11-09 13:08:49.247385$GNVTG,104.39,T,,M,5.21,N,9.65,K,A*20
###2023-11-09 13:08:49.329755$GNGGA,130849.50,3611.0185376,N,07544.9978377,W,1,24,0.6,0.882,M,-39.962,M,0.0,*61
###2023-11-09 13:08:49.332355$GPGSV,2,1,07,05,20,090,40,10,19,293,44,13,24,045,41,15,61,037,45*70
###2023-11-09 13:08:49.334614$GPGSV,2,2,07,18,78,277,47,23,50,316,46,24,50,135,46,,,,*4D
###2023-11-09 13:08:49.337210$GLGSV,2,1,05,70,50,017,35,71,48,290,49,80,18,090,42,85,57,203,48*61
###2023-11-09 13:08:49.338824$GLGSV,2,2,05,86,53,308,47,,,,,,,,,,,,*50
###2023-11-09 13:08:49.341394$GAGSV,1,1,04,07,72,258,45,08,48,043,44,13,64,160,44,26,57,310,44*60
###2023-11-09 13:08:49.343976$GBGSV,2,1,06,11,23,180,41,14,65,008,45,24,20,132,43,26,23,081,42*65
###2023-11-09 13:08:49.345913$GBGSV,2,2,06,28,43,287,47,33,59,304,47,,,,,,,,*66
###2023-11-09 13:08:49.347400$GNVTG,102.26,T,,M,5.19,N,9.61,K,A*27
