###2023-11-09 13:06:44.645389$GBGSV,2,1,06,11,24,180,42,14,65,006,46,24,19,133,43,26,23,082,43*65
###2023-11-09 13:06:44.647382$GBGSV,2,2,06,28,43,289,47,33,58,302,47,,,,,,,,*6F
###2023-11-09 13:06:44.648825$GNVTG,20.06,T,,M,1.34,N,2.48,K,A*1F
###2023-11-09 13:06:44.729861$GNGGA,130644.90,3611.0451347,N,07544.9786770,W,1,24,0.6,0.931,M,-39.961,M,0.0,*66
###2023-11-09 13:06:44.732448$GPGSV,2,1,07,05,21,090,41,10,18,292,43,13,24,045,41,15,62,037,45*74
###2023-11-09 13:06:44.734706$GPGSV,2,2,07,18,77,281,47,23,50,315,45,24,49,136,46,,,,*40
###2023-11-09 13:06:44.737280$GLGSV,2,1,05,70,50,016,35,71,48,288,48,80,17,091,43,85,58,203,48*68
###2023-11-09 13:06:44.738887$GLGSV,2,2,05,86,52,309,47,,,,,,,,,,,,*50
###2023-11-09 13:06:44.741453$GAGSV,1,1,04,07,72,255,45,08,49,042,44,13,64,160,44,26,56,311,45*6C
###2023-11-09 13:06:44.744012$GBGSV,2,1,06,11,24,180,42,14,65,006,46,24,19,133,43,26,23,082,43*65
###2023-11-09 13:06:44.745936$GBGSV,2,2,06,28,43,289,47,33,58,302,47,,,,,,,,*6F
###2023-11-09 13:06:44.747377$GNVTG,26.62,T,,M,1.24,N,2.30,K,A*15
###2023-11-09 13:06:44.831878$GNGGA,130645.00,3611.0451627,N,07544.9786583,W,1,24,0.6,0.931,M,-39.961,M,0.0,*63
###2023-11-09 13:06:44.834478$GPGSV,2,1,07,05,21,090,41,10,18,292,43,13,24,045,41,15,62,037,45*74
###2023-11-09 13:06:44.836734$GPGSV,2,2,07,18,77,281,47,23,50,315,45,24,49,136,46,,,,*40
###2023-11-09 13:06:44.839332$GLGSV,2,1,05,70,50,016,35,71,48,288,48,80,17,091,43,85,58,203,48*68
###2023-11-09 13:06:44.840952$GLGSV,2,2,05,86,52,309,47,,,,,,,,,,,,*50
###2023-11-09 13:06:44.843528$GAGSV,1,1,04,07,72,255,45,08,49,042,44,13,64,160,45,26,56,311,45*6D
###2023-11-09 13:06:44.846097$GBGSV,2,1,06,11,24,180,42,14,65,006,46,24,19,133,43,26,23,082,43*65
###2023-11-09 13:06:44.848058$GBGSV,2,2,06,28,43,289,47,33,58,302,47,,,,,,,,*6F
###2023-11-09 13:06:44.849494$GNVTG,33.18,T,,M,1.01,N,1.87,K,A*14
###2023-11-09 13:06:44.931891$GNGGA,130645.10,3611.0451863,N,07544.9786397,W,1,24,0.6,0.930,M,-39.961,M,0.0,*6E
###2023-11-09 13:06:44.934499$GPGSV,2,1,07,05,21,090,41,10,18,292,43,13,24,045,41,15,62,037,46*77
###2023-11-09 13:06:44.936751$GPGSV,2,2,07,18,77,281,47,23,50,315,45,24,49,136,46,,,,*40
###2023-11-09 13:06:44.939350$GLGSV,2,1,05,70,50,016,35,71,48,288,48,80,17,091,43,85,58,203,48*68
###2023-11-09 13:06:44.940963$GLGSV,2,2,05,86,52,309,47,,,,,,,,,,,,*50
###2023-11-09 13:06:44.943524$GAGSV,1,1,04,07,72,255,45,08,49,042,44,13,64,160,45,26,56,311,45*6D
###2023-11-09 13:06:44.946099$GBGSV,2,1,06,11,24,180,41,14,65,006,45,24,19,133,43,26,23,082,43*65
###2023-11-09 13:06:44.948042$GBGSV,2,2,06,28,43,289,47,33,58,302,47,,,,,,,,*6F
###2023-11-09 13:06:44.949478$GNVTG,33.18,T,,M,0.97,N,1.80,K,A*1D
###2023-11-09 13:06:45.031837$GNGGA,130645.20,3611.0452088,N,07544.9786210,W,1,24,0.6,0.934,M,-39.961,M,0.0,*69
###2023-11-09 13:06:45.034402$GPGSV,2,1,07,05,21,090,42,10,18,292,43,13,24,045,41,15,62,037,46*74
###2023-11-09 13:06:45.036635$GPGSV,2,2,07,18,77,281,47,23,50,315,45,24,49,136,46,,,,*40
###2023-11-09 13:06:45.039218$GLGSV,2,1,05,70,50,016,35,71,48,288,48,80,17,091,43,85,58,203,48*68
###2023-11-09 13:06:45.040817$GLGSV,2,2,05,86,52,309,47,,,,,,,,,,,,*50
###2023-11-09 13:06:45.043374$GAGSV,1,1,04,07,72,255,45,08,49,042,44,13,64,160,45,26,56,311,45*6D
###2023-11-09 13:06:45.045933$GBGSV,2,1,06,11,24,180,41,14,65,006,45,24,19,133,43,26,23,082,43*65
###2023-11-09 13:06:45.047868$GBGSV,2,2,06,28,43,289,47,33,58,302,47,,,,,,,,*6F
###2023-11-09 13:06:45.049287$GNVTG,33.18,T,,M,0.95,N,1.76,K,A*16
###2023-11-09 13:06:45.129986$GNGGA,130645.30,3611.0452324,N,07544.9786025,W,1,24,0.6,0.931,M,-39.961,M,0.0,*6C
###2023-11-09 13:06:45.132603$GPGSV,2,1,07,05,21,090,42,10,18,292,43,13,24,045,41,15,62,037,46*74
###2023-11-09 13:06:45.134859$GPGSV,2,2,07,18,77,281,47,23,50,315,45,24,49,136,46,,,,*40
###2023-11-09 13:06:45.137455$GLGSV,2,1,05,70,50,016,35,71,48,288,48,80,17,091,43,85,58,203,48*68
###2023-11-09 13:06:45.139062$GLGSV,2,2,05,86,52,309,47,,,,,,,,,,,,*50
###2023-11-09 13:06:45.141626$GAGSV,1,1,04,07,72,255,45,08,49,042,44,13,64,160,44,26,56,311,45*6C
###2023-11-09 13:06:45.144201$GBGSV,2,1,06,11,24,180,41,14,65,006,45,24,19,133,43,26,23,082,43*65
###2023-11-09 13:06:45.146138$GBGSV,2,2,06,28,43,289,47,33,58,302,47,,,,,,,,*6F
###2023-11-09 13:06:45.147576$GNVTG,32.73,T,,M,1.03,N,1.91,K,A*1D
###2023-11-09 13:06:45.231980$GNGGA,130645.40,3611.0452567,N,07544.9785842,W,1,24,0.6,0.926,M,-39.961,M,0.0,*66
###2023-11-09 13:06:45.234563$GPGSV,2,1,07,05,21,090,42,10,18,292,43,13,24,045,41,15,62,037,45*77
###2023-11-09 13:06:45.236821$GPGSV,2,2,07,18,77,281,47,23,50,315,45,24,49,136,46,,,,*40
###2023-11-09 13:06:45.239424$GLGSV,2,1,05,70,50,016,35,71,48,288,47,80,17,091,43,85,58,203,48*67
###2023-11-09 13:06:45.241032$GLGSV,2,2,05,86,52,309,47,,,,,,,,,,,,*50
###2023-11-09 13:06:45.243584$GAGSV,1,1,04,07,72,255,46,08,49,042,44,13,64,160,44,26,56,311,45*6F
###2023-11-09 13:06:45.246160$GBGSV,2,1,06,11,24,180,41,14,65,006,45,24,19,133,43,26,23,082,43*65
###2023-11-09 13:06:45.248106$GBGSV,2,2,06,28,43,289,47,33,58,302,47,,,,,,,,*6F
###2023-11-09 13:06:45.249537$GNVTG,33.47,T,,M,0.99,N,1.84,K,A*1D
###2023-11-09 13:06:45.331100$GNGGA,130645.50,3611.0452790,N,07544.9785669,W,1,24,0.6,0.926,M,-39.961,M,0.0,*6A
###2023-11-09 13:06:45.333683$GPGSV,2,1,07,05,21,090,42,10,18,292,43,13,24,045,42,15,62,037,45*74
###2023-11-09 13:06:45.335928$GPGSV,2,2,07,18,77,281,47,23,50,315,45,24,49,136,46,,,,*40
###2023-11-09 13:06:45.338624$GLGSV,2,1,05,70,50,016,35,71,48,288,48,80,17,091,43,85,58,203,48*68
###2023-11-09 13:06:45.340233$GLGSV,2,2,05,86,52,309,47,,,,,,,,,,,,*50
###2023-11-09 13:06:45.342784$GAGSV,1,1,04,07,72,255,45,08,49,042,44,13,64,160,44,26,56,311,45*6C
###2023-11-09 13:06:45.345364$GBGSV,2,1,06,11,24,180,42,14,65,006,45,24,19,133,43,26,23,082,43*66
###2023-11-09 13:06:45.347306$GBGSV,2,2,06,28,43,289,47,33,58,302,47,,,,,,,,*6F
###2023-11-09 13:06:45.348733$GNVTG,33.47,T,,M,0.87,N,1.62,K,A*1A
###2023-11-09 13:06:45.430476$GNGGA,130645.60,3611.0452990,N,07544.9785504,W,1,24,0.6,0.928,M,-39.961,M,0.0,*61
###2023-11-09 13:06:45.433090$GPGSV,2,1,07,05,21,090,42,10,18,292,43,13,24,045,42,15,62,037,45*74
###2023-11-09 13:06:45.435342$GPGSV,2,2,07,18,77,281,47,23,50,315,45,24,49,136,46,,,,*40
###2023-11-09 13:06:45.437934$GLGSV,2,1,05,70,50,016,35,71,48,288,48,80,17,091,43,85,58,203,48*68
###2023-11-09 13:06:45.439535$GLGSV,2,2,05,86,52,309,47,,,,,,,,,,,,*50
###2023-11-09 13:06:45.442097$GAGSV,1,1,04,07,72,255,45,08,49,042,44,13,64,160,44,26,56,311,45*6C
###2023-11-09 13:06:45.444687$GBGSV,2,1,06,11,24,180,42,14,65,006,45,24,19,133,43,26,23,082,43*66
###2023-11-09 13:06:45.446622$GBGSV,2,2,06,28,43,289,47,33,58,302,47,,,,,,,,*6F
###2023-11-09 13:06:45.448064$GNVTG,33.47,T,,M,0.82,N,1.51,K,A*1F
###2023-11-09 13:06:45.531847$GNGGA,130645.70,3611.0453173,N,07544.9785354,W,1,24,0.6,0.936,M,-39.961,M,0.0,*68
###2023-11-09 13:06:45.534423$GPGSV,2,1,07,05,21,090,42,10,18,292,43,13,24,045,42,15,62,037,45*74
###2023-11-09 13:06:45.536677$GPGSV,2,2,07,18,77,281,47,23,50,315,45,24,49,136,46,,,,*40
###2023-11-09 13:06:45.539278$GLGSV,2,1,05,70,50,016,35,71,48,288,48,80,17,091,43,85,58,203,48*68
###2023-11-09 13:06:45.540885$GLGSV,2,2,05,86,52,309,47,,,,,,,,,,,,*50
###2023-11-09 13:06:45.543448$GAGSV,1,1,04,07,72,255,46,08,49,042,44,13,64,160,44,26,56,311,45*6F
###2023-11-09 13:06:45.546032$GBGSV,2,1,06,11,24,180,42,14,65,006,45,24,19,133,43,26,23,082,43*66
###2023-11-09 13:06:45.547975$GBGSV,2,2,06,28,43,289,47,33,58,302,47,,,,,,,,*6F
###2023-11-09 13:06:45.549404$GNVTG,33.47,T,,M,0.74,N,1.37,K,A*16
###2023-11-09 13:06:45.630839$GNGGA,130645.80,3611.0453357,N,07544.9785223,W,1,24,0.6,0.951,M,-39.961,M,0.0,*63
###2023-11-09 13:06:45.633407$GPGSV,2,1,07,05,21,090,42,10,18,292,43,13,24,045,42,15,62,037,45*74
###2023-11-09 13:06:45.635642$GPGSV,2,2,07,18,77,281,47,23,50,315,45,24,49,136,46,,,,*40
###2023-11-09 13:06:45.638211$GLGSV,2,1,05,70,50,016,35,71,48,288,48,80,17,091,43,85,58,203,48*68
###2023-11-09 13:06:45.639805$GLGSV,2,2,05,86,52,309,47,,,,,,,,,,,,*50
###2023-11-09 13:06:45.642365$GAGSV,1,1,04,07,72,255,45,08,49,042,44,13,64,160,44,26,56,311,45*6C
###2023-11-09 13:06:45.644925$GBGSV,2,1,06,11,24,180,42,14,65,006,45,24,19,133,44,26,23,082,43*61
###2023-11-09 13:06:45.647169$GBGSV,2,2,06,28,43,289,47,33,58,302,47,,,,,,,,*6F
###2023-11-09 13:06:45.648602$GNVTG,33.47,T,,M,0.76,N,1.40,K,A*14
###2023-11-09 13:06:45.730881$GNGGA,130645.90,3611.0453544,N,07544.9785120,W,1,24,0.6,0.973,M,-39.961,M,0.0,*66
###2023-11-09 13:06:45.733487$GPGSV,2,1,07,05,21,090,42,10,18,292,43,13,24,045,42,15,62,037,45*74
###2023-11-09 13:06:45.735753$GPGSV,2,2,07,18,77,281,47,23,50,315,45,24,49,136,46,,,,*40
###2023-11-09 13:06:45.738341$GLGSV,2,1,05,70,50,016,35,71,48,288,48,80,17,091,43,85,58,203,48*68
###2023-11-09 13:06:45.739953$GLGSV,2,2,05,86,52,309,47,,,,,,,,,,,,*50
###2023-11-09 13:06:45.742531$GAGSV,1,1,04,07,72,255,46,08,49,042,44,13,64,160,44,26,56,311,45*6F
###2023-11-09 13:06:45.745111$GBGSV,2,1,06,11,24,180,42,14,65,006,45,24,19,133,44,26,23,082,43*61
