###2023-11-09 13:07:31.439556$GLGSV,2,1,05,70,50,016,35,71,48,288,47,80,17,091,44,85,58,203,48*60
###2023-11-09 13:07:31.441200$GLGSV,2,2,05,86,52,309,47,,,,,,,,,,,,*50
###2023-11-09 13:07:31.443779$GAGSV,1,1,04,07,72,257,45,08,49,042,44,13,64,160,44,26,56,310,45*6F
###2023-11-09 13:07:31.446375$GBGSV,2,1,06,11,24,180,41,14,65,006,45,24,19,133,43,26,23,082,43*65
###2023-11-09 13:07:31.448348$GBGSV,2,2,06,28,43,289,47,33,58,302,47,,,,,,,,*6F
###2023-11-09 13:07:31.449822$GNVTG,305.88,T,,M,1.22,N,2.27,K,A*23
###2023-11-09 13:07:31.530737$GNGGA,130731.70,3611.0552388,N,07544.9773956,W,1,24,0.6,1.387,M,-39.961,M,0.0,*6C
###2023-11-09 13:07:31.533325$GPGSV,2,1,07,05,21,090,41,10,18,292,41,13,24,045,42,15,62,037,45*75
###2023-11-09 13:07:31.535582$GPGSV,2,2,07,18,77,281,47,23,50,315,45,24,49,136,46,,,,*40
###2023-11-09 13:07:31.538162$GLGSV,2,1,05,70,50,016,35,71,48,288,47,80,17,091,44,85,58,203,48*60
###2023-11-09 13:07:31.539768$GLGSV,2,2,05,86,52,309,48,,,,,,,,,,,,*5F
###2023-11-09 13:07:31.542332$GAGSV,1,1,04,07,72,257,45,08,49,042,44,13,64,160,44,26,56,310,45*6F
###2023-11-09 13:07:31.544898$GBGSV,2,1,06,11,24,180,41,14,65,006,45,24,19,133,43,26,23,082,43*65
###2023-11-09 13:07:31.546831$GBGSV,2,2,06,28,43,289,47,33,58,302,47,,,,,,,,*6F
###2023-11-09 13:07:31.548309$GNVTG,301.08,T,,M,1.21,N,2.23,K,A*28
###2023-11-09 13:07:31.630736$GNGGA,130731.80,3611.0552537,N,07544.9774324,W,1,24,0.6,1.366,M,-39.961,M,0.0,*66
###2023-11-09 13:07:31.633327$GPGSV,2,1,07,05,21,090,41,10,18,292,43,13,24,045,42,15,62,037,45*77
###2023-11-09 13:07:31.635614$GPGSV,2,2,07,18,77,281,47,23,50,315,45,24,49,136,46,,,,*40
###2023-11-09 13:07:31.638258$GLGSV,2,1,05,70,50,016,35,71,48,288,48,80,17,091,44,85,58,203,48*6F
###2023-11-09 13:07:31.639895$GLGSV,2,2,05,86,52,309,47,,,,,,,,,,,,*50
###2023-11-09 13:07:31.642477$GAGSV,1,1,04,07,72,257,45,08,49,042,44,13,64,160,44,26,56,310,45*6F
###2023-11-09 13:07:31.645057$GBGSV,2,1,06,11,24,180,41,14,65,006,45,24,19,133,43,26,23,082,43*65
###2023-11-09 13:07:31.647011$GBGSV,2,2,06,28,43,289,47,33,58,302,47,,,,,,,,*6F
###2023-11-09 13:07:31.648495$GNVTG,293.49,T,,M,1.15,N,2.12,K,A*22
###2023-11-09 13:07:31.731870$GNGGA,130731.90,3611.0552659,N,07544.9774683,W,1,24,0.6,1.342,M,-39.961,M,0.0,*62
###2023-11-09 13:07:31.734475$GPGSV,2,1,07,05,21,090,41,10,18,292,43,13,24,045,42,15,62,037,45*77
###2023-11-09 13:07:31.736730$GPGSV,2,2,07,18,77,281,47,23,50,315,45,24,49,136,46,,,,*40
###2023-11-09 13:07:31.739339$GLGSV,2,1,05,70,50,016,35,71,48,288,48,80,17,091,43,85,58,203,48*68
###2023-11-09 13:07:31.740947$GLGSV,2,2,05,86,52,309,47,,,,,,,,,,,,*50
###2023-11-09 13:07:31.743541$GAGSV,1,1,04,07,72,257,45,08,49,042,44,13,64,160,44,26,56,310,45*6F
###2023-11-09 13:07:31.746134$GBGSV,2,1,06,11,24,180,42,14,65,006,45,24,19,133,43,26,23,082,43*66
###2023-11-09 13:07:31.748098$GBGSV,2,2,06,28,43,289,47,33,58,302,47,,,,,,,,*6F
###2023-11-09 13:07:31.749574$GNVTG,293.62,T,,M,1.09,N,2.02,K,A*27
###2023-11-09 13:07:31.831713$GNGGA,130732.00,3611.0552799,N,07544.9775019,W,1,24,0.6,1.323,M,-39.961,M,0.0,*66
###2023-11-09 13:07:31.834290$GPGSV,2,1,07,05,21,090,41,10,18,292,44,13,24,045,42,15,62,037,46*73
###2023-11-09 13:07:31.836544$GPGSV,2,2,07,18,77,281,47,23,50,315,45,24,49,136,46,,,,*40
###2023-11-09 13:07:31.839136$GLGSV,2,1,05,70,50,016,35,71,48,288,48,80,17,091,43,85,58,203,48*68
###2023-11-09 13:07:31.840749$GLGSV,2,2,05,86,52,309,47,,,,,,,,,,,,*50
###2023-11-09 13:07:31.843311$GAGSV,1,1,04,07,72,257,45,08,49,042,44,13,64,160,44,26,56,310,45*6F
###2023-11-09 13:07:31.845897$GBGSV,2,1,06,11,24,180,43,14,65,006,45,24,19,133,44,26,23,082,43*60
###2023-11-09 13:07:31.847837$GBGSV,2,2,06,28,43,289,47,33,58,302,47,,,,,,,,*6F
###2023-11-09 13:07:31.849294$GNVTG,302.06,T,,M,1.09,N,2.02,K,A*2C
###2023-11-09 13:07:31.942499$GNGGA,130732.10,3611.0553001,N,07544.9775326,W,1,24,0.6,1.309,M,-39.961,M,0.0,*67
###2023-11-09 13:07:31.945106$GPGSV,2,1,07,05,21,090,41,10,18,292,44,13,24,045,42,15,62,037,45*70
###2023-11-09 13:07:31.947378$GPGSV,2,2,07,18,77,281,47,23,50,315,45,24,49,136,46,,,,*40
###2023-11-09 13:07:31.949950$GLGSV,2,1,05,70,50,016,35,71,48,288,48,80,17,091,42,85,58,203,48*69
###2023-11-09 13:07:31.951562$GLGSV,2,2,05,86,52,309,47,,,,,,,,,,,,*50
###2023-11-09 13:07:31.954120$GAGSV,1,1,04,07,72,257,45,08,49,042,44,13,64,160,44,26,56,310,45*6F
###2023-11-09 13:07:31.956702$GBGSV,2,1,06,11,23,180,43,14,65,006,45,24,19,133,44,26,23,082,43*67
###2023-11-09 13:07:31.958662$GBGSV,2,2,06,28,43,289,47,33,58,302,47,,,,,,,,*6F
###2023-11-09 13:07:31.960129$GNVTG,316.73,T,,M,1.21,N,2.23,K,A*22
###2023-11-09 13:07:32.032981$GNGGA,130732.20,3611.0553266,N,07544.9775614,W,1,24,0.6,1.294,M,-39.961,M,0.0,*66
###2023-11-09 13:07:32.035582$GPGSV,2,1,07,05,21,090,41,10,18,292,43,13,24,045,42,15,62,037,46*74
###2023-11-09 13:07:32.037859$GPGSV,2,2,07,18,77,281,47,23,50,315,45,24,49,136,46,,,,*40
###2023-11-09 13:07:32.040432$GLGSV,2,1,05,70,50,016,35,71,48,288,48,80,17,091,42,85,58,203,48*69
###2023-11-09 13:07:32.042035$GLGSV,2,2,05,86,52,309,47,,,,,,,,,,,,*50
###2023-11-09 13:07:32.044608$GAGSV,1,1,04,07,72,257,45,08,49,042,44,13,64,160,44,26,56,310,45*6F
###2023-11-09 13:07:32.047189$GBGSV,2,1,06,11,23,180,43,14,65,006,45,24,19,133,44,26,23,082,43*67
###2023-11-09 13:07:32.049134$GBGSV,2,2,06,28,43,289,47,33,58,302,47,,,,,,,,*6F
###2023-11-09 13:07:32.050603$GNVTG,322.24,T,,M,1.30,N,2.41,K,A*23
###2023-11-09 13:07:32.134853$GNGGA,130732.30,3611.0553548,N,07544.9775887,W,1,24,0.6,1.279,M,-39.961,M,0.0,*6B
###2023-11-09 13:07:32.137554$GPGSV,2,1,07,05,21,090,41,10,18,292,43,13,24,045,42,15,62,037,46*74
###2023-11-09 13:07:32.139793$GPGSV,2,2,07,18,77,281,47,23,50,315,45,24,49,136,46,,,,*40
###2023-11-09 13:07:32.142355$GLGSV,2,1,05,70,50,016,35,71,48,288,47,80,17,091,42,85,58,203,48*66
###2023-11-09 13:07:32.143971$GLGSV,2,2,05,86,52,309,47,,,,,,,,,,,,*50
###2023-11-09 13:07:32.146522$GAGSV,1,1,04,07,72,257,45,08,49,042,44,13,64,160,44,26,56,310,45*6F
###2023-11-09 13:07:32.149101$GBGSV,2,1,06,11,23,180,42,14,65,006,45,24,19,133,43,26,23,082,43*61
###2023-11-09 13:07:32.151034$GBGSV,2,2,06,28,43,289,47,33,58,302,47,,,,,,,,*6F
###2023-11-09 13:07:32.152509$GNVTG,323.56,T,,M,1.24,N,2.30,K,A*24
###2023-11-09 13:07:32.230840$GNGGA,130732.40,3611.0553802,N,07544.9776138,W,1,24,0.6,1.263,M,-39.961,M,0.0,*6A
###2023-11-09 13:07:32.233431$GPGSV,2,1,07,05,21,090,41,10,18,292,44,13,24,045,43,15,62,037,46*72
###2023-11-09 13:07:32.235678$GPGSV,2,2,07,18,77,281,47,23,50,315,45,24,49,136,46,,,,*40
###2023-11-09 13:07:32.238266$GLGSV,2,1,05,70,50,016,35,71,48,288,47,80,17,091,42,85,58,203,48*66
###2023-11-09 13:07:32.239871$GLGSV,2,2,05,86,52,309,47,,,,,,,,,,,,*50
###2023-11-09 13:07:32.242440$GAGSV,1,1,04,07,72,257,45,08,49,042,44,13,64,160,44,26,56,310,45*6F
###2023-11-09 13:07:32.245014$GBGSV,2,1,06,11,23,180,41,14,65,006,45,24,19,133,43,26,23,082,43*62
###2023-11-09 13:07:32.246959$GBGSV,2,2,06,28,43,289,47,33,58,302,47,,,,,,,,*6F
###2023-11-09 13:07:32.248426$GNVTG,321.31,T,,M,1.07,N,1.98,K,A*27
###2023-11-09 13:07:32.331733$GNGGA,130732.50,3611.0553996,N,07544.9776358,W,1,24,0.6,1.250,M,-39.961,M,0.0,*63
###2023-11-09 13:07:32.334315$GPGSV,2,1,07,05,21,090,41,10,18,292,44,13,24,045,43,15,62,037,46*72
###2023-11-09 13:07:32.336567$GPGSV,2,2,07,18,77,281,47,23,50,315,45,24,49,136,46,,,,*40
###2023-11-09 13:07:32.339150$GLGSV,2,1,05,70,50,016,35,71,48,288,48,80,17,091,42,85,58,203,48*69
###2023-11-09 13:07:32.340762$GLGSV,2,2,05,86,52,309,47,,,,,,,,,,,,*50
###2023-11-09 13:07:32.343329$GAGSV,1,1,04,07,72,257,45,08,49,042,44,13,64,160,44,26,56,310,45*6F
###2023-11-09 13:07:32.345902$GBGSV,2,1,06,11,23,180,41,14,65,006,45,24,19,133,43,26,23,082,43*62
###2023-11-09 13:07:32.347847$GBGSV,2,2,06,28,43,289,47,33,58,302,47,,,,,,,,*6F
###2023-11-09 13:07:32.349306$GNVTG,321.31,T,,M,0.80,N,1.48,K,A*24
###2023-11-09 13:07:32.430716$GNGGA,130732.60,3611.0554151,N,07544.9776554,W,1,24,0.6,1.236,M,-39.961,M,0.0,*6E
###2023-11-09 13:07:32.433287$GPGSV,2,1,07,05,21,090,41,10,18,292,44,13,24,045,43,15,62,037,46*72
###2023-11-09 13:07:32.435518$GPGSV,2,2,07,18,77,281,47,23,50,315,45,24,49,136,46,,,,*40
###2023-11-09 13:07:32.438409$GLGSV,2,1,05,70,50,016,35,71,48,288,48,80,17,091,43,85,58,203,48*68
###2023-11-09 13:07:32.440023$GLGSV,2,2,05,86,52,309,47,,,,,,,,,,,,*50
###2023-11-09 13:07:32.442583$GAGSV,1,1,04,07,72,257,45,08,49,042,44,13,64,160,44,26,56,310,45*6F
###2023-11-09 13:07:32.445168$GBGSV,2,1,06,11,23,180,41,14,65,006,45,24,19,133,43,26,23,082,43*62
###2023-11-09 13:07:32.447118$GBGSV,2,2,06,28,43,289,47,33,58,302,47,,,,,,,,*6F
###2023-11-09 13:07:32.448584$GNVTG,321.31,T,,M,0.76,N,1.40,K,A*25
###2023-11-09 13:07:32.530744$GNGGA,130732.70,3611.0554348,N,07544.9776705,W,1,24,0.6,1.231,M,-39.961,M,0.0,*64
###2023-11-09 13:07:32.533352$GPGSV,2,1,07,05,21,090,41,10,18,292,44,13,24,045,41,15,62,037,46*70
###2023-11-09 13:07:32.535613$GPGSV,2,2,07,18,77,281,47,23,50,315,45,24,49,136,46,,,,*40
###2023-11-09 13:07:32.538225$GLGSV,2,1,05,70,50,016,35,71,48,288,48,80,17,091,43,85,58,203,48*68
