###2023-11-09 13:05:56.244295$GAGSV,1,1,04,07,72,255,45,08,49,042,45,13,64,160,44,26,56,311,45*6D
###2023-11-09 13:05:56.246901$GBGSV,2,1,06,11,24,180,39,14,65,006,45,24,19,133,42,26,23,082,43*6B
###2023-11-09 13:05:56.248881$GBGSV,2,2,06,28,43,289,47,33,58,302,47,,,,,,,,*6F
###2023-11-09 13:05:56.250315$GNVTG,27.79,T,,M,0.29,N,0.54,K,A*12
###2023-11-09 13:05:56.332751$GNGGA,130556.50,3611.0378282,N,07544.9856629,W,1,24,0.6,1.176,M,-39.962,M,0.0,*68
###2023-11-09 13:05:56.335344$GPGSV,2,1,07,05,21,089,41,10,17,292,43,13,25,045,42,15,62,036,46*73
###2023-11-09 13:05:56.337611$GPGSV,2,2,07,18,77,285,47,23,49,314,45,24,49,137,45,,,,*4F
###2023-11-09 13:05:56.340199$GLGSV,2,1,05,70,51,015,35,71,47,286,48,80,17,092,44,85,59,204,48*69
###2023-11-09 13:05:56.341814$GLGSV,2,2,05,86,52,311,47,,,,,,,,,,,,*59
###2023-11-09 13:05:56.344388$GAGSV,1,1,04,07,72,255,45,08,49,042,44,13,64,160,44,26,56,311,45*6C
###2023-11-09 13:05:56.346989$GBGSV,2,1,06,11,24,180,39,14,65,006,46,24,19,133,42,26,23,082,43*68
###2023-11-09 13:05:56.348928$GBGSV,2,2,06,28,43,289,47,33,58,302,47,,,,,,,,*6F
###2023-11-09 13:05:56.350363$GNVTG,27.79,T,,M,0.31,N,0.58,K,A*17
###2023-11-09 13:05:56.432505$GNGGA,130556.60,3611.0378199,N,07544.9856590,W,1,24,0.6,1.160,M,-39.962,M,0.0,*64
###2023-11-09 13:05:56.435102$GPGSV,2,1,07,05,21,089,41,10,17,292,43,13,25,045,42,15,62,036,46*73
###2023-11-09 13:05:56.437378$GPGSV,2,2,07,18,77,285,47,23,49,314,45,24,49,137,45,,,,*4F
###2023-11-09 13:05:56.439952$GLGSV,2,1,05,70,51,015,35,71,47,286,49,80,17,092,44,85,59,204,48*68
###2023-11-09 13:05:56.441552$GLGSV,2,2,05,86,52,311,47,,,,,,,,,,,,*59
###2023-11-09 13:05:56.444114$GAGSV,1,1,04,07,72,255,45,08,49,042,44,13,64,160,44,26,56,311,45*6C
###2023-11-09 13:05:56.446688$GBGSV,2,1,06,11,24,180,40,14,65,006,46,24,19,133,42,26,23,082,43*66
###2023-11-09 13:05:56.448639$GBGSV,2,2,06,28,43,289,47,33,58,302,47,,,,,,,,*6F
###2023-11-09 13:05:56.450077$GNVTG,27.79,T,,M,0.31,N,0.58,K,A*17
###2023-11-09 13:05:56.531245$GNGGA,130556.70,3611.0378134,N,07544.9856548,W,1,24,0.6,1.134,M,-39.962,M,0.0,*66
###2023-11-09 13:05:56.533858$GPGSV,2,1,07,05,21,089,40,10,17,292,43,13,25,045,42,15,62,036,46*72
###2023-11-09 13:05:56.536138$GPGSV,2,2,07,18,77,285,47,23,49,314,45,24,49,137,45,,,,*4F
###2023-11-09 13:05:56.538752$GLGSV,2,1,05,70,51,015,35,71,47,286,49,80,17,092,43,85,59,204,48*6F
###2023-11-09 13:05:56.540367$GLGSV,2,2,05,86,52,311,47,,,,,,,,,,,,*59
###2023-11-09 13:05:56.542942$GAGSV,1,1,04,07,72,255,45,08,49,042,44,13,64,160,44,26,56,311,45*6C
###2023-11-09 13:05:56.545526$GBGSV,2,1,06,11,24,180,41,14,65,006,46,24,19,133,42,26,23,082,43*67
###2023-11-09 13:05:56.547491$GBGSV,2,2,06,28,43,289,47,33,58,302,47,,,,,,,,*6F
###2023-11-09 13:05:56.548919$GNVTG,27.79,T,,M,0.21,N,0.40,K,A*1F
###2023-11-09 13:05:56.638275$GNGGA,130556.80,3611.0378121,N,07544.9856460,W,1,24,0.6,1.104,M,-39.962,M,0.0,*65
###2023-11-09 13:05:56.640885$GPGSV,2,1,07,05,21,089,40,10,17,292,43,13,25,045,42,15,62,036,46*72
###2023-11-09 13:05:56.643141$GPGSV,2,2,07,18,77,285,47,23,49,314,45,24,49,137,45,,,,*4F
###2023-11-09 13:05:56.645718$GLGSV,2,1,05,70,51,015,35,71,47,286,49,80,17,092,43,85,59,204,48*6F
###2023-11-09 13:05:56.647347$GLGSV,2,2,05,86,52,311,47,,,,,,,,,,,,*59
###2023-11-09 13:05:56.649930$GAGSV,1,1,04,07,72,255,45,08,49,042,43,13,64,160,44,26,56,311,45*6B
###2023-11-09 13:05:56.652523$GBGSV,2,1,06,11,24,180,41,14,65,006,45,24,19,133,42,26,23,082,41*66
###2023-11-09 13:05:56.654457$GBGSV,2,2,06,28,43,289,47,33,58,302,47,,,,,,,,*6F
###2023-11-09 13:05:56.655887$GNVTG,27.79,T,,M,0.37,N,0.68,K,A*12
###2023-11-09 13:05:56.731737$GNGGA,130556.90,3611.0378163,N,07544.9856320,W,1,24,0.6,1.068,M,-39.962,M,0.0,*6A
###2023-11-09 13:05:56.734333$GPGSV,2,1,07,05,21,089,41,10,17,292,44,13,25,045,42,15,62,036,46*74
###2023-11-09 13:05:56.736597$GPGSV,2,2,07,18,77,285,47,23,49,314,45,24,49,137,45,,,,*4F
###2023-11-09 13:05:56.739185$GLGSV,2,1,05,70,51,015,35,71,47,286,49,80,17,092,43,85,59,204,48*6F
###2023-11-09 13:05:56.740788$GLGSV,2,2,05,86,52,311,47,,,,,,,,,,,,*59
###2023-11-09 13:05:56.743349$GAGSV,1,1,04,07,72,255,45,08,49,042,43,13,64,160,44,26,56,311,45*6B
###2023-11-09 13:05:56.745922$GBGSV,2,1,06,11,24,180,41,14,65,006,45,24,19,133,42,26,23,082,41*66
###2023-11-09 13:05:56.747859$GBGSV,2,2,06,28,43,289,47,33,58,302,47,,,,,,,,*6F
###2023-11-09 13:05:56.749277$GNVTG,27.79,T,,M,0.52,N,0.97,K,A*11
###2023-11-09 13:05:56.837004$GNGGA,130557.00,3611.0378245,N,07544.9856150,W,1,24,0.6,1.032,M,-39.962,M,0.0,*6F
###2023-11-09 13:05:56.839609$GPGSV,2,1,07,05,21,089,41,10,17,292,44,13,25,045,42,15,62,036,46*74
###2023-11-09 13:05:56.841866$GPGSV,2,2,07,18,77,285,47,23,49,314,45,24,49,137,45,,,,*4F
###2023-11-09 13:05:56.844451$GLGSV,2,1,05,70,51,015,35,71,47,286,49,80,17,092,43,85,59,204,48*6F
###2023-11-09 13:05:56.846061$GLGSV,2,2,05,86,52,311,47,,,,,,,,,,,,*59
###2023-11-09 13:05:56.848639$GAGSV,1,1,04,07,72,255,45,08,49,042,44,13,64,160,45,26,56,311,45*6D
###2023-11-09 13:05:56.851219$GBGSV,2,1,06,11,24,180,41,14,65,006,45,24,19,133,42,26,23,082,42*65
###2023-11-09 13:05:56.853147$GBGSV,2,2,06,28,43,289,47,33,58,302,47,,,,,,,,*6F
###2023-11-09 13:05:56.854576$GNVTG,27.79,T,,M,0.66,N,1.22,K,A*19
###2023-11-09 13:05:56.933116$GNGGA,130557.10,3611.0378345,N,07544.9855971,W,1,24,0.6,0.994,M,-39.962,M,0.0,*63
###2023-11-09 13:05:56.935712$GPGSV,2,1,07,05,21,089,41,10,17,292,44,13,25,045,42,15,62,036,46*74
###2023-11-09 13:05:56.937994$GPGSV,2,2,07,18,77,285,47,23,49,314,45,24,49,137,45,,,,*4F
###2023-11-09 13:05:56.940561$GLGSV,2,1,05,70,50,016,35,71,47,286,49,80,17,092,44,85,59,204,48*6A
###2023-11-09 13:05:56.942168$GLGSV,2,2,05,86,52,311,47,,,,,,,,,,,,*59
###2023-11-09 13:05:56.944735$GAGSV,1,1,04,07,72,255,45,08,49,042,44,13,64,160,45,26,56,311,45*6D
###2023-11-09 13:05:56.947338$GBGSV,2,1,06,11,24,180,41,14,65,006,45,24,19,133,42,26,23,082,43*64
###2023-11-09 13:05:56.949284$GBGSV,2,2,06,28,43,289,47,33,58,302,47,,,,,,,,*6F
###2023-11-09 13:05:56.950709$GNVTG,27.79,T,,M,0.64,N,1.19,K,A*13
###2023-11-09 13:05:57.035835$GNGGA,130557.20,3611.0378447,N,07544.9855780,W,1,24,0.6,0.965,M,-39.962,M,0.0,*6B
###2023-11-09 13:05:57.038446$GPGSV,2,1,07,05,21,089,41,10,17,292,44,13,25,045,42,15,62,036,46*74
###2023-11-09 13:05:57.040705$GPGSV,2,2,07,18,77,285,47,23,49,314,45,24,49,137,45,,,,*4F
###2023-11-09 13:05:57.043264$GLGSV,2,1,05,70,50,016,35,71,47,286,49,80,17,092,44,85,59,204,48*6A
###2023-11-09 13:05:57.044851$GLGSV,2,2,05,86,52,311,47,,,,,,,,,,,,*59
###2023-11-09 13:05:57.047424$GAGSV,1,1,04,07,72,255,45,08,49,042,45,13,64,160,45,26,56,311,45*6C
###2023-11-09 13:05:57.049986$GBGSV,2,1,06,11,24,180,41,14,65,006,46,24,19,133,42,26,23,082,43*67
###2023-11-09 13:05:57.051926$GBGSV,2,2,06,28,43,289,47,33,58,302,48,,,,,,,,*60
###2023-11-09 13:05:57.053361$GNVTG,27.79,T,,M,0.70,N,1.30,K,A*1D
###2023-11-09 13:05:57.132231$GNGGA,130557.30,3611.0378546,N,07544.9855580,W,1,24,0.6,0.939,M,-39.962,M,0.0,*61
###2023-11-09 13:05:57.134800$GPGSV,2,1,07,05,21,089,41,10,17,292,44,13,25,045,42,15,62,036,46*74
###2023-11-09 13:05:57.137065$GPGSV,2,2,07,18,77,285,47,23,49,314,45,24,49,137,45,,,,*4F
###2023-11-09 13:05:57.139630$GLGSV,2,1,05,70,50,016,35,71,47,286,48,80,17,092,44,85,59,204,48*6B
###2023-11-09 13:05:57.141226$GLGSV,2,2,05,86,52,311,47,,,,,,,,,,,,*59
###2023-11-09 13:05:57.143774$GAGSV,1,1,04,07,72,255,45,08,49,042,45,13,64,160,44,26,56,311,45*6D
###2023-11-09 13:05:57.146343$GBGSV,2,1,06,11,24,180,41,14,65,006,46,24,19,133,42,26,23,082,43*67
###2023-11-09 13:05:57.148290$GBGSV,2,2,06,28,43,289,47,33,58,302,48,,,,,,,,*60
###2023-11-09 13:05:57.149724$GNVTG,27.79,T,,M,0.68,N,1.26,K,A*13
###2023-11-09 13:05:57.232975$GNGGA,130557.40,3611.0378642,N,07544.9855384,W,1,24,0.6,0.908,M,-39.962,M,0.0,*61
###2023-11-09 13:05:57.235574$GPGSV,2,1,07,05,21,089,41,10,17,292,44,13,25,045,42,15,62,036,46*74
###2023-11-09 13:05:57.237851$GPGSV,2,2,07,18,77,285,47,23,49,314,45,24,49,137,45,,,,*4F
###2023-11-09 13:05:57.240425$GLGSV,2,1,05,70,50,016,35,71,47,286,48,80,17,092,44,85,59,204,48*6B
###2023-11-09 13:05:57.242032$GLGSV,2,2,05,86,52,311,47,,,,,,,,,,,,*59
###2023-11-09 13:05:57.244597$GAGSV,1,1,04,07,72,255,45,08,49,042,45,13,64,160,45,26,56,311,45*6C
###2023-11-09 13:05:57.247510$GBGSV,2,1,06,11,24,180,40,14,65,006,46,24,19,133,42,26,23,082,41*64
###2023-11-09 13:05:57.249467$GBGSV,2,2,06,28,43,289,47,33,58,302,47,,,,,,,,*6F
###2023-11-09 13:05:57.250904$GNVTG,27.79,T,,M,0.68,N,1.26,K,A*13
###2023-11-09 13:05:57.331725$GNGGA,130557.50,3611.0378732,N,07544.9855191,W,1,24,0.6,0.879,M,-39.962,M,0.0,*67
###2023-11-09 13:05:57.334309$GPGSV,2,1,07,05,21,089,41,10,17,292,44,13,25,045,42,15,62,036,46*74
###2023-11-09 13:05:57.336556$GPGSV,2,2,07,18,77,285,47,23,49,314,45,24,49,137,45,,,,*4F
###2023-11-09 13:05:57.339139$GLGSV,2,1,05,70,50,016,35,71,47,286,49,80,17,092,44,85,59,204,48*6A
###2023-11-09 13:05:57.340743$GLGSV,2,2,05,86,52,311,47,,,,,,,,,,,,*59
###2023-11-09 13:05:57.343312$GAGSV,1,1,04,07,72,255,45,08,49,042,45,13,64,160,44,26,56,311,45*6D
