###2023-11-09 13:09:22.838776$GLGSV,2,1,05,70,50,017,35,71,48,290,47,80,18,090,42,85,57,203,49*6E
###2023-11-09 13:09:22.840415$GLGSV,2,2,05,86,53,308,47,,,,,,,,,,,,*50
###2023-11-09 13:09:22.842998$GAGSV,1,1,04,07,73,259,45,08,48,043,44,13,63,161,45,26,57,310,45*66
###2023-11-09 13:09:22.845594$GBGSV,2,1,06,11,23,180,43,14,65,008,45,24,20,132,43,26,23,081,43*66
###2023-11-09 13:09:22.847556$GBGSV,2,2,06,28,43,287,47,33,59,304,47,,,,,,,,*66
###2023-11-09 13:09:22.848993$GNVTG,79.06,T,,M,1.98,N,3.67,K,A*19
###2023-11-09 13:09:22.931136$GNGGA,130923.10,3611.0331694,N,07544.9513310,W,1,24,0.6,0.761,M,-39.961,M,0.0,*6D
###2023-11-09 13:09:22.933746$GPGSV,2,1,07,05,20,090,41,10,19,293,43,13,24,045,39,15,61,037,45*79
###2023-11-09 13:09:22.936008$GPGSV,2,2,07,18,78,277,46,23,50,316,45,24,50,134,46,,,,*4E
###2023-11-09 13:09:22.938612$GLGSV,2,1,05,70,50,017,35,71,48,290,47,80,18,090,42,85,57,203,49*6E
###2023-11-09 13:09:22.940232$GLGSV,2,2,05,86,53,308,47,,,,,,,,,,,,*50
###2023-11-09 13:09:22.942813$GAGSV,1,1,04,07,73,259,45,08,48,043,44,13,63,161,45,26,57,310,45*66
###2023-11-09 13:09:22.945415$GBGSV,2,1,06,11,23,180,43,14,65,008,45,24,20,132,43,26,23,081,42*67
###2023-11-09 13:09:22.947367$GBGSV,2,2,06,28,43,287,47,33,59,304,47,,,,,,,,*66
###2023-11-09 13:09:22.948808$GNVTG,72.83,T,,M,2.16,N,4.00,K,A*1C
###2023-11-09 13:09:23.033124$GNGGA,130923.20,3611.0331872,N,07544.9512574,W,1,24,0.6,0.737,M,-39.961,M,0.0,*6E
###2023-11-09 13:09:23.035716$GPGSV,2,1,07,05,20,090,41,10,19,293,44,13,24,045,41,15,61,037,45*71
###2023-11-09 13:09:23.037994$GPGSV,2,2,07,18,78,277,46,23,50,316,45,24,50,134,46,,,,*4E
###2023-11-09 13:09:23.040573$GLGSV,2,1,05,70,50,017,35,71,48,290,47,80,18,090,42,85,57,203,49*6E
###2023-11-09 13:09:23.042180$GLGSV,2,2,05,86,53,308,47,,,,,,,,,,,,*50
###2023-11-09 13:09:23.044755$GAGSV,1,1,04,07,73,259,45,08,48,043,44,13,63,161,45,26,57,310,45*66
###2023-11-09 13:09:23.047358$GBGSV,2,1,06,11,23,180,41,14,65,008,45,24,20,132,43,26,23,081,42*65
###2023-11-09 13:09:23.049294$GBGSV,2,2,06,28,43,287,47,33,59,304,47,,,,,,,,*66
###2023-11-09 13:09:23.050727$GNVTG,73.64,T,,M,2.33,N,4.32,K,A*12
###2023-11-09 13:09:23.129878$GNGGA,130923.30,3611.0331997,N,07544.9511788,W,1,24,0.6,0.717,M,-39.961,M,0.0,*65
###2023-11-09 13:09:23.132460$GPGSV,2,1,07,05,20,090,41,10,19,293,44,13,24,045,42,15,61,037,46*71
###2023-11-09 13:09:23.134711$GPGSV,2,2,07,18,78,277,47,23,50,316,45,24,50,134,46,,,,*4F
###2023-11-09 13:09:23.137288$GLGSV,2,1,05,70,50,017,35,71,48,290,47,80,18,090,42,85,57,203,48*6F
###2023-11-09 13:09:23.138890$GLGSV,2,2,05,86,53,308,48,,,,,,,,,,,,*5F
###2023-11-09 13:09:23.141456$GAGSV,1,1,04,07,73,259,45,08,48,043,44,13,63,161,44,26,57,310,45*67
###2023-11-09 13:09:23.144025$GBGSV,2,1,06,11,23,180,41,14,65,008,45,24,20,132,42,26,23,081,43*65
###2023-11-09 13:09:23.145953$GBGSV,2,2,06,28,43,287,47,33,59,304,47,,,,,,,,*66
###2023-11-09 13:09:23.147387$GNVTG,83.58,T,,M,2.39,N,4.43,K,A*1E
###2023-11-09 13:09:23.229886$GNGGA,130923.40,3611.0332012,N,07544.9510969,W,1,24,0.6,0.700,M,-39.961,M,0.0,*63
###2023-11-09 13:09:23.232473$GPGSV,2,1,07,05,20,090,41,10,19,293,44,13,24,045,42,15,61,037,46*71
###2023-11-09 13:09:23.234731$GPGSV,2,2,07,18,78,277,47,23,50,316,45,24,50,134,45,,,,*4C
###2023-11-09 13:09:23.237321$GLGSV,2,1,05,70,50,017,35,71,48,290,47,80,18,090,42,85,57,203,48*6F
###2023-11-09 13:09:23.238941$GLGSV,2,2,05,86,53,308,48,,,,,,,,,,,,*5F
###2023-11-09 13:09:23.241516$GAGSV,1,1,04,07,73,259,45,08,48,043,44,13,63,161,44,26,57,310,45*67
###2023-11-09 13:09:23.244096$GBGSV,2,1,06,11,23,180,40,14,65,008,45,24,20,132,42,26,23,081,43*64
###2023-11-09 13:09:23.246028$GBGSV,2,2,06,28,43,287,47,33,59,304,48,,,,,,,,*69
###2023-11-09 13:09:23.247473$GNVTG,93.31,T,,M,2.45,N,4.54,K,A*1D
###2023-11-09 13:09:23.331118$GNGGA,130923.50,3611.0331942,N,07544.9510133,W,1,24,0.6,0.686,M,-39.961,M,0.0,*65
###2023-11-09 13:09:23.333707$GPGSV,2,1,07,05,20,090,41,10,19,293,44,13,24,045,42,15,61,037,46*71
###2023-11-09 13:09:23.335956$GPGSV,2,2,07,18,78,277,47,23,50,316,45,24,50,134,45,,,,*4C
###2023-11-09 13:09:23.338546$GLGSV,2,1,05,70,50,017,35,71,48,290,47,80,18,090,43,85,57,203,48*6E
###2023-11-09 13:09:23.340160$GLGSV,2,2,05,86,53,308,48,,,,,,,,,,,,*5F
###2023-11-09 13:09:23.342716$GAGSV,1,1,04,07,73,259,45,08,48,043,44,13,63,161,44,26,57,310,45*67
###2023-11-09 13:09:23.345293$GBGSV,2,1,06,11,23,180,40,14,65,008,45,24,20,132,42,26,23,081,42*65
###2023-11-09 13:09:23.347247$GBGSV,2,2,06,28,43,287,47,33,59,304,47,,,,,,,,*66
###2023-11-09 13:09:23.348680$GNVTG,97.69,T,,M,2.49,N,4.61,K,A*1E
###2023-11-09 13:09:23.429889$GNGGA,130923.60,3611.0331847,N,07544.9509300,W,1,24,0.6,0.670,M,-39.961,M,0.0,*61
###2023-11-09 13:09:23.432502$GPGSV,2,1,07,05,20,090,41,10,19,293,44,13,24,045,42,15,61,037,46*71
###2023-11-09 13:09:23.434764$GPGSV,2,2,07,18,78,277,47,23,50,316,45,24,50,134,46,,,,*4F
###2023-11-09 13:09:23.437353$GLGSV,2,1,05,70,50,017,35,71,48,290,47,80,18,090,43,85,57,203,48*6E
###2023-11-09 13:09:23.438960$GLGSV,2,2,05,86,53,308,48,,,,,,,,,,,,*5F
###2023-11-09 13:09:23.441517$GAGSV,1,1,04,07,73,259,45,08,48,043,44,13,63,161,44,26,57,310,45*67
###2023-11-09 13:09:23.444094$GBGSV,2,1,06,11,23,180,41,14,65,008,45,24,20,132,43,26,23,081,42*65
###2023-11-09 13:09:23.446027$GBGSV,2,2,06,28,43,287,47,33,59,304,47,,,,,,,,*66
###2023-11-09 13:09:23.447465$GNVTG,97.75,T,,M,2.45,N,4.54,K,A*19
###2023-11-09 13:09:23.529900$GNGGA,130923.70,3611.0331808,N,07544.9508460,W,1,24,0.6,0.662,M,-39.961,M,0.0,*68
###2023-11-09 13:09:23.532514$GPGSV,2,1,07,05,20,090,41,10,19,293,44,13,24,045,42,15,61,037,45*72
###2023-11-09 13:09:23.534775$GPGSV,2,2,07,18,78,277,47,23,50,316,45,24,50,134,46,,,,*4F
###2023-11-09 13:09:23.537384$GLGSV,2,1,05,70,50,017,35,71,48,290,47,80,18,090,42,85,57,203,49*6E
###2023-11-09 13:09:23.539007$GLGSV,2,2,05,86,53,308,48,,,,,,,,,,,,*5F
###2023-11-09 13:09:23.541595$GAGSV,1,1,04,07,73,259,45,08,48,043,44,13,63,161,44,26,57,310,45*67
###2023-11-09 13:09:23.544183$GBGSV,2,1,06,11,23,180,42,14,65,008,45,24,20,132,43,26,23,081,41*65
###2023-11-09 13:09:23.546129$GBGSV,2,2,06,28,43,287,47,33,59,304,47,,,,,,,,*66
###2023-11-09 13:09:23.547574$GNVTG,88.47,T,,M,2.49,N,4.61,K,A*1C
###2023-11-09 13:09:23.630993$GNGGA,130923.80,3611.0331875,N,07544.9507593,W,1,24,0.6,0.659,M,-39.961,M,0.0,*67
###2023-11-09 13:09:23.633595$GPGSV,2,1,07,05,20,090,41,10,19,293,44,13,24,045,41,15,61,037,45*71
###2023-11-09 13:09:23.635865$GPGSV,2,2,07,18,78,277,47,23,50,316,45,24,50,134,46,,,,*4F
###2023-11-09 13:09:23.638459$GLGSV,2,1,05,70,50,017,35,71,48,290,47,80,18,090,42,85,57,203,49*6E
###2023-11-09 13:09:23.640075$GLGSV,2,2,05,86,53,308,47,,,,,,,,,,,,*50
###2023-11-09 13:09:23.642653$GAGSV,1,1,04,07,73,259,45,08,48,043,44,13,63,161,44,26,57,310,45*67
###2023-11-09 13:09:23.645241$GBGSV,2,1,06,11,23,180,42,14,65,008,45,24,20,132,43,26,23,081,41*65
###2023-11-09 13:09:23.647195$GBGSV,2,2,06,28,43,287,47,33,59,304,47,,,,,,,,*66
###2023-11-09 13:09:23.648635$GNVTG,80.44,T,,M,2.60,N,4.82,K,A*11
###2023-11-09 13:09:23.730114$GNGGA,130923.90,3611.0332004,N,07544.9506707,W,1,24,0.6,0.659,M,-39.961,M,0.0,*65
###2023-11-09 13:09:23.732703$GPGSV,2,1,07,05,20,090,41,10,19,293,44,13,24,045,41,15,61,037,45*71
###2023-11-09 13:09:23.734958$GPGSV,2,2,07,18,78,277,47,23,50,316,45,24,50,134,46,,,,*4F
###2023-11-09 13:09:23.737544$GLGSV,2,1,05,70,50,017,35,71,48,290,47,80,18,090,42,85,57,203,49*6E
###2023-11-09 13:09:23.739152$GLGSV,2,2,05,86,53,308,47,,,,,,,,,,,,*50
###2023-11-09 13:09:23.741717$GAGSV,1,1,04,07,73,259,45,08,48,043,44,13,63,161,44,26,57,310,44*66
###2023-11-09 13:09:23.744296$GBGSV,2,1,06,11,23,180,42,14,65,008,45,24,20,132,43,26,23,081,41*65
###2023-11-09 13:09:23.746221$GBGSV,2,2,06,28,43,287,47,33,59,304,47,,,,,,,,*66
###2023-11-09 13:09:23.747660$GNVTG,78.85,T,,M,2.66,N,4.93,K,A*1D
###2023-11-09 13:09:23.831898$GNGGA,130924.00,3611.0332125,N,07544.9505800,W,1,24,0.6,0.658,M,-39.961,M,0.0,*63
###2023-11-09 13:09:23.834510$GPGSV,2,1,07,05,20,090,40,10,19,293,44,13,24,045,41,15,61,037,45*70
###2023-11-09 13:09:23.836777$GPGSV,2,2,07,18,78,277,47,23,50,316,45,24,50,134,46,,,,*4F
###2023-11-09 13:09:23.839384$GLGSV,2,1,05,70,50,017,35,71,48,290,47,80,18,090,42,85,57,203,48*6F
###2023-11-09 13:09:23.841312$GLGSV,2,2,05,86,53,308,47,,,,,,,,,,,,*50
###2023-11-09 13:09:23.843905$GAGSV,1,1,04,07,73,259,45,08,48,043,44,13,63,161,44,26,57,310,44*66
###2023-11-09 13:09:23.846496$GBGSV,2,1,06,11,23,180,42,14,65,008,45,24,20,132,43,26,23,081,41*65
###2023-11-09 13:09:23.848454$GBGSV,2,2,06,28,43,287,47,33,59,304,47,,,,,,,,*66
###2023-11-09 13:09:23.849894$GNVTG,82.02,T,,M,2.72,N,5.04,K,A*1D
###2023-11-09 13:09:23.938911$GNGGA,130924.10,3611.0332174,N,07544.9504888,W,1,24,0.6,0.649,M,-39.961,M,0.0,*67
###2023-11-09 13:09:23.941518$GPGSV,2,1,07,05,20,090,41,10,19,293,44,13,24,045,41,15,61,037,45*71
###2023-11-09 13:09:23.943777$GPGSV,2,2,07,18,78,277,47,23,50,316,45,24,50,134,45,,,,*4C
###2023-11-09 13:09:23.946360$GLGSV,2,1,05,70,50,017,35,71,48,290,47,80,18,090,43,85,57,203,48*6E
