###2023-11-09 13:10:19.837572$GPGSV,2,2,07,18,78,277,46,23,50,316,45,24,50,134,45,,,,*4D
###2023-11-09 13:10:19.840157$GLGSV,2,1,05,70,49,019,35,71,48,291,48,80,19,089,44,85,56,202,49*69
###2023-11-09 13:10:19.841769$GLGSV,2,2,05,86,54,306,48,,,,,,,,,,,,*56
###2023-11-09 13:10:19.844342$GAGSV,1,1,04,07,73,259,45,08,48,043,45,13,63,161,45,26,57,310,44*66
###2023-11-09 13:10:19.846937$GBGSV,2,1,06,11,22,180,43,14,65,009,45,24,21,132,44,26,23,080,42*60
###2023-11-09 13:10:19.848873$GBGSV,2,2,06,28,43,286,47,33,59,305,47,,,,,,,,*66
###2023-11-09 13:10:19.850299$GNVTG,64.06,T,,M,4.41,N,8.17,K,A*18
###2023-11-09 13:10:19.939154$GNGGA,131020.10,3611.0506237,N,07544.8744967,W,1,24,0.6,0.697,M,-39.961,M,0.0,*6A
###2023-11-09 13:10:19.941784$GPGSV,2,1,07,05,20,091,43,10,19,293,44,13,24,045,41,15,61,037,45*72
###2023-11-09 13:10:19.944072$GPGSV,2,2,07,18,78,277,47,23,50,316,45,24,50,134,45,,,,*4C
###2023-11-09 13:10:19.946657$GLGSV,2,1,05,70,49,019,35,71,48,291,48,80,19,089,44,85,56,202,48*68
###2023-11-09 13:10:19.948289$GLGSV,2,2,05,86,54,306,48,,,,,,,,,,,,*56
###2023-11-09 13:10:19.950868$GAGSV,1,1,04,07,73,259,45,08,48,043,45,13,63,161,44,26,57,310,45*66
###2023-11-09 13:10:19.953455$GBGSV,2,1,06,11,22,180,42,14,65,009,45,24,21,132,44,26,23,080,42*61
###2023-11-09 13:10:19.955399$GBGSV,2,2,06,28,43,286,47,33,59,305,48,,,,,,,,*69
###2023-11-09 13:10:19.956830$GNVTG,64.54,T,,M,4.49,N,8.32,K,A*10
###2023-11-09 13:10:20.033492$GNGGA,131020.20,3611.0506730,N,07544.8743549,W,1,24,0.6,0.704,M,-39.961,M,0.0,*67
###2023-11-09 13:10:20.036085$GPGSV,2,1,07,05,20,091,42,10,19,293,44,13,24,045,41,15,61,037,45*73
###2023-11-09 13:10:20.038360$GPGSV,2,2,07,18,78,277,47,23,50,316,45,24,50,134,45,,,,*4C
###2023-11-09 13:10:20.040946$GLGSV,2,1,05,70,49,019,35,71,48,291,48,80,19,089,44,85,56,202,47*67
###2023-11-09 13:10:20.042556$GLGSV,2,2,05,86,54,306,48,,,,,,,,,,,,*56
###2023-11-09 13:10:20.045133$GAGSV,1,1,04,07,73,259,45,08,48,043,45,13,63,161,44,26,57,310,45*66
###2023-11-09 13:10:20.047732$GBGSV,2,1,06,11,22,180,42,14,65,009,45,24,21,132,43,26,23,080,42*66
###2023-11-09 13:10:20.049669$GBGSV,2,2,06,28,43,286,47,33,59,305,48,,,,,,,,*69
###2023-11-09 13:10:20.051097$GNVTG,68.46,T,,M,4.57,N,8.46,K,A*13
###2023-11-09 13:10:20.133462$GNGGA,131020.30,3611.0507152,N,07544.8742074,W,1,24,0.6,0.699,M,-39.961,M,0.0,*6A
###2023-11-09 13:10:20.136038$GPGSV,2,1,07,05,20,091,42,10,19,293,44,13,24,045,41,15,61,037,45*73
###2023-11-09 13:10:20.138302$GPGSV,2,2,07,18,78,277,47,23,50,316,45,24,50,134,45,,,,*4C
###2023-11-09 13:10:20.140866$GLGSV,2,1,05,70,49,019,35,71,48,291,48,80,19,089,44,85,56,202,47*67
###2023-11-09 13:10:20.142473$GLGSV,2,2,05,86,54,306,47,,,,,,,,,,,,*59
###2023-11-09 13:10:20.145022$GAGSV,1,1,04,07,73,259,45,08,48,043,45,13,63,161,44,26,57,310,45*66
###2023-11-09 13:10:20.147600$GBGSV,2,1,06,11,22,180,41,14,65,009,45,24,21,132,43,26,23,080,42*65
###2023-11-09 13:10:20.149538$GBGSV,2,2,06,28,43,286,47,33,59,305,47,,,,,,,,*66
###2023-11-09 13:10:20.150959$GNVTG,72.04,T,,M,4.61,N,8.53,K,A*1F
###2023-11-09 13:10:20.228393$GNGGA,131020.40,3611.0507517,N,07544.8740569,W,1,24,0.6,0.688,M,-39.961,M,0.0,*63
###2023-11-09 13:10:20.231000$GPGSV,2,1,07,05,20,091,42,10,19,293,44,13,24,045,41,15,61,037,45*73
###2023-11-09 13:10:20.233260$GPGSV,2,2,07,18,78,277,47,23,50,316,45,24,50,134,45,,,,*4C
###2023-11-09 13:10:20.235840$GLGSV,2,1,05,70,49,019,35,71,48,291,48,80,19,089,44,85,56,202,48*68
###2023-11-09 13:10:20.237465$GLGSV,2,2,05,86,54,306,47,,,,,,,,,,,,*59
###2023-11-09 13:10:20.240040$GAGSV,1,1,04,07,73,259,45,08,48,043,45,13,63,161,44,26,57,310,45*66
###2023-11-09 13:10:20.242622$GBGSV,2,1,06,11,22,180,42,14,65,009,45,24,21,132,44,26,23,080,42*61
###2023-11-09 13:10:20.244566$GBGSV,2,2,06,28,43,286,47,33,59,305,47,,,,,,,,*66
###2023-11-09 13:10:20.245993$GNVTG,73.83,T,,M,4.59,N,8.50,K,A*19
###2023-11-09 13:10:20.330508$GNGGA,131020.50,3611.0507857,N,07544.8739058,W,1,24,0.6,0.672,M,-39.961,M,0.0,*67
###2023-11-09 13:10:20.333117$GPGSV,2,1,07,05,20,091,42,10,19,293,44,13,24,045,41,15,61,037,45*73
###2023-11-09 13:10:20.335372$GPGSV,2,2,07,18,78,277,47,23,50,316,45,24,50,134,45,,,,*4C
###2023-11-09 13:10:20.337969$GLGSV,2,1,05,70,49,019,35,71,48,291,48,80,19,089,45,85,56,202,48*69
###2023-11-09 13:10:20.339584$GLGSV,2,2,05,86,54,306,47,,,,,,,,,,,,*59
###2023-11-09 13:10:20.342151$GAGSV,1,1,04,07,73,259,45,08,48,043,45,13,63,161,45,26,57,310,44*66
###2023-11-09 13:10:20.344734$GBGSV,2,1,06,11,22,180,43,14,65,009,45,24,21,132,44,26,23,080,42*60
###2023-11-09 13:10:20.346660$GBGSV,2,2,06,28,43,286,47,33,59,305,46,,,,,,,,*67
###2023-11-09 13:10:20.348110$GNVTG,74.40,T,,M,4.61,N,8.53,K,A*19
###2023-11-09 13:10:20.429486$GNGGA,131020.60,3611.0508223,N,07544.8737553,W,1,24,0.6,0.662,M,-39.961,M,0.0,*63
###2023-11-09 13:10:20.432061$GPGSV,2,1,07,05,20,091,43,10,19,293,43,13,24,045,41,15,61,037,45*75
###2023-11-09 13:10:20.434304$GPGSV,2,2,07,18,78,277,47,23,50,316,45,24,50,134,45,,,,*4C
###2023-11-09 13:10:20.436865$GLGSV,2,1,05,70,49,019,35,71,48,291,48,80,19,089,45,85,56,202,50*60
###2023-11-09 13:10:20.438479$GLGSV,2,2,05,86,54,306,47,,,,,,,,,,,,*59
###2023-11-09 13:10:20.441032$GAGSV,1,1,04,07,73,259,45,08,48,043,45,13,63,161,45,26,57,310,44*66
###2023-11-09 13:10:20.443590$GBGSV,2,1,06,11,22,180,43,14,65,009,45,24,21,132,45,26,23,080,42*61
###2023-11-09 13:10:20.445513$GBGSV,2,2,06,28,43,286,47,33,59,305,46,,,,,,,,*67
###2023-11-09 13:10:20.446950$GNVTG,71.71,T,,M,4.61,N,8.53,K,A*1E
###2023-11-09 13:10:20.529638$GNGGA,131020.70,3611.0508670,N,07544.8736104,W,1,24,0.6,0.668,M,-39.961,M,0.0,*6D
###2023-11-09 13:10:20.532230$GPGSV,2,1,07,05,20,091,43,10,19,293,43,13,24,045,40,15,61,037,45*74
###2023-11-09 13:10:20.534487$GPGSV,2,2,07,18,78,277,47,23,50,316,45,24,50,134,45,,,,*4C
###2023-11-09 13:10:20.537067$GLGSV,2,1,05,70,49,019,35,71,48,291,48,80,19,089,45,85,56,202,50*60
###2023-11-09 13:10:20.538680$GLGSV,2,2,05,86,54,306,47,,,,,,,,,,,,*59
###2023-11-09 13:10:20.541250$GAGSV,1,1,04,07,73,259,45,08,48,043,45,13,63,161,45,26,57,310,44*66
###2023-11-09 13:10:20.543830$GBGSV,2,1,06,11,22,180,44,14,65,009,45,24,21,132,45,26,23,080,43*67
###2023-11-09 13:10:20.545771$GBGSV,2,2,06,28,43,286,46,33,59,305,46,,,,,,,,*66
###2023-11-09 13:10:20.547217$GNVTG,65.87,T,,M,4.49,N,8.32,K,A*1F
###2023-11-09 13:10:20.629493$GNGGA,131020.80,3611.0509222,N,07544.8734740,W,1,24,0.6,0.686,M,-39.961,M,0.0,*64
###2023-11-09 13:10:20.632093$GPGSV,2,1,07,05,20,091,43,10,19,293,44,13,24,045,41,15,61,037,45*72
###2023-11-09 13:10:20.634353$GPGSV,2,2,07,18,78,277,47,23,50,316,45,24,50,134,45,,,,*4C
###2023-11-09 13:10:20.636940$GLGSV,2,1,05,70,49,019,35,71,48,291,48,80,19,089,45,85,56,202,49*68
###2023-11-09 13:10:20.638553$GLGSV,2,2,05,86,54,306,47,,,,,,,,,,,,*59
###2023-11-09 13:10:20.641116$GAGSV,1,1,04,07,73,259,45,08,48,043,45,13,63,161,45,26,57,310,44*66
###2023-11-09 13:10:20.643695$GBGSV,2,1,06,11,22,180,44,14,65,009,45,24,21,132,45,26,23,080,43*67
###2023-11-09 13:10:20.645626$GBGSV,2,2,06,28,43,286,47,33,59,305,46,,,,,,,,*67
###2023-11-09 13:10:20.647067$GNVTG,60.55,T,,M,4.45,N,8.24,K,A*1E
###2023-11-09 13:10:20.729493$GNGGA,131020.90,3611.0509825,N,07544.8733416,W,1,24,0.6,0.706,M,-39.961,M,0.0,*66
###2023-11-09 13:10:20.732070$GPGSV,2,1,07,05,20,091,43,10,19,293,44,13,24,045,41,15,61,037,45*72
###2023-11-09 13:10:20.734318$GPGSV,2,2,07,18,78,277,47,23,50,316,46,24,50,134,45,,,,*4F
###2023-11-09 13:10:20.736882$GLGSV,2,1,05,70,49,019,35,71,48,291,48,80,19,089,44,85,56,202,49*69
###2023-11-09 13:10:20.738499$GLGSV,2,2,05,86,54,306,48,,,,,,,,,,,,*56
###2023-11-09 13:10:20.741059$GAGSV,1,1,04,07,73,259,45,08,48,043,44,13,63,161,45,26,57,310,45*66
###2023-11-09 13:10:20.743626$GBGSV,2,1,06,11,22,180,43,14,65,009,45,24,21,132,43,26,23,080,42*67
###2023-11-09 13:10:20.745551$GBGSV,2,2,06,28,43,286,48,33,59,305,48,,,,,,,,*66
###2023-11-09 13:10:20.746983$GNVTG,60.34,T,,M,4.45,N,8.24,K,A*19
###2023-11-09 13:10:20.832371$GNGGA,131021.00,3611.0510378,N,07544.8732057,W,1,24,0.6,0.718,M,-39.961,M,0.0,*6A
###2023-11-09 13:10:20.834965$GPGSV,2,1,07,05,20,091,42,10,19,293,44,13,24,045,42,15,61,037,45*70
###2023-11-09 13:10:20.837268$GPGSV,2,2,07,18,78,277,47,23,50,316,46,24,50,134,45,,,,*4F
###2023-11-09 13:10:20.840164$GLGSV,2,1,05,70,49,019,35,71,48,291,47,80,19,089,44,85,56,202,48*67
###2023-11-09 13:10:20.841779$GLGSV,2,2,05,86,54,306,49,,,,,,,,,,,,*57
###2023-11-09 13:10:20.844358$GAGSV,1,1,04,07,73,259,45,08,48,043,45,13,63,161,45,26,57,310,45*67
###2023-11-09 13:10:20.846980$GBGSV,2,1,06,11,22,180,42,14,65,009,45,24,21,132,42,26,23,080,42*67
###2023-11-09 13:10:20.848937$GBGSV,2,2,06,28,43,286,48,33,59,305,48,,,,,,,,*66
###2023-11-09 13:10:20.850375$GNVTG,65.77,T,,M,4.49,N,8.32,K,A*10
###2023-11-09 13:10:20.930380$GNGGA,131021.10,3611.0510834,N,07544.8730614,W,1,24,0.6,0.720,M,-39.961,M,0.0,*60
###2023-11-09 13:10:20.932979$GPGSV,2,1,07,05,20,091,42,10,19,294,44,13,24,045,42,15,61,037,45*77
###2023-11-09 13:10:20.935232$GPGSV,2,2,07,18,78,277,47,23,50,316,46,24,50,134,45,,,,*4F
