###2023-11-09 13:09:02.743116$GBGSV,2,1,06,11,23,180,41,14,65,008,45,24,20,132,43,26,23,081,42*65
###2023-11-09 13:09:02.745074$GBGSV,2,2,06,28,43,287,47,33,59,304,47,,,,,,,,*66
###2023-11-09 13:09:02.746511$GNVTG,89.79,T,,M,4.70,N,8.71,K,A*11
###2023-11-09 13:09:02.831403$GNGGA,130903.00,3611.0227682,N,07544.9748412,W,1,24,0.6,0.789,M,-39.962,M,0.0,*63
###2023-11-09 13:09:02.834021$GPGSV,2,1,07,05,20,090,40,10,19,293,44,13,24,045,40,15,61,037,45*71
###2023-11-09 13:09:02.836280$GPGSV,2,2,07,18,78,277,47,23,50,316,46,24,50,135,46,,,,*4D
###2023-11-09 13:09:02.838875$GLGSV,2,1,05,70,50,017,36,71,48,290,48,80,18,090,42,85,57,203,48*63
###2023-11-09 13:09:02.840498$GLGSV,2,2,05,86,53,308,48,,,,,,,,,,,,*5F
###2023-11-09 13:09:02.843086$GAGSV,1,1,04,07,73,259,45,08,48,043,45,13,64,160,44,26,57,310,45*60
###2023-11-09 13:09:02.845665$GBGSV,2,1,06,11,23,180,41,14,65,008,45,24,20,132,43,26,23,081,42*65
###2023-11-09 13:09:02.847614$GBGSV,2,2,06,28,43,287,47,33,59,304,47,,,,,,,,*66
###2023-11-09 13:09:02.849042$GNVTG,88.09,T,,M,4.68,N,8.68,K,A*16
###2023-11-09 13:09:02.929634$GNGGA,130903.10,3611.0227781,N,07544.9746795,W,1,24,0.6,0.741,M,-39.962,M,0.0,*66
###2023-11-09 13:09:02.932211$GPGSV,2,1,07,05,20,090,40,10,19,293,44,13,24,045,40,15,61,037,45*71
###2023-11-09 13:09:02.934460$GPGSV,2,2,07,18,78,277,47,23,50,316,46,24,50,135,46,,,,*4D
###2023-11-09 13:09:02.937054$GLGSV,2,1,05,70,50,017,36,71,48,290,48,80,18,090,43,85,57,203,48*62
###2023-11-09 13:09:02.938667$GLGSV,2,2,05,86,53,308,48,,,,,,,,,,,,*5F
###2023-11-09 13:09:02.941231$GAGSV,1,1,04,07,73,259,44,08,48,043,45,13,64,160,45,26,57,310,45*60
###2023-11-09 13:09:02.943807$GBGSV,2,1,06,11,23,180,41,14,65,008,45,24,20,132,43,26,23,081,42*65
###2023-11-09 13:09:02.945738$GBGSV,2,2,06,28,43,287,47,33,59,304,47,,,,,,,,*66
###2023-11-09 13:09:02.947180$GNVTG,83.44,T,,M,4.72,N,8.75,K,A*13
###2023-11-09 13:09:03.031600$GNGGA,130903.20,3611.0227989,N,07544.9745170,W,1,24,0.6,0.710,M,-39.962,M,0.0,*69
###2023-11-09 13:09:03.034180$GPGSV,2,1,07,05,20,090,40,10,19,293,44,13,24,045,40,15,61,037,45*71
###2023-11-09 13:09:03.036435$GPGSV,2,2,07,18,78,277,47,23,50,316,45,24,50,135,46,,,,*4E
###2023-11-09 13:09:03.039015$GLGSV,2,1,05,70,50,017,36,71,48,290,48,80,18,090,43,85,57,203,49*63
###2023-11-09 13:09:03.040618$GLGSV,2,2,05,86,53,308,48,,,,,,,,,,,,*5F
###2023-11-09 13:09:03.043168$GAGSV,1,1,04,07,73,259,45,08,48,043,45,13,64,160,45,26,57,310,45*61
###2023-11-09 13:09:03.045730$GBGSV,2,1,06,11,23,180,41,14,65,008,45,24,20,132,43,26,23,081,42*65
###2023-11-09 13:09:03.047673$GBGSV,2,2,06,28,43,287,47,33,59,304,47,,,,,,,,*66
###2023-11-09 13:09:03.049105$GNVTG,78.71,T,,M,4.82,N,8.93,K,A*16
###2023-11-09 13:09:03.130119$GNGGA,130903.30,3611.0228264,N,07544.9743512,W,1,24,0.6,0.694,M,-39.962,M,0.0,*64
###2023-11-09 13:09:03.132716$GPGSV,2,1,07,05,20,090,40,10,19,293,45,13,24,045,40,15,61,037,45*70
###2023-11-09 13:09:03.134980$GPGSV,2,2,07,18,78,277,47,23,50,316,45,24,50,135,46,,,,*4E
###2023-11-09 13:09:03.137573$GLGSV,2,1,05,70,50,017,36,71,48,290,49,80,18,090,43,85,57,203,49*62
###2023-11-09 13:09:03.139182$GLGSV,2,2,05,86,53,308,47,,,,,,,,,,,,*50
###2023-11-09 13:09:03.141753$GAGSV,1,1,04,07,73,259,45,08,48,043,45,13,64,160,45,26,57,310,45*61
###2023-11-09 13:09:03.144328$GBGSV,2,1,06,11,23,180,41,14,65,008,45,24,20,132,43,26,23,081,42*65
###2023-11-09 13:09:03.146263$GBGSV,2,2,06,28,43,287,47,33,59,304,47,,,,,,,,*66
###2023-11-09 13:09:03.147702$GNVTG,78.19,T,,M,5.00,N,9.25,K,A*1F
###2023-11-09 13:09:03.230362$GNGGA,130903.40,3611.0228516,N,07544.9741800,W,1,24,0.6,0.681,M,-39.962,M,0.0,*69
###2023-11-09 13:09:03.232953$GPGSV,2,1,07,05,20,090,40,10,19,293,45,13,24,045,40,15,61,037,45*70
###2023-11-09 13:09:03.235216$GPGSV,2,2,07,18,78,277,47,23,50,316,45,24,50,135,46,,,,*4E
###2023-11-09 13:09:03.237826$GLGSV,2,1,05,70,50,017,36,71,48,290,49,80,18,090,42,85,57,203,49*63
###2023-11-09 13:09:03.239452$GLGSV,2,2,05,86,53,308,47,,,,,,,,,,,,*50
###2023-11-09 13:09:03.242030$GAGSV,1,1,04,07,73,259,45,08,48,043,45,13,64,160,45,26,57,310,45*61
###2023-11-09 13:09:03.244612$GBGSV,2,1,06,11,23,180,41,14,65,008,45,24,20,132,43,26,23,081,42*65
###2023-11-09 13:09:03.246547$GBGSV,2,2,06,28,43,287,47,33,59,304,47,,,,,,,,*66
###2023-11-09 13:09:03.247996$GNVTG,81.11,T,,M,5.09,N,9.43,K,A*18
###2023-11-09 13:09:03.329380$GNGGA,130903.50,3611.0228735,N,07544.9740043,W,1,24,0.6,0.661,M,-39.962,M,0.0,*6B
###2023-11-09 13:09:03.331958$GPGSV,2,1,07,05,20,090,40,10,19,293,45,13,24,045,40,15,61,037,45*70
###2023-11-09 13:09:03.334197$GPGSV,2,2,07,18,78,277,47,23,50,316,45,24,50,135,46,,,,*4E
###2023-11-09 13:09:03.336755$GLGSV,2,1,05,70,50,017,36,71,48,290,49,80,18,090,42,85,57,203,48*62
###2023-11-09 13:09:03.338371$GLGSV,2,2,05,86,53,308,47,,,,,,,,,,,,*50
###2023-11-09 13:09:03.340934$GAGSV,1,1,04,07,73,259,45,08,48,043,45,13,64,160,45,26,57,310,44*60
###2023-11-09 13:09:03.343505$GBGSV,2,1,06,11,23,180,41,14,65,008,45,24,20,132,42,26,23,081,42*64
###2023-11-09 13:09:03.345440$GBGSV,2,2,06,28,43,287,47,33,59,304,47,,,,,,,,*66
###2023-11-09 13:09:03.346867$GNVTG,81.36,T,,M,5.19,N,9.61,K,A*1C
###2023-11-09 13:09:03.429410$GNGGA,130903.60,3611.0228942,N,07544.9738269,W,1,24,0.6,0.629,M,-39.962,M,0.0,*6F
###2023-11-09 13:09:03.432018$GPGSV,2,1,07,05,20,090,41,10,19,293,45,13,24,045,40,15,61,037,44*70
###2023-11-09 13:09:03.434287$GPGSV,2,2,07,18,78,277,47,23,50,316,45,24,50,135,46,,,,*4E
###2023-11-09 13:09:03.436859$GLGSV,2,1,05,70,50,017,36,71,48,290,48,80,18,090,43,85,57,203,48*62
###2023-11-09 13:09:03.438478$GLGSV,2,2,05,86,53,308,47,,,,,,,,,,,,*50
###2023-11-09 13:09:03.441047$GAGSV,1,1,04,07,73,259,45,08,48,043,45,13,64,160,45,26,57,310,44*60
###2023-11-09 13:09:03.443634$GBGSV,2,1,06,11,23,180,41,14,65,008,45,24,20,132,42,26,23,081,42*64
###2023-11-09 13:09:03.445563$GBGSV,2,2,06,28,43,287,47,33,59,304,47,,,,,,,,*66
###2023-11-09 13:09:03.447008$GNVTG,82.25,T,,M,5.19,N,9.61,K,A*1D
###2023-11-09 13:09:03.530374$GNGGA,130903.70,3611.0229131,N,07544.9736507,W,1,24,0.6,0.610,M,-39.962,M,0.0,*68
###2023-11-09 13:09:03.532985$GPGSV,2,1,07,05,20,090,42,10,19,293,45,13,24,045,40,15,61,037,44*73
###2023-11-09 13:09:03.535242$GPGSV,2,2,07,18,78,277,47,23,50,316,45,24,50,135,46,,,,*4E
###2023-11-09 13:09:03.537844$GLGSV,2,1,05,70,50,017,36,71,48,290,48,80,18,090,43,85,57,203,49*63
###2023-11-09 13:09:03.539468$GLGSV,2,2,05,86,53,308,46,,,,,,,,,,,,*51
###2023-11-09 13:09:03.542050$GAGSV,1,1,04,07,73,259,45,08,48,043,45,13,64,160,45,26,57,310,44*60
###2023-11-09 13:09:03.544638$GBGSV,2,1,06,11,23,180,41,14,65,008,45,24,20,132,43,26,23,081,42*65
###2023-11-09 13:09:03.546568$GBGSV,2,2,06,28,43,287,47,33,59,304,47,,,,,,,,*66
###2023-11-09 13:09:03.548017$GNVTG,82.53,T,,M,5.09,N,9.43,K,A*1D
###2023-11-09 13:09:03.628472$GNGGA,130903.80,3611.0229335,N,07544.9734787,W,1,24,0.6,0.610,M,-39.962,M,0.0,*69
###2023-11-09 13:09:03.631055$GPGSV,2,1,07,05,20,090,42,10,19,293,45,13,24,045,41,15,61,037,45*73
###2023-11-09 13:09:03.633300$GPGSV,2,2,07,18,78,277,47,23,50,316,45,24,50,135,46,,,,*4E
###2023-11-09 13:09:03.635861$GLGSV,2,1,05,70,50,017,36,71,48,290,49,80,18,090,43,85,57,203,49*62
###2023-11-09 13:09:03.637471$GLGSV,2,2,05,86,53,308,46,,,,,,,,,,,,*51
###2023-11-09 13:09:03.640031$GAGSV,1,1,04,07,73,259,45,08,48,043,45,13,64,160,45,26,57,310,44*60
###2023-11-09 13:09:03.642592$GBGSV,2,1,06,11,23,180,41,14,65,008,45,24,20,132,43,26,23,081,42*65
###2023-11-09 13:09:03.644519$GBGSV,2,2,06,28,43,287,47,33,59,304,47,,,,,,,,*66
###2023-11-09 13:09:03.645940$GNVTG,80.65,T,,M,4.98,N,9.22,K,A*14
###2023-11-09 13:09:03.728626$GNGGA,130903.90,3611.0229570,N,07544.9733090,W,1,24,0.6,0.636,M,-39.962,M,0.0,*6D
###2023-11-09 13:09:03.731223$GPGSV,2,1,07,05,20,090,42,10,19,293,45,13,24,045,41,15,61,037,45*73
###2023-11-09 13:09:03.733478$GPGSV,2,2,07,18,78,277,47,23,50,316,45,24,50,135,46,,,,*4E
###2023-11-09 13:09:03.736054$GLGSV,2,1,05,70,50,017,36,71,48,290,48,80,18,090,43,85,57,203,48*62
###2023-11-09 13:09:03.737677$GLGSV,2,2,05,86,53,308,47,,,,,,,,,,,,*50
###2023-11-09 13:09:03.740262$GAGSV,1,1,04,07,73,259,45,08,48,043,45,13,64,160,45,26,57,310,44*60
###2023-11-09 13:09:03.742854$GBGSV,2,1,06,11,23,180,41,14,65,008,45,24,20,132,43,26,23,081,41*66
###2023-11-09 13:09:03.745134$GBGSV,2,2,06,28,43,287,47,33,59,304,47,,,,,,,,*66
###2023-11-09 13:09:03.746577$GNVTG,79.92,T,,M,5.00,N,9.25,K,A*1D
###2023-11-09 13:09:03.832736$GNGGA,130904.00,3611.0229788,N,07544.9731384,W,1,24,0.6,0.678,M,-39.962,M,0.0,*68
###2023-11-09 13:09:03.835338$GPGSV,2,1,07,05,20,090,40,10,19,293,45,13,24,045,40,15,61,037,45*70
###2023-11-09 13:09:03.837622$GPGSV,2,2,07,18,78,277,47,23,50,316,45,24,50,135,46,,,,*4E
###2023-11-09 13:09:03.840201$GLGSV,2,1,05,70,50,017,35,71,48,290,48,80,18,090,43,85,57,203,48*61
###2023-11-09 13:09:03.841815$GLGSV,2,2,05,86,53,308,47,,,,,,,,,,,,*50
###2023-11-09 13:09:03.844387$GAGSV,1,1,04,07,73,259,45,08,48,043,45,13,64,160,45,26,57,310,44*60
###2023-11-09 13:09:03.846985$GBGSV,2,1,06,11,23,180,41,14,65,008,45,24,20,132,43,26,23,081,41*66
