###2023-11-09 13:08:34.942098$GAGSV,1,1,04,07,72,258,45,08,48,043,44,13,64,160,45,26,57,310,45*60
###2023-11-09 13:08:34.944683$GBGSV,2,1,06,11,23,180,41,14,65,008,46,24,20,132,42,26,23,081,41*64
###2023-11-09 13:08:34.946608$GBGSV,2,2,06,28,43,287,48,33,59,304,48,,,,,,,,*66
###2023-11-09 13:08:34.948094$GNVTG,127.17,T,,M,3.79,N,7.02,K,A*29
###2023-11-09 13:08:35.032125$GNGGA,130835.20,3611.0214977,N,07545.0194200,W,1,24,0.6,0.807,M,-39.962,M,0.0,*63
###2023-11-09 13:08:35.034726$GPGSV,2,1,07,05,20,090,39,10,19,293,43,13,24,045,42,15,61,037,46*79
###2023-11-09 13:08:35.037003$GPGSV,2,2,07,18,78,277,46,23,50,315,45,24,49,136,45,,,,*44
###2023-11-09 13:08:35.039599$GLGSV,2,1,05,70,50,017,36,71,48,290,49,80,18,090,41,85,57,203,48*61
###2023-11-09 13:08:35.041222$GLGSV,2,2,05,86,53,308,48,,,,,,,,,,,,*5F
###2023-11-09 13:08:35.043813$GAGSV,1,1,04,07,72,258,45,08,48,043,44,13,64,160,45,26,57,310,45*60
###2023-11-09 13:08:35.046403$GBGSV,2,1,06,11,23,180,41,14,65,008,46,24,20,132,42,26,23,081,42*67
###2023-11-09 13:08:35.048387$GBGSV,2,2,06,28,43,287,48,33,59,304,48,,,,,,,,*66
###2023-11-09 13:08:35.049871$GNVTG,127.88,T,,M,3.83,N,7.09,K,A*21
###2023-11-09 13:08:35.130100$GNGGA,130835.30,3611.0214307,N,07545.0193167,W,1,24,0.6,0.807,M,-39.962,M,0.0,*6A
###2023-11-09 13:08:35.132685$GPGSV,2,1,07,05,20,090,39,10,19,293,43,13,24,045,42,15,61,037,46*79
###2023-11-09 13:08:35.134932$GPGSV,2,2,07,18,78,277,46,23,50,315,45,24,49,136,45,,,,*44
###2023-11-09 13:08:35.137515$GLGSV,2,1,05,70,50,017,36,71,48,290,49,80,18,090,41,85,57,203,48*61
###2023-11-09 13:08:35.139113$GLGSV,2,2,05,86,53,308,48,,,,,,,,,,,,*5F
###2023-11-09 13:08:35.141664$GAGSV,1,1,04,07,72,258,45,08,48,043,44,13,64,160,45,26,57,310,45*60
###2023-11-09 13:08:35.144221$GBGSV,2,1,06,11,23,180,41,14,65,008,46,24,20,132,41,26,23,081,42*64
###2023-11-09 13:08:35.146138$GBGSV,2,2,06,28,43,287,48,33,59,304,48,,,,,,,,*66
###2023-11-09 13:08:35.147610$GNVTG,129.82,T,,M,3.91,N,7.24,K,A*29
###2023-11-09 13:08:35.230109$GNGGA,130835.40,3611.0213645,N,07545.0192136,W,1,24,0.6,0.791,M,-39.962,M,0.0,*6C
###2023-11-09 13:08:35.232710$GPGSV,2,1,07,05,20,090,40,10,19,293,43,13,24,045,42,15,61,037,46*77
###2023-11-09 13:08:35.234980$GPGSV,2,2,07,18,78,277,47,23,50,315,45,24,49,136,45,,,,*45
###2023-11-09 13:08:35.237583$GLGSV,2,1,05,70,50,017,36,71,48,290,49,80,18,090,42,85,57,203,48*62
###2023-11-09 13:08:35.239203$GLGSV,2,2,05,86,53,308,48,,,,,,,,,,,,*5F
###2023-11-09 13:08:35.241775$GAGSV,1,1,04,07,72,258,45,08,48,043,44,13,64,160,45,26,57,310,45*60
###2023-11-09 13:08:35.244351$GBGSV,2,1,06,11,23,180,41,14,65,008,46,24,20,132,42,26,23,081,42*67
###2023-11-09 13:08:35.246308$GBGSV,2,2,06,28,43,287,48,33,59,304,47,,,,,,,,*69
###2023-11-09 13:08:35.247789$GNVTG,127.45,T,,M,3.79,N,7.02,K,A*2E
###2023-11-09 13:08:35.330118$GNGGA,130835.50,3611.0213026,N,07545.0191109,W,1,24,0.6,0.780,M,-39.962,M,0.0,*61
###2023-11-09 13:08:35.332712$GPGSV,2,1,07,05,20,090,41,10,19,293,43,13,24,045,42,15,61,037,46*76
###2023-11-09 13:08:35.334965$GPGSV,2,2,07,18,78,277,47,23,50,315,45,24,49,136,45,,,,*45
###2023-11-09 13:08:35.337553$GLGSV,2,1,05,70,50,017,36,71,48,290,49,80,18,090,43,85,57,203,48*63
###2023-11-09 13:08:35.339161$GLGSV,2,2,05,86,53,308,48,,,,,,,,,,,,*5F
###2023-11-09 13:08:35.341732$GAGSV,1,1,04,07,72,258,45,08,48,043,44,13,64,160,45,26,57,310,45*60
###2023-11-09 13:08:35.344311$GBGSV,2,1,06,11,23,180,41,14,65,008,46,24,20,132,42,26,23,081,42*67
###2023-11-09 13:08:35.346244$GBGSV,2,2,06,28,43,287,48,33,59,304,47,,,,,,,,*69
###2023-11-09 13:08:35.347718$GNVTG,126.23,T,,M,3.67,N,6.80,K,A*2B
###2023-11-09 13:08:35.430099$GNGGA,130835.60,3611.0212441,N,07545.0190094,W,1,24,0.6,0.786,M,-39.962,M,0.0,*64
###2023-11-09 13:08:35.432685$GPGSV,2,1,07,05,20,090,41,10,19,293,44,13,24,045,42,15,61,037,45*72
###2023-11-09 13:08:35.434943$GPGSV,2,2,07,18,78,277,47,23,50,315,45,24,49,136,45,,,,*45
###2023-11-09 13:08:35.437563$GLGSV,2,1,05,70,50,017,36,71,48,290,49,80,18,090,43,85,57,203,48*63
###2023-11-09 13:08:35.439161$GLGSV,2,2,05,86,53,308,48,,,,,,,,,,,,*5F
###2023-11-09 13:08:35.441711$GAGSV,1,1,04,07,72,258,45,08,48,043,44,13,64,160,45,26,57,310,45*60
###2023-11-09 13:08:35.444264$GBGSV,2,1,06,11,23,180,41,14,65,008,46,24,20,132,43,26,23,081,42*66
###2023-11-09 13:08:35.446186$GBGSV,2,2,06,28,43,287,48,33,59,304,47,,,,,,,,*69
###2023-11-09 13:08:35.447655$GNVTG,125.26,T,,M,3.60,N,6.66,K,A*22
###2023-11-09 13:08:35.529123$GNGGA,130835.70,3611.0211862,N,07545.0189118,W,1,24,0.6,0.824,M,-39.962,M,0.0,*61
###2023-11-09 13:08:35.531707$GPGSV,2,1,07,05,20,090,41,10,19,293,44,13,24,045,42,15,61,037,45*72
###2023-11-09 13:08:35.533965$GPGSV,2,2,07,18,78,277,47,23,50,315,46,24,49,136,45,,,,*46
###2023-11-09 13:08:35.536535$GLGSV,2,1,05,70,50,017,36,71,48,290,49,80,18,090,43,85,57,203,48*63
###2023-11-09 13:08:35.538155$GLGSV,2,2,05,86,53,308,48,,,,,,,,,,,,*5F
###2023-11-09 13:08:35.540728$GAGSV,1,1,04,07,72,258,45,08,48,043,44,13,64,160,45,26,57,310,45*60
###2023-11-09 13:08:35.543309$GBGSV,2,1,06,11,23,180,42,14,65,008,46,24,20,132,43,26,23,081,42*65
###2023-11-09 13:08:35.545235$GBGSV,2,2,06,28,43,287,48,33,59,304,47,,,,,,,,*69
###2023-11-09 13:08:35.546703$GNVTG,127.69,T,,M,3.46,N,6.41,K,A*2A
###2023-11-09 13:08:35.630134$GNGGA,130835.80,3611.0211268,N,07545.0188233,W,1,24,0.6,0.876,M,-39.962,M,0.0,*62
###2023-11-09 13:08:35.632749$GPGSV,2,1,07,05,20,090,40,10,19,293,44,13,24,045,42,15,61,037,45*73
###2023-11-09 13:08:35.635015$GPGSV,2,2,07,18,78,277,47,23,50,315,45,24,49,136,45,,,,*45
###2023-11-09 13:08:35.637620$GLGSV,2,1,05,70,50,017,36,71,48,290,49,80,18,090,41,85,57,203,48*61
###2023-11-09 13:08:35.639243$GLGSV,2,2,05,86,53,308,48,,,,,,,,,,,,*5F
###2023-11-09 13:08:35.641826$GAGSV,1,1,04,07,72,258,45,08,48,043,44,13,64,160,45,26,57,310,45*60
###2023-11-09 13:08:35.644415$GBGSV,2,1,06,11,23,180,42,14,65,008,46,24,20,132,43,26,23,081,40*67
###2023-11-09 13:08:35.646355$GBGSV,2,2,06,28,43,287,48,33,59,304,47,,,,,,,,*69
###2023-11-09 13:08:35.647836$GNVTG,132.16,T,,M,3.27,N,6.05,K,A*21
###2023-11-09 13:08:35.729113$GNGGA,130835.90,3611.0210683,N,07545.0187424,W,1,24,0.6,0.946,M,-39.962,M,0.0,*6E
###2023-11-09 13:08:35.731684$GPGSV,2,1,07,05,20,090,39,10,19,293,42,13,24,045,42,15,61,037,45*7B
###2023-11-09 13:08:35.733926$GPGSV,2,2,07,18,78,277,47,23,50,315,45,24,49,136,45,,,,*45
###2023-11-09 13:08:35.736501$GLGSV,2,1,05,70,50,017,36,71,48,290,49,80,18,090,41,85,57,203,48*61
###2023-11-09 13:08:35.738115$GLGSV,2,2,05,86,53,308,48,,,,,,,,,,,,*5F
###2023-11-09 13:08:35.740669$GAGSV,1,1,04,07,72,258,46,08,48,043,44,13,64,160,45,26,57,310,45*63
###2023-11-09 13:08:35.743239$GBGSV,2,1,06,11,23,180,42,14,65,008,45,24,20,132,43,26,23,081,40*64
###2023-11-09 13:08:35.745168$GBGSV,2,2,06,28,43,287,48,33,59,304,47,,,,,,,,*69
###2023-11-09 13:08:35.746630$GNVTG,131.79,T,,M,3.07,N,5.69,K,A*20
###2023-11-09 13:08:35.831122$GNGGA,130836.00,3611.0210125,N,07545.0186663,W,1,24,0.6,1.026,M,-39.962,M,0.0,*61
###2023-11-09 13:08:35.833726$GPGSV,2,1,07,05,20,090,39,10,19,293,42,13,24,045,42,15,61,037,45*7B
###2023-11-09 13:08:35.835990$GPGSV,2,2,07,18,78,277,47,23,50,315,45,24,49,136,45,,,,*45
###2023-11-09 13:08:35.838596$GLGSV,2,1,05,70,50,017,36,71,48,290,49,80,18,090,40,85,57,203,48*60
###2023-11-09 13:08:35.840209$GLGSV,2,2,05,86,53,308,48,,,,,,,,,,,,*5F
###2023-11-09 13:08:35.842789$GAGSV,1,1,04,07,72,258,45,08,48,043,44,13,64,160,45,26,57,310,45*60
###2023-11-09 13:08:35.845384$GBGSV,2,1,06,11,23,180,42,14,65,008,45,24,20,132,41,26,23,081,40*66
###2023-11-09 13:08:35.847351$GBGSV,2,2,06,28,43,287,48,33,59,304,48,,,,,,,,*66
###2023-11-09 13:08:35.848822$GNVTG,133.08,T,,M,2.94,N,5.44,K,A*20
###2023-11-09 13:08:35.937864$GNGGA,130836.10,3611.0209583,N,07545.0185928,W,1,24,0.6,1.105,M,-39.962,M,0.0,*63
###2023-11-09 13:08:35.940465$GPGSV,2,1,07,05,20,090,39,10,19,293,42,13,24,045,42,15,61,037,45*7B
###2023-11-09 13:08:35.942723$GPGSV,2,2,07,18,78,277,47,23,50,316,46,24,49,136,45,,,,*45
###2023-11-09 13:08:35.945307$GLGSV,2,1,05,70,50,017,36,71,48,290,49,80,18,090,40,85,57,203,48*60
###2023-11-09 13:08:35.946936$GLGSV,2,2,05,86,53,308,47,,,,,,,,,,,,*50
###2023-11-09 13:08:35.949817$GAGSV,1,1,04,07,72,258,45,08,48,043,44,13,64,160,45,26,57,310,45*60
###2023-11-09 13:08:35.952410$GBGSV,2,1,06,11,23,180,42,14,65,008,45,24,20,132,41,26,23,081,39*68
###2023-11-09 13:08:35.954356$GBGSV,2,2,06,28,43,287,48,33,59,304,48,,,,,,,,*66
###2023-11-09 13:08:35.955831$GNVTG,132.14,T,,M,2.88,N,5.33,K,A*21
###2023-11-09 13:08:36.032218$GNGGA,130836.20,3611.0209043,N,07545.0185197,W,1,24,0.6,1.172,M,-39.962,M,0.0,*65
###2023-11-09 13:08:36.034798$GPGSV,2,1,07,05,20,090,39,10,19,293,42,13,24,045,42,15,61,037,45*7B
###2023-11-09 13:08:36.037059$GPGSV,2,2,07,18,78,277,47,23,50,316,46,24,49,136,45,,,,*45
###2023-11-09 13:08:36.039631$GLGSV,2,1,05,70,50,017,36,71,48,290,49,80,18,090,41,85,57,203,48*61
###2023-11-09 13:08:36.041230$GLGSV,2,2,05,86,53,308,48,,,,,,,,,,,,*5F
###2023-11-09 13:08:36.043791$GAGSV,1,1,04,07,72,258,45,08,48,043,44,13,64,160,45,26,57,310,45*60
