###2023-11-09 13:10:53.143830$GAGSV,1,1,04,07,73,261,44,08,47,043,45,13,62,161,45,26,57,310,45*63
###2023-11-09 13:10:53.146418$GBGSV,2,1,06,11,22,180,41,14,65,009,46,24,21,132,43,26,23,080,43*67
###2023-11-09 13:10:53.148390$GBGSV,2,2,06,28,43,286,46,33,59,305,47,,,,,,,,*67
###2023-11-09 13:10:53.149854$GNVTG,269.27,T,,M,5.03,N,9.32,K,A*25
###2023-11-09 13:10:53.231607$GNGGA,131053.40,3611.0763523,N,07544.8976131,W,1,24,0.6,0.603,M,-39.960,M,0.0,*60
###2023-11-09 13:10:53.234217$GPGSV,2,1,07,05,20,091,43,10,19,294,43,13,23,045,43,15,60,038,46*7A
###2023-11-09 13:10:53.236468$GPGSV,2,2,07,18,78,272,46,23,51,317,45,24,51,133,45,,,,*4E
###2023-11-09 13:10:53.239054$GLGSV,2,1,05,70,49,019,36,71,48,291,49,80,19,089,45,85,56,202,48*6B
###2023-11-09 13:10:53.240679$GLGSV,2,2,05,86,54,306,48,,,,,,,,,,,,*56
###2023-11-09 13:10:53.243271$GAGSV,1,1,04,07,73,261,44,08,47,043,45,13,62,161,45,26,57,310,45*63
###2023-11-09 13:10:53.245846$GBGSV,2,1,06,11,22,180,41,14,65,009,46,24,21,132,44,26,23,080,43*60
###2023-11-09 13:10:53.247796$GBGSV,2,2,06,28,43,286,46,33,59,305,47,,,,,,,,*67
###2023-11-09 13:10:53.249267$GNVTG,269.51,T,,M,5.11,N,9.47,K,A*25
###2023-11-09 13:10:53.332231$GNGGA,131053.50,3611.0763517,N,07544.8977880,W,1,24,0.6,0.616,M,-39.960,M,0.0,*60
###2023-11-09 13:10:53.334814$GPGSV,2,1,07,05,20,091,42,10,19,294,43,13,23,045,43,15,60,038,46*7B
###2023-11-09 13:10:53.337086$GPGSV,2,2,07,18,78,272,45,23,51,317,44,24,51,133,45,,,,*4C
###2023-11-09 13:10:53.339667$GLGSV,2,1,05,70,49,019,36,71,48,291,48,80,19,089,44,85,56,202,47*64
###2023-11-09 13:10:53.341278$GLGSV,2,2,05,86,54,306,48,,,,,,,,,,,,*56
###2023-11-09 13:10:53.343845$GAGSV,1,1,04,07,73,261,44,08,47,043,45,13,62,161,45,26,57,310,45*63
###2023-11-09 13:10:53.346416$GBGSV,2,1,06,11,22,180,41,14,65,009,46,24,21,132,44,26,23,080,43*60
###2023-11-09 13:10:53.348370$GBGSV,2,2,06,28,43,286,46,33,59,305,47,,,,,,,,*67
###2023-11-09 13:10:53.349838$GNVTG,270.44,T,,M,5.11,N,9.47,K,A*29
###2023-11-09 13:10:53.431619$GNGGA,131053.60,3611.0763489,N,07544.8979647,W,1,24,0.6,0.610,M,-39.960,M,0.0,*68
###2023-11-09 13:10:53.434209$GPGSV,2,1,07,05,20,091,42,10,19,294,43,13,23,045,43,15,60,038,46*7B
###2023-11-09 13:10:53.436450$GPGSV,2,2,07,18,78,272,45,23,51,317,45,24,51,133,45,,,,*4D
###2023-11-09 13:10:53.439036$GLGSV,2,1,05,70,49,019,36,71,48,291,48,80,19,089,44,85,56,202,47*64
###2023-11-09 13:10:53.440638$GLGSV,2,2,05,86,54,306,48,,,,,,,,,,,,*56
###2023-11-09 13:10:53.443190$GAGSV,1,1,04,07,73,261,44,08,47,043,45,13,62,161,45,26,57,310,45*63
###2023-11-09 13:10:53.445754$GBGSV,2,1,06,11,22,180,41,14,65,009,46,24,21,132,44,26,23,080,43*60
###2023-11-09 13:10:53.447706$GBGSV,2,2,06,28,43,286,46,33,59,305,47,,,,,,,,*67
###2023-11-09 13:10:53.449163$GNVTG,267.89,T,,M,5.21,N,9.65,K,A*2D
###2023-11-09 13:10:53.531626$GNGGA,131053.70,3611.0763411,N,07544.8981411,W,1,24,0.6,0.596,M,-39.960,M,0.0,*63
###2023-11-09 13:10:53.534236$GPGSV,2,1,07,05,20,091,42,10,19,294,43,13,23,045,43,15,60,038,46*7B
###2023-11-09 13:10:53.536499$GPGSV,2,2,07,18,78,272,45,23,51,317,45,24,51,133,45,,,,*4D
###2023-11-09 13:10:53.539093$GLGSV,2,1,05,70,49,019,36,71,48,291,48,80,19,089,44,85,56,202,47*64
###2023-11-09 13:10:53.540695$GLGSV,2,2,05,86,54,306,48,,,,,,,,,,,,*56
###2023-11-09 13:10:53.543273$GAGSV,1,1,04,07,73,261,44,08,47,043,45,13,62,161,45,26,57,310,45*63
###2023-11-09 13:10:53.545869$GBGSV,2,1,06,11,22,180,41,14,65,009,46,24,21,132,44,26,23,080,44*67
###2023-11-09 13:10:53.547849$GBGSV,2,2,06,28,43,286,46,33,59,305,47,,,,,,,,*67
###2023-11-09 13:10:53.549325$GNVTG,266.44,T,,M,5.13,N,9.50,K,A*2A
###2023-11-09 13:10:53.631617$GNGGA,131053.80,3611.0763287,N,07544.8983164,W,1,24,0.6,0.588,M,-39.960,M,0.0,*6F
###2023-11-09 13:10:53.634204$GPGSV,2,1,07,05,20,091,42,10,19,294,43,13,23,045,43,15,60,038,46*7B
###2023-11-09 13:10:53.636454$GPGSV,2,2,07,18,78,272,45,23,51,317,45,24,51,133,45,,,,*4D
###2023-11-09 13:10:53.639044$GLGSV,2,1,05,70,49,019,36,71,48,291,49,80,19,089,44,85,56,202,47*65
###2023-11-09 13:10:53.640656$GLGSV,2,2,05,86,54,306,48,,,,,,,,,,,,*56
###2023-11-09 13:10:53.643220$GAGSV,1,1,04,07,73,261,44,08,47,043,45,13,62,161,45,26,57,310,45*63
###2023-11-09 13:10:53.645793$GBGSV,2,1,06,11,22,180,41,14,65,009,46,24,21,132,44,26,23,080,44*67
###2023-11-09 13:10:53.647736$GBGSV,2,2,06,28,43,286,46,33,59,305,47,,,,,,,,*67
###2023-11-09 13:10:53.649199$GNVTG,264.19,T,,M,5.17,N,9.58,K,A*2C
###2023-11-09 13:10:53.731609$GNGGA,131053.90,3611.0763113,N,07544.8984879,W,1,24,0.6,0.594,M,-39.960,M,0.0,*6F
###2023-11-09 13:10:53.734188$GPGSV,2,1,07,05,20,091,43,10,19,294,43,13,23,045,43,15,60,038,46*7A
###2023-11-09 13:10:53.736438$GPGSV,2,2,07,18,78,272,46,23,51,317,45,24,51,133,45,,,,*4E
###2023-11-09 13:10:53.739024$GLGSV,2,1,05,70,49,019,36,71,48,291,48,80,19,089,45,85,56,202,47*65
###2023-11-09 13:10:53.740624$GLGSV,2,2,05,86,54,306,48,,,,,,,,,,,,*56
###2023-11-09 13:10:53.743180$GAGSV,1,1,04,07,73,261,44,08,47,043,45,13,62,161,45,26,57,310,45*63
###2023-11-09 13:10:53.745749$GBGSV,2,1,06,11,22,180,41,14,65,009,46,24,21,132,44,26,23,080,44*67
###2023-11-09 13:10:53.747682$GBGSV,2,2,06,28,43,286,46,33,59,305,47,,,,,,,,*67
###2023-11-09 13:10:53.749144$GNVTG,262.13,T,,M,4.94,N,9.14,K,A*22
###2023-11-09 13:10:53.840875$GPGSV,2,1,07,05,20,091,43,10,19,294,43,13,23,045,43,15,60,038,46*7A
###2023-11-09 13:10:53.843139$GPGSV,2,2,07,18,78,272,46,23,51,317,45,24,51,133,45,,,,*4E
###2023-11-09 13:10:53.845710$GLGSV,2,1,05,70,49,019,36,71,48,291,48,80,19,089,45,85,56,202,47*65
###2023-11-09 13:10:53.847337$GLGSV,2,2,05,86,54,306,48,,,,,,,,,,,,*56
###2023-11-09 13:10:53.849927$GAGSV,1,1,04,07,73,261,44,08,47,043,45,13,62,161,45,26,57,310,45*63
###2023-11-09 13:10:53.852504$GBGSV,2,1,06,11,22,180,41,14,65,009,46,24,21,132,44,26,23,080,44*67
###2023-11-09 13:10:53.854448$GBGSV,2,2,06,28,43,286,46,33,59,305,47,,,,,,,,*67
###2023-11-09 13:10:53.855917$GNVTG,263.92,T,,M,4.96,N,9.18,K,A*24
###2023-11-09 13:10:53.942848$GPGSV,2,1,07,05,20,091,43,10,19,294,43,13,23,045,43,15,60,038,46*7A
###2023-11-09 13:10:53.945101$GPGSV,2,2,07,18,78,272,46,23,51,317,45,24,51,133,45,,,,*4E
###2023-11-09 13:10:53.947686$GLGSV,2,1,05,70,49,019,36,71,48,291,48,80,19,089,45,85,56,202,47*65
###2023-11-09 13:10:53.949300$GLGSV,2,2,05,86,54,306,48,,,,,,,,,,,,*56
###2023-11-09 13:10:53.951876$GAGSV,1,1,04,07,73,261,44,08,47,043,45,13,62,161,45,26,57,310,45*63
###2023-11-09 13:10:53.954446$GBGSV,2,1,06,11,22,180,41,14,65,009,46,24,21,132,44,26,23,080,44*67
###2023-11-09 13:10:53.956383$GBGSV,2,2,06,28,43,286,46,33,59,305,47,,,,,,,,*67
###2023-11-09 13:10:53.957867$GNVTG,265.62,T,,M,5.00,N,9.25,K,A*2D
###2023-11-09 13:10:54.037090$GPGSV,2,1,07,05,20,091,43,10,19,294,43,13,23,045,42,15,60,038,46*7B
###2023-11-09 13:10:54.039326$GPGSV,2,2,07,18,78,272,46,23,51,317,46,24,51,133,45,,,,*4D
###2023-11-09 13:10:54.041872$GLGSV,2,1,05,70,49,019,36,71,48,291,49,80,19,089,44,85,56,202,47*65
###2023-11-09 13:10:54.043459$GLGSV,2,2,05,86,54,306,48,,,,,,,,,,,,*56
###2023-11-09 13:10:54.046007$GAGSV,1,1,04,07,73,261,44,08,47,043,45,13,62,161,45,26,57,310,45*63
###2023-11-09 13:10:54.048581$GBGSV,2,1,06,11,22,180,41,14,65,009,46,24,21,132,43,26,23,080,43*67
###2023-11-09 13:10:54.050505$GBGSV,2,2,06,28,43,286,46,33,59,305,47,,,,,,,,*67
###2023-11-09 13:10:54.051957$GNVTG,263.65,T,,M,4.94,N,9.14,K,A*22
###2023-11-09 13:10:54.134229$GPGSV,2,1,07,05,20,091,43,10,19,294,43,13,23,045,42,15,60,038,46*7B
###2023-11-09 13:10:54.136477$GPGSV,2,2,07,18,78,272,46,23,51,317,45,24,51,133,45,,,,*4E
###2023-11-09 13:10:54.139074$GLGSV,2,1,05,70,49,019,36,71,48,291,49,80,19,089,44,85,56,202,47*65
###2023-11-09 13:10:54.140690$GLGSV,2,2,05,86,54,306,48,,,,,,,,,,,,*56
###2023-11-09 13:10:54.143579$GAGSV,1,1,04,07,73,261,44,08,47,043,45,13,62,161,45,26,57,310,45*63
###2023-11-09 13:10:54.146178$GBGSV,2,1,06,11,22,180,39,14,65,009,46,24,21,132,43,26,23,080,43*68
###2023-11-09 13:10:54.148136$GBGSV,2,2,06,28,43,286,46,33,59,305,47,,,,,,,,*67
###2023-11-09 13:10:54.149608$GNVTG,261.83,T,,M,4.96,N,9.18,K,A*26
###2023-11-09 13:10:54.235200$GPGSV,2,1,07,05,20,091,42,10,19,294,43,13,23,045,42,15,60,038,46*7A
###2023-11-09 13:10:54.237474$GPGSV,2,2,07,18,78,272,46,23,51,317,45,24,51,133,45,,,,*4E
###2023-11-09 13:10:54.240040$GLGSV,2,1,05,70,49,019,36,71,48,291,49,80,19,089,44,85,56,202,47*65
###2023-11-09 13:10:54.241642$GLGSV,2,2,05,86,54,306,48,,,,,,,,,,,,*56
###2023-11-09 13:10:54.244210$GAGSV,1,1,04,07,73,261,44,08,47,043,45,13,62,161,45,26,57,310,45*63
