###2023-11-09 13:08:57.146155$GBGSV,2,2,06,28,43,287,45,33,59,304,46,,,,,,,,*65
###2023-11-09 13:08:57.147643$GNVTG,59.42,T,,M,4.96,N,9.18,K,A*12
###2023-11-09 13:08:57.230640$GNGGA,130857.40,3611.0222420,N,07544.9840757,W,1,24,0.6,1.089,M,-39.962,M,0.0,*6B
###2023-11-09 13:08:57.233247$GPGSV,2,1,07,05,20,090,43,10,19,293,43,13,24,045,40,15,61,037,45*75
###2023-11-09 13:08:57.235515$GPGSV,2,2,07,18,78,277,46,23,50,316,44,24,50,135,45,,,,*4D
###2023-11-09 13:08:57.238118$GLGSV,2,1,05,70,50,017,35,71,48,290,48,80,18,090,44,85,57,203,48*66
###2023-11-09 13:08:57.239736$GLGSV,2,2,05,86,53,308,47,,,,,,,,,,,,*50
###2023-11-09 13:08:57.242307$GAGSV,1,1,04,07,72,258,45,08,48,043,44,13,64,160,45,26,57,310,44*61
###2023-11-09 13:08:57.244891$GBGSV,2,1,06,11,23,180,42,14,65,008,44,24,20,132,42,26,23,081,42*66
###2023-11-09 13:08:57.246842$GBGSV,2,2,06,28,43,287,45,33,59,304,46,,,,,,,,*65
###2023-11-09 13:08:57.248298$GNVTG,63.08,T,,M,5.02,N,9.29,K,A*1B
###2023-11-09 13:08:57.330474$GNGGA,130857.50,3611.0222966,N,07544.9839203,W,1,24,0.6,1.043,M,-39.962,M,0.0,*69
###2023-11-09 13:08:57.333053$GPGSV,2,1,07,05,20,090,42,10,19,293,44,13,24,045,40,15,61,037,45*73
###2023-11-09 13:08:57.335289$GPGSV,2,2,07,18,78,277,47,23,50,316,45,24,50,135,45,,,,*4D
###2023-11-09 13:08:57.337868$GLGSV,2,1,05,70,50,017,35,71,48,290,48,80,18,090,44,85,57,203,48*66
###2023-11-09 13:08:57.339467$GLGSV,2,2,05,86,53,308,47,,,,,,,,,,,,*50
###2023-11-09 13:08:57.342017$GAGSV,1,1,04,07,72,258,45,08,48,043,44,13,64,160,45,26,57,310,44*61
###2023-11-09 13:08:57.344577$GBGSV,2,1,06,11,23,180,41,14,65,008,44,24,20,132,42,26,23,081,42*65
###2023-11-09 13:08:57.346507$GBGSV,2,2,06,28,43,287,46,33,59,304,46,,,,,,,,*66
###2023-11-09 13:08:57.347941$GNVTG,70.63,T,,M,4.90,N,9.07,K,A*12
###2023-11-09 13:08:57.429153$GNGGA,130857.60,3611.0223331,N,07544.9837590,W,1,24,0.6,0.997,M,-39.962,M,0.0,*61
###2023-11-09 13:08:57.431764$GPGSV,2,1,07,05,20,090,42,10,19,293,44,13,24,045,40,15,61,037,45*73
###2023-11-09 13:08:57.434027$GPGSV,2,2,07,18,78,277,47,23,50,316,45,24,50,135,45,,,,*4D
###2023-11-09 13:08:57.436603$GLGSV,2,1,05,70,50,017,35,71,48,290,48,80,18,090,44,85,57,203,48*66
###2023-11-09 13:08:57.438254$GLGSV,2,2,05,86,53,308,47,,,,,,,,,,,,*50
###2023-11-09 13:08:57.440833$GAGSV,1,1,04,07,72,258,45,08,48,043,44,13,64,160,45,26,57,310,44*61
###2023-11-09 13:08:57.443420$GBGSV,2,1,06,11,23,180,42,14,65,008,44,24,20,132,44,26,23,081,42*60
###2023-11-09 13:08:57.445358$GBGSV,2,2,06,28,43,287,46,33,59,304,46,,,,,,,,*66
###2023-11-09 13:08:57.446785$GNVTG,78.71,T,,M,4.94,N,9.14,K,A*1F
###2023-11-09 13:08:57.530747$GNGGA,130857.70,3611.0223576,N,07544.9835924,W,1,24,0.6,0.964,M,-39.962,M,0.0,*68
###2023-11-09 13:08:57.533339$GPGSV,2,1,07,05,20,090,42,10,19,293,44,13,24,045,40,15,61,037,45*73
###2023-11-09 13:08:57.535589$GPGSV,2,2,07,18,78,277,47,23,50,316,45,24,50,135,45,,,,*4D
###2023-11-09 13:08:57.538180$GLGSV,2,1,05,70,50,017,35,71,48,290,48,80,18,090,45,85,57,203,49*66
###2023-11-09 13:08:57.539788$GLGSV,2,2,05,86,53,308,47,,,,,,,,,,,,*50
###2023-11-09 13:08:57.542359$GAGSV,1,1,04,07,72,258,45,08,48,043,44,13,64,160,45,26,57,310,44*61
###2023-11-09 13:08:57.544936$GBGSV,2,1,06,11,23,180,44,14,65,008,44,24,20,132,45,26,23,081,42*67
###2023-11-09 13:08:57.546871$GBGSV,2,2,06,28,43,287,46,33,59,304,46,,,,,,,,*66
###2023-11-09 13:08:57.548318$GNVTG,81.33,T,,M,5.00,N,9.25,K,A*11
###2023-11-09 13:08:57.629497$GNGGA,130857.80,3611.0223828,N,07544.9834271,W,1,24,0.6,0.961,M,-39.962,M,0.0,*6E
###2023-11-09 13:08:57.632067$GPGSV,2,1,07,05,20,090,43,10,19,293,44,13,24,045,40,15,61,037,45*72
###2023-11-09 13:08:57.634307$GPGSV,2,2,07,18,78,277,47,23,50,316,44,24,50,135,45,,,,*4C
###2023-11-09 13:08:57.636868$GLGSV,2,1,05,70,50,017,35,71,48,290,48,80,18,090,45,85,57,203,50*6E
###2023-11-09 13:08:57.638477$GLGSV,2,2,05,86,53,308,47,,,,,,,,,,,,*50
###2023-11-09 13:08:57.641036$GAGSV,1,1,04,07,72,258,45,08,48,043,44,13,64,160,45,26,57,310,44*61
###2023-11-09 13:08:57.643597$GBGSV,2,1,06,11,23,180,44,14,65,008,44,24,20,132,45,26,23,081,42*67
###2023-11-09 13:08:57.645520$GBGSV,2,2,06,28,43,287,46,33,59,304,46,,,,,,,,*66
###2023-11-09 13:08:57.646955$GNVTG,77.82,T,,M,4.86,N,9.00,K,A*1A
###2023-11-09 13:08:57.729514$GNGGA,130857.90,3611.0224223,N,07544.9832710,W,1,24,0.6,0.988,M,-39.962,M,0.0,*6A
###2023-11-09 13:08:57.732122$GPGSV,2,1,07,05,20,090,43,10,19,293,44,13,24,045,40,15,61,037,44*73
###2023-11-09 13:08:57.734377$GPGSV,2,2,07,18,78,277,47,23,50,316,44,24,50,135,45,,,,*4C
###2023-11-09 13:08:57.736974$GLGSV,2,1,05,70,50,017,35,71,48,290,48,80,18,090,45,85,57,203,50*6E
###2023-11-09 13:08:57.738584$GLGSV,2,2,05,86,53,308,46,,,,,,,,,,,,*51
###2023-11-09 13:08:57.741161$GAGSV,1,1,04,07,72,258,45,08,48,043,44,13,64,160,45,26,57,310,44*61
###2023-11-09 13:08:57.743743$GBGSV,2,1,06,11,23,180,44,14,65,008,44,24,20,132,45,26,23,081,43*66
###2023-11-09 13:08:57.745693$GBGSV,2,2,06,28,43,287,47,33,59,304,46,,,,,,,,*67
###2023-11-09 13:08:57.747152$GNVTG,68.04,T,,M,4.74,N,8.78,K,A*19
###2023-11-09 13:08:57.832489$GNGGA,130858.00,3611.0224789,N,07544.9831251,W,1,24,0.6,1.023,M,-39.962,M,0.0,*63
###2023-11-09 13:08:57.835094$GPGSV,2,1,07,05,20,090,43,10,19,293,44,13,24,045,40,15,61,037,45*72
###2023-11-09 13:08:57.837376$GPGSV,2,2,07,18,78,277,47,23,50,316,44,24,50,135,45,,,,*4C
###2023-11-09 13:08:57.839961$GLGSV,2,1,05,70,50,017,35,71,48,290,48,80,18,090,44,85,57,203,49*67
###2023-11-09 13:08:57.841576$GLGSV,2,2,05,86,53,308,47,,,,,,,,,,,,*50
###2023-11-09 13:08:57.844148$GAGSV,1,1,04,07,72,258,45,08,48,043,44,13,64,160,46,26,57,310,44*62
###2023-11-09 13:08:57.846719$GBGSV,2,1,06,11,23,180,44,14,65,008,44,24,20,132,44,26,23,081,43*67
###2023-11-09 13:08:57.848679$GBGSV,2,2,06,28,43,287,47,33,59,304,46,,,,,,,,*67
###2023-11-09 13:08:57.850112$GNVTG,61.68,T,,M,4.72,N,8.75,K,A*11
###2023-11-09 13:08:57.933217$GNGGA,130858.10,3611.0225409,N,07544.9829818,W,1,24,0.6,1.054,M,-39.962,M,0.0,*66
###2023-11-09 13:08:57.935798$GPGSV,2,1,07,05,20,090,41,10,19,293,44,13,24,045,40,15,61,037,45*70
###2023-11-09 13:08:57.938063$GPGSV,2,2,07,18,78,277,47,23,50,316,45,24,50,135,45,,,,*4D
###2023-11-09 13:08:57.940621$GLGSV,2,1,05,70,50,017,35,71,48,290,48,80,18,090,44,85,57,203,48*66
###2023-11-09 13:08:57.942217$GLGSV,2,2,05,86,53,308,48,,,,,,,,,,,,*5F
###2023-11-09 13:08:57.944777$GAGSV,1,1,04,07,72,258,45,08,48,043,44,13,64,160,45,26,57,310,45*60
###2023-11-09 13:08:57.947346$GBGSV,2,1,06,11,23,180,41,14,65,008,45,24,20,132,43,26,23,081,42*65
###2023-11-09 13:08:57.949278$GBGSV,2,2,06,28,43,287,47,33,59,304,48,,,,,,,,*69
###2023-11-09 13:08:57.950699$GNVTG,63.04,T,,M,4.76,N,8.82,K,A*15
###2023-11-09 13:08:58.032610$GNGGA,130858.20,3611.0225975,N,07544.9828339,W,1,24,0.6,1.069,M,-39.962,M,0.0,*64
###2023-11-09 13:08:58.035215$GPGSV,2,1,07,05,20,090,41,10,19,293,44,13,24,045,40,15,61,037,45*70
###2023-11-09 13:08:58.037498$GPGSV,2,2,07,18,78,277,47,23,50,316,46,24,50,135,45,,,,*4E
###2023-11-09 13:08:58.040081$GLGSV,2,1,05,70,50,017,35,71,48,290,48,80,18,090,43,85,57,203,47*6E
###2023-11-09 13:08:58.041694$GLGSV,2,2,05,86,53,308,48,,,,,,,,,,,,*5F
###2023-11-09 13:08:58.044274$GAGSV,1,1,04,07,72,258,45,08,48,043,45,13,64,160,45,26,57,310,45*61
###2023-11-09 13:08:58.046866$GBGSV,2,1,06,11,23,180,41,14,65,008,45,24,20,132,42,26,23,081,42*64
###2023-11-09 13:08:58.048814$GBGSV,2,2,06,28,43,287,47,33,59,304,48,,,,,,,,*69
###2023-11-09 13:08:58.050251$GNVTG,67.22,T,,M,4.80,N,8.89,K,A*17
###2023-11-09 13:08:58.130221$GNGGA,130858.30,3611.0226451,N,07544.9826783,W,1,24,0.6,1.068,M,-39.962,M,0.0,*67
###2023-11-09 13:08:58.132806$GPGSV,2,1,07,05,20,090,41,10,19,293,45,13,24,045,40,15,61,037,45*71
###2023-11-09 13:08:58.135054$GPGSV,2,2,07,18,78,277,47,23,50,316,46,24,50,135,45,,,,*4E
###2023-11-09 13:08:58.137646$GLGSV,2,1,05,70,50,017,35,71,48,290,49,80,18,090,43,85,57,203,47*6F
###2023-11-09 13:08:58.139257$GLGSV,2,2,05,86,53,308,48,,,,,,,,,,,,*5F
###2023-11-09 13:08:58.141821$GAGSV,1,1,04,07,72,258,45,08,48,043,45,13,64,160,44,26,57,310,45*60
###2023-11-09 13:08:58.144400$GBGSV,2,1,06,11,23,180,40,14,65,008,45,24,20,132,42,26,23,081,42*65
###2023-11-09 13:08:58.146332$GBGSV,2,2,06,28,43,287,47,33,59,304,48,,,,,,,,*69
###2023-11-09 13:08:58.148082$GNVTG,71.78,T,,M,4.88,N,9.04,K,A*13
###2023-11-09 13:08:58.229501$GNGGA,130858.40,3611.0226823,N,07544.9825174,W,1,24,0.6,1.037,M,-39.962,M,0.0,*6E
###2023-11-09 13:08:58.232106$GPGSV,2,1,07,05,20,090,41,10,19,293,45,13,24,045,40,15,61,037,45*71
###2023-11-09 13:08:58.234353$GPGSV,2,2,07,18,78,277,47,23,50,316,45,24,50,135,45,,,,*4D
###2023-11-09 13:08:58.236925$GLGSV,2,1,05,70,50,017,35,71,48,290,49,80,18,090,44,85,57,203,47*68
###2023-11-09 13:08:58.238535$GLGSV,2,2,05,86,53,308,47,,,,,,,,,,,,*50
###2023-11-09 13:08:58.241107$GAGSV,1,1,04,07,72,258,45,08,48,043,45,13,64,160,44,26,57,310,45*60
###2023-11-09 13:08:58.243669$GBGSV,2,1,06,11,23,180,40,14,65,008,45,24,20,132,42,26,23,081,42*65
###2023-11-09 13:08:58.245591$GBGSV,2,2,06,28,43,287,47,33,59,304,47,,,,,,,,*66
