###2023-11-09 13:07:03.629397$GNGGA,130703.80,3611.0494072,N,07544.9771943,W,1,24,0.6,1.063,M,-39.961,M,0.0,*60
###2023-11-09 13:07:03.632003$GPGSV,2,1,07,05,21,090,42,10,18,292,43,13,24,045,40,15,62,037,45*76
###2023-11-09 13:07:03.634256$GPGSV,2,2,07,18,77,281,47,23,50,315,45,24,49,136,46,,,,*40
###2023-11-09 13:07:03.636824$GLGSV,2,1,05,70,50,016,35,71,48,288,48,80,17,091,44,85,58,203,48*6F
###2023-11-09 13:07:03.638441$GLGSV,2,2,05,86,52,309,47,,,,,,,,,,,,*50
###2023-11-09 13:07:03.641002$GAGSV,1,1,04,07,72,257,45,08,49,042,44,13,64,160,44,26,56,311,44*6F
###2023-11-09 13:07:03.643557$GBGSV,2,1,06,11,24,180,43,14,65,006,45,24,19,133,44,26,23,082,42*61
###2023-11-09 13:07:03.645474$GBGSV,2,2,06,28,43,289,47,33,58,302,47,,,,,,,,*6F
###2023-11-09 13:07:03.646917$GNVTG,39.08,T,,M,0.86,N,1.58,K,A*13
###2023-11-09 13:07:03.729502$GNGGA,130703.90,3611.0494271,N,07544.9771734,W,1,24,0.6,1.073,M,-39.961,M,0.0,*6F
###2023-11-09 13:07:03.732105$GPGSV,2,1,07,05,21,090,42,10,18,292,43,13,24,045,40,15,62,037,45*76
###2023-11-09 13:07:03.734361$GPGSV,2,2,07,18,77,281,47,23,50,315,45,24,49,136,46,,,,*40
###2023-11-09 13:07:03.736948$GLGSV,2,1,05,70,50,016,35,71,48,288,48,80,17,091,44,85,58,203,48*6F
###2023-11-09 13:07:03.738563$GLGSV,2,2,05,86,52,309,47,,,,,,,,,,,,*50
###2023-11-09 13:07:03.741130$GAGSV,1,1,04,07,72,257,45,08,49,042,44,13,64,160,44,26,56,311,44*6F
###2023-11-09 13:07:03.743704$GBGSV,2,1,06,11,24,180,42,14,65,006,45,24,19,133,44,26,23,082,42*60
###2023-11-09 13:07:03.745638$GBGSV,2,2,06,28,43,289,47,33,58,302,47,,,,,,,,*6F
###2023-11-09 13:07:03.747082$GNVTG,37.63,T,,M,1.07,N,1.98,K,A*14
###2023-11-09 13:07:03.832484$GNGGA,130704.00,3611.0494516,N,07544.9771515,W,1,24,0.6,1.083,M,-39.961,M,0.0,*69
###2023-11-09 13:07:03.835065$GPGSV,2,1,07,05,21,090,42,10,18,292,43,13,24,045,40,15,62,037,45*76
###2023-11-09 13:07:03.837340$GPGSV,2,2,07,18,77,281,47,23,50,315,45,24,49,136,46,,,,*40
###2023-11-09 13:07:03.839919$GLGSV,2,1,05,70,50,016,35,71,48,288,48,80,17,091,44,85,58,203,48*6F
###2023-11-09 13:07:03.841524$GLGSV,2,2,05,86,52,309,47,,,,,,,,,,,,*50
###2023-11-09 13:07:03.844094$GAGSV,1,1,04,07,72,257,45,08,49,042,44,13,64,160,44,26,56,311,45*6E
###2023-11-09 13:07:03.846683$GBGSV,2,1,06,11,24,180,42,14,65,006,45,24,19,133,44,26,23,082,42*60
###2023-11-09 13:07:03.848635$GBGSV,2,2,06,28,43,289,47,33,58,302,47,,,,,,,,*6F
###2023-11-09 13:07:03.850061$GNVTG,35.01,T,,M,1.15,N,2.12,K,A*10
###2023-11-09 13:07:03.934102$GNGGA,130704.10,3611.0494754,N,07544.9771315,W,1,24,0.6,1.089,M,-39.961,M,0.0,*60
###2023-11-09 13:07:03.936691$GPGSV,2,1,07,05,21,090,42,10,18,292,43,13,24,045,42,15,62,037,45*74
###2023-11-09 13:07:03.938970$GPGSV,2,2,07,18,77,281,47,23,50,315,45,24,49,136,46,,,,*40
###2023-11-09 13:07:03.941538$GLGSV,2,1,05,70,50,016,35,71,48,288,48,80,17,091,44,85,58,203,48*6F
###2023-11-09 13:07:03.943144$GLGSV,2,2,05,86,52,309,48,,,,,,,,,,,,*5F
###2023-11-09 13:07:03.945704$GAGSV,1,1,04,07,72,257,45,08,49,042,44,13,64,160,44,26,56,311,45*6E
###2023-11-09 13:07:03.948271$GBGSV,2,1,06,11,24,180,41,14,65,006,45,24,19,133,43,26,23,082,43*65
###2023-11-09 13:07:03.950198$GBGSV,2,2,06,28,43,289,47,33,58,302,47,,,,,,,,*6F
###2023-11-09 13:07:03.951622$GNVTG,35.01,T,,M,0.97,N,1.80,K,A*13
###2023-11-09 13:07:04.031388$GNGGA,130704.20,3611.0494942,N,07544.9771156,W,1,24,0.6,1.101,M,-39.961,M,0.0,*6E
###2023-11-09 13:07:04.033991$GPGSV,2,1,07,05,21,090,42,10,18,292,43,13,24,045,42,15,62,037,45*74
###2023-11-09 13:07:04.036258$GPGSV,2,2,07,18,77,281,47,23,50,315,45,24,49,136,45,,,,*43
###2023-11-09 13:07:04.038855$GLGSV,2,1,05,70,50,016,35,71,48,288,48,80,17,091,44,85,58,203,48*6F
###2023-11-09 13:07:04.040467$GLGSV,2,2,05,86,52,309,48,,,,,,,,,,,,*5F
###2023-11-09 13:07:04.043036$GAGSV,1,1,04,07,72,257,45,08,49,042,45,13,64,160,44,26,56,311,45*6F
###2023-11-09 13:07:04.045608$GBGSV,2,1,06,11,24,180,41,14,65,006,45,24,19,133,43,26,23,082,43*65
###2023-11-09 13:07:04.047546$GBGSV,2,2,06,28,43,289,47,33,58,302,47,,,,,,,,*6F
###2023-11-09 13:07:04.048977$GNVTG,35.01,T,,M,0.70,N,1.30,K,A*11
###2023-11-09 13:07:04.131607$GNGGA,130704.30,3611.0495087,N,07544.9771051,W,1,24,0.6,1.108,M,-39.961,M,0.0,*61
###2023-11-09 13:07:04.134185$GPGSV,2,1,07,05,21,090,42,10,18,292,43,13,24,045,42,15,62,037,45*74
###2023-11-09 13:07:04.136430$GPGSV,2,2,07,18,77,281,47,23,50,315,45,24,49,136,45,,,,*43
###2023-11-09 13:07:04.139018$GLGSV,2,1,05,70,50,016,35,71,48,288,48,80,17,091,44,85,58,203,48*6F
###2023-11-09 13:07:04.140626$GLGSV,2,2,05,86,52,309,48,,,,,,,,,,,,*5F
###2023-11-09 13:07:04.143191$GAGSV,1,1,04,07,72,257,45,08,49,042,45,13,64,160,44,26,56,311,45*6F
###2023-11-09 13:07:04.145773$GBGSV,2,1,06,11,24,180,41,14,65,006,45,24,19,133,43,26,23,082,43*65
###2023-11-09 13:07:04.147719$GBGSV,2,2,06,28,43,289,47,33,58,302,48,,,,,,,,*60
###2023-11-09 13:07:04.149153$GNVTG,35.01,T,,M,0.51,N,0.94,K,A*1D
###2023-11-09 13:07:04.229637$GNGGA,130704.40,3611.0495217,N,07544.9771002,W,1,24,0.6,1.114,M,-39.961,M,0.0,*66
###2023-11-09 13:07:04.232210$GPGSV,2,1,07,05,21,090,42,10,18,292,43,13,24,045,42,15,62,037,45*74
###2023-11-09 13:07:04.234456$GPGSV,2,2,07,18,77,281,47,23,50,315,45,24,49,136,45,,,,*43
###2023-11-09 13:07:04.237032$GLGSV,2,1,05,70,50,016,35,71,48,288,48,80,17,091,44,85,58,203,48*6F
###2023-11-09 13:07:04.238628$GLGSV,2,2,05,86,52,309,48,,,,,,,,,,,,*5F
###2023-11-09 13:07:04.241178$GAGSV,1,1,04,07,72,257,45,08,49,042,44,13,64,160,44,26,56,311,45*6E
###2023-11-09 13:07:04.243746$GBGSV,2,1,06,11,24,180,41,14,65,006,45,24,19,133,43,26,23,082,43*65
###2023-11-09 13:07:04.245662$GBGSV,2,2,06,28,43,289,47,33,58,302,48,,,,,,,,*60
###2023-11-09 13:07:04.247101$GNVTG,35.01,T,,M,0.47,N,0.86,K,A*19
###2023-11-09 13:07:04.329390$GNGGA,130704.50,3611.0495376,N,07544.9770982,W,1,24,0.6,1.123,M,-39.961,M,0.0,*65
###2023-11-09 13:07:04.331999$GPGSV,2,1,07,05,21,090,42,10,18,292,43,13,24,045,42,15,62,037,45*74
###2023-11-09 13:07:04.334264$GPGSV,2,2,07,18,77,281,47,23,50,315,45,24,49,136,45,,,,*43
###2023-11-09 13:07:04.336836$GLGSV,2,1,05,70,50,016,35,71,48,288,48,80,17,091,44,85,58,203,48*6F
###2023-11-09 13:07:04.338451$GLGSV,2,2,05,86,52,309,47,,,,,,,,,,,,*50
###2023-11-09 13:07:04.341033$GAGSV,1,1,04,07,72,257,45,08,49,042,44,13,64,160,44,26,56,311,45*6E
###2023-11-09 13:07:04.343617$GBGSV,2,1,06,11,24,180,43,14,65,006,45,24,19,133,43,26,23,082,43*67
###2023-11-09 13:07:04.345547$GBGSV,2,2,06,28,43,289,47,33,58,302,47,,,,,,,,*6F
###2023-11-09 13:07:04.346992$GNVTG,35.01,T,,M,0.66,N,1.22,K,A*15
###2023-11-09 13:07:04.430634$GNGGA,130704.60,3611.0495602,N,07544.9770978,W,1,24,0.6,1.127,M,-39.961,M,0.0,*61
###2023-11-09 13:07:04.433235$GPGSV,2,1,07,05,21,090,42,10,18,292,42,13,24,045,42,15,62,037,45*75
###2023-11-09 13:07:04.435506$GPGSV,2,2,07,18,77,281,47,23,50,315,45,24,49,136,45,,,,*43
###2023-11-09 13:07:04.438113$GLGSV,2,1,05,70,50,016,35,71,48,288,48,80,17,091,43,85,58,203,48*68
###2023-11-09 13:07:04.439737$GLGSV,2,2,05,86,52,309,47,,,,,,,,,,,,*50
###2023-11-09 13:07:04.442315$GAGSV,1,1,04,07,72,257,45,08,49,042,44,13,64,160,44,26,56,311,45*6E
###2023-11-09 13:07:04.444911$GBGSV,2,1,06,11,24,180,43,14,65,006,45,24,19,133,43,26,23,082,42*66
###2023-11-09 13:07:04.446860$GBGSV,2,2,06,28,43,289,47,33,58,302,47,,,,,,,,*6F
###2023-11-09 13:07:04.448314$GNVTG,35.01,T,,M,0.95,N,1.76,K,A*18
###2023-11-09 13:07:04.529382$GNGGA,130704.70,3611.0495894,N,07544.9770980,W,1,24,0.6,1.138,M,-39.961,M,0.0,*68
###2023-11-09 13:07:04.531978$GPGSV,2,1,07,05,21,090,42,10,18,292,42,13,24,045,40,15,62,037,45*77
###2023-11-09 13:07:04.534224$GPGSV,2,2,07,18,77,281,47,23,50,315,45,24,49,136,45,,,,*43
###2023-11-09 13:07:04.536784$GLGSV,2,1,05,70,50,016,35,71,48,288,48,80,17,091,43,85,58,203,48*68
###2023-11-09 13:07:04.538402$GLGSV,2,2,05,86,52,309,47,,,,,,,,,,,,*50
###2023-11-09 13:07:04.540971$GAGSV,1,1,04,07,72,257,45,08,49,042,44,13,64,160,44,26,56,311,45*6E
###2023-11-09 13:07:04.543553$GBGSV,2,1,06,11,24,180,43,14,65,006,45,24,19,133,43,26,23,082,42*66
###2023-11-09 13:07:04.545490$GBGSV,2,2,06,28,43,289,47,33,58,302,47,,,,,,,,*6F
###2023-11-09 13:07:04.546958$GNVTG,359.50,T,,M,1.15,N,2.12,K,A*2D
###2023-11-09 13:07:04.629393$GNGGA,130704.80,3611.0496237,N,07544.9770990,W,1,24,0.6,1.148,M,-39.961,M,0.0,*61
###2023-11-09 13:07:04.632302$GPGSV,2,1,07,05,21,090,42,10,18,292,42,13,24,045,42,15,62,037,45*75
###2023-11-09 13:07:04.634580$GPGSV,2,2,07,18,77,281,47,23,50,315,45,24,49,136,46,,,,*40
###2023-11-09 13:07:04.637183$GLGSV,2,1,05,70,50,016,35,71,48,288,48,80,17,091,43,85,58,203,48*68
###2023-11-09 13:07:04.638806$GLGSV,2,2,05,86,52,309,47,,,,,,,,,,,,*50
###2023-11-09 13:07:04.641376$GAGSV,1,1,04,07,72,257,45,08,49,042,44,13,64,160,44,26,56,311,45*6E
###2023-11-09 13:07:04.643975$GBGSV,2,1,06,11,24,180,42,14,65,006,45,24,19,133,43,26,23,082,42*67
###2023-11-09 13:07:04.645917$GBGSV,2,2,06,28,43,289,47,33,58,302,47,,,,,,,,*6F
###2023-11-09 13:07:04.647407$GNVTG,358.45,T,,M,1.30,N,2.41,K,A*29
###2023-11-09 13:07:04.730388$GNGGA,130704.90,3611.0496580,N,07544.9771015,W,1,24,0.6,1.152,M,-39.961,M,0.0,*65
