###2023-11-09 13:09:35.229768$GNGGA,130935.40,3611.0342115,N,07544.9395926,W,1,24,0.6,0.561,M,-39.961,M,0.0,*60
###2023-11-09 13:09:35.232379$GPGSV,2,1,07,05,20,090,41,10,19,293,43,13,24,045,41,15,61,037,45*76
###2023-11-09 13:09:35.234658$GPGSV,2,2,07,18,78,277,47,23,50,316,45,24,50,134,46,,,,*4F
###2023-11-09 13:09:35.237263$GLGSV,2,1,05,70,50,017,35,71,48,290,47,80,18,090,43,85,57,203,48*6E
###2023-11-09 13:09:35.238889$GLGSV,2,2,05,86,53,308,47,,,,,,,,,,,,*50
###2023-11-09 13:09:35.241469$GAGSV,1,1,04,07,73,259,45,08,48,043,43,13,63,161,45,26,57,310,44*60
###2023-11-09 13:09:35.244043$GBGSV,2,1,06,11,22,180,43,14,65,009,45,24,20,132,44,26,23,081,42*60
###2023-11-09 13:09:35.245980$GBGSV,2,2,06,28,43,287,47,33,59,304,47,,,,,,,,*66
###2023-11-09 13:09:35.247440$GNVTG,78.53,T,,M,3.23,N,5.98,K,A*1C
###2023-11-09 13:09:35.330738$GNGGA,130935.50,3611.0342272,N,07544.9394852,W,1,24,0.6,0.564,M,-39.961,M,0.0,*65
###2023-11-09 13:09:35.333339$GPGSV,2,1,07,05,20,090,42,10,19,293,44,13,24,045,41,15,61,037,45*72
###2023-11-09 13:09:35.335591$GPGSV,2,2,07,18,78,277,47,23,50,316,45,24,50,134,46,,,,*4F
###2023-11-09 13:09:35.338192$GLGSV,2,1,05,70,50,017,35,71,48,290,47,80,18,090,43,85,57,203,48*6E
###2023-11-09 13:09:35.339810$GLGSV,2,2,05,86,53,308,47,,,,,,,,,,,,*50
###2023-11-09 13:09:35.342381$GAGSV,1,1,04,07,73,259,45,08,48,043,44,13,63,161,45,26,57,310,44*67
###2023-11-09 13:09:35.344968$GBGSV,2,1,06,11,22,180,41,14,65,009,45,24,20,132,44,26,23,081,42*62
###2023-11-09 13:09:35.346922$GBGSV,2,2,06,28,43,287,47,33,59,304,47,,,,,,,,*66
###2023-11-09 13:09:35.348355$GNVTG,80.86,T,,M,3.15,N,5.83,K,A*1C
###2023-11-09 13:09:35.429643$GNGGA,130935.60,3611.0342374,N,07544.9393776,W,1,24,0.6,0.573,M,-39.961,M,0.0,*69
###2023-11-09 13:09:35.432227$GPGSV,2,1,07,05,20,090,42,10,19,293,44,13,24,045,42,15,61,037,45*71
###2023-11-09 13:09:35.434479$GPGSV,2,2,07,18,78,277,47,23,50,316,45,24,50,134,46,,,,*4F
###2023-11-09 13:09:35.437051$GLGSV,2,1,05,70,50,017,35,71,48,290,48,80,18,090,43,85,57,203,48*61
###2023-11-09 13:09:35.438657$GLGSV,2,2,05,86,53,308,47,,,,,,,,,,,,*50
###2023-11-09 13:09:35.441215$GAGSV,1,1,04,07,73,259,45,08,48,043,44,13,63,161,44,26,57,310,44*66
###2023-11-09 13:09:35.443784$GBGSV,2,1,06,11,22,180,41,14,65,009,45,24,20,132,43,26,23,081,43*64
###2023-11-09 13:09:35.445715$GBGSV,2,2,06,28,43,287,47,33,59,304,47,,,,,,,,*66
###2023-11-09 13:09:35.447186$GNVTG,85.32,T,,M,3.19,N,5.90,K,A*18
###2023-11-09 13:09:35.529529$GNGGA,130935.70,3611.0342409,N,07544.9392675,W,1,24,0.6,0.588,M,-39.961,M,0.0,*62
###2023-11-09 13:09:35.532128$GPGSV,2,1,07,05,20,090,42,10,19,293,44,13,24,045,42,15,61,037,45*71
###2023-11-09 13:09:35.534393$GPGSV,2,2,07,18,78,277,47,23,50,316,45,24,50,134,45,,,,*4C
###2023-11-09 13:09:35.536972$GLGSV,2,1,05,70,50,017,35,71,48,290,49,80,18,090,43,85,57,203,48*60
###2023-11-09 13:09:35.538589$GLGSV,2,2,05,86,53,308,47,,,,,,,,,,,,*50
###2023-11-09 13:09:35.541162$GAGSV,1,1,04,07,73,259,45,08,48,043,44,13,63,161,44,26,57,310,44*66
###2023-11-09 13:09:35.543739$GBGSV,2,1,06,11,22,180,40,14,65,009,45,24,20,132,43,26,23,081,43*65
###2023-11-09 13:09:35.545671$GBGSV,2,2,06,28,43,287,47,33,59,304,47,,,,,,,,*66
###2023-11-09 13:09:35.547108$GNVTG,89.77,T,,M,3.27,N,6.05,K,A*17
###2023-11-09 13:09:35.629528$GNGGA,130935.80,3611.0342381,N,07544.9391556,W,1,24,0.6,0.607,M,-39.961,M,0.0,*6F
###2023-11-09 13:09:35.632145$GPGSV,2,1,07,05,20,090,42,10,19,293,43,13,24,045,43,15,61,037,46*74
###2023-11-09 13:09:35.634403$GPGSV,2,2,07,18,78,277,47,23,50,316,45,24,50,134,45,,,,*4C
###2023-11-09 13:09:35.636997$GLGSV,2,1,05,70,50,017,35,71,48,290,49,80,18,090,43,85,57,203,48*60
###2023-11-09 13:09:35.638611$GLGSV,2,2,05,86,53,308,48,,,,,,,,,,,,*5F
###2023-11-09 13:09:35.641185$GAGSV,1,1,04,07,73,259,45,08,48,043,44,13,63,161,44,26,57,310,44*66
###2023-11-09 13:09:35.643764$GBGSV,2,1,06,11,22,180,40,14,65,009,45,24,20,132,43,26,23,081,44*62
###2023-11-09 13:09:35.645706$GBGSV,2,2,06,28,43,287,47,33,59,304,48,,,,,,,,*69
###2023-11-09 13:09:35.647144$GNVTG,93.29,T,,M,3.29,N,6.08,K,A*14
###2023-11-09 13:09:35.729477$GNGGA,130935.90,3611.0342327,N,07544.9390423,W,1,24,0.6,0.612,M,-39.961,M,0.0,*64
###2023-11-09 13:09:35.732055$GPGSV,2,1,07,05,20,090,41,10,19,293,43,13,24,045,42,15,61,037,45*75
###2023-11-09 13:09:35.734294$GPGSV,2,2,07,18,78,277,47,23,50,316,45,24,50,134,45,,,,*4C
###2023-11-09 13:09:35.736856$GLGSV,2,1,05,70,50,017,36,71,48,290,49,80,18,090,43,85,57,203,48*63
###2023-11-09 13:09:35.738467$GLGSV,2,2,05,86,53,308,48,,,,,,,,,,,,*5F
###2023-11-09 13:09:35.741019$GAGSV,1,1,04,07,73,259,45,08,48,043,44,13,63,161,44,26,57,310,44*66
###2023-11-09 13:09:35.743586$GBGSV,2,1,06,11,22,180,40,14,65,009,45,24,20,132,43,26,23,081,43*65
###2023-11-09 13:09:35.745521$GBGSV,2,2,06,28,43,287,47,33,59,304,48,,,,,,,,*69
###2023-11-09 13:09:35.746959$GNVTG,93.11,T,,M,3.34,N,6.19,K,A*13
###2023-11-09 13:09:35.838880$GNGGA,130936.00,3611.0342274,N,07544.9389292,W,1,24,0.6,0.600,M,-39.961,M,0.0,*6E
###2023-11-09 13:09:35.841479$GPGSV,2,1,07,05,20,090,41,10,19,293,43,13,24,045,42,15,61,037,45*75
###2023-11-09 13:09:35.843732$GPGSV,2,2,07,18,78,277,47,23,50,316,45,24,50,134,45,,,,*4C
###2023-11-09 13:09:35.846316$GLGSV,2,1,05,70,50,017,36,71,48,290,47,80,18,090,43,85,57,203,48*6D
###2023-11-09 13:09:35.847936$GLGSV,2,2,05,86,53,308,48,,,,,,,,,,,,*5F
###2023-11-09 13:09:35.850501$GAGSV,1,1,04,07,73,259,45,08,48,043,44,13,63,161,44,26,57,310,44*66
###2023-11-09 13:09:35.853078$GBGSV,2,1,06,11,22,180,42,14,65,009,45,24,20,132,44,26,23,081,43*60
###2023-11-09 13:09:35.855014$GBGSV,2,2,06,28,43,287,47,33,59,304,48,,,,,,,,*69
###2023-11-09 13:09:35.856447$GNVTG,93.38,T,,M,3.29,N,6.08,K,A*14
###2023-11-09 13:09:35.937251$GNGGA,130936.10,3611.0342234,N,07544.9388184,W,1,24,0.6,0.578,M,-39.961,M,0.0,*62
###2023-11-09 13:09:35.939844$GPGSV,2,1,07,05,20,090,41,10,19,293,42,13,24,045,40,15,61,037,45*76
###2023-11-09 13:09:35.942098$GPGSV,2,2,07,18,78,277,47,23,50,316,45,24,50,134,46,,,,*4F
###2023-11-09 13:09:35.944672$GLGSV,2,1,05,70,50,017,35,71,48,290,47,80,18,090,43,85,57,203,48*6E
###2023-11-09 13:09:35.946278$GLGSV,2,2,05,86,53,308,48,,,,,,,,,,,,*5F
###2023-11-09 13:09:35.948896$GAGSV,1,1,04,07,73,259,45,08,48,043,43,13,63,161,44,26,57,310,44*61
###2023-11-09 13:09:35.951490$GBGSV,2,1,06,11,22,180,43,14,65,009,45,24,20,132,44,26,23,081,43*61
###2023-11-09 13:09:35.953430$GBGSV,2,2,06,28,43,287,47,33,59,304,48,,,,,,,,*69
###2023-11-09 13:09:35.954864$GNVTG,91.62,T,,M,3.21,N,5.94,K,A*17
###2023-11-09 13:09:36.032707$GNGGA,130936.20,3611.0342226,N,07544.9387072,W,1,24,0.6,0.559,M,-39.961,M,0.0,*66
###2023-11-09 13:09:36.035291$GPGSV,2,1,07,05,20,090,41,10,19,293,43,13,24,045,40,15,61,037,45*77
###2023-11-09 13:09:36.037556$GPGSV,2,2,07,18,78,277,47,23,50,316,45,24,50,134,46,,,,*4F
###2023-11-09 13:09:36.040120$GLGSV,2,1,05,70,50,017,35,71,48,290,47,80,18,090,43,85,57,203,49*6F
###2023-11-09 13:09:36.041722$GLGSV,2,2,05,86,53,308,47,,,,,,,,,,,,*50
###2023-11-09 13:09:36.044280$GAGSV,1,1,04,07,73,259,45,08,48,043,43,13,63,161,44,26,57,310,44*61
###2023-11-09 13:09:36.046846$GBGSV,2,1,06,11,22,180,43,14,65,009,45,24,20,132,44,26,23,081,43*61
###2023-11-09 13:09:36.048782$GBGSV,2,2,06,28,43,287,47,33,59,304,48,,,,,,,,*69
###2023-11-09 13:09:36.050208$GNVTG,89.14,T,,M,3.29,N,6.08,K,A*11
###2023-11-09 13:09:36.129506$GNGGA,130936.30,3611.0342272,N,07544.9385917,W,1,24,0.6,0.552,M,-39.961,M,0.0,*65
###2023-11-09 13:09:36.132108$GPGSV,2,1,07,05,20,090,41,10,19,293,44,13,24,045,40,15,61,037,45*70
###2023-11-09 13:09:36.134363$GPGSV,2,2,07,18,78,277,47,23,50,316,45,24,50,134,46,,,,*4F
###2023-11-09 13:09:36.136956$GLGSV,2,1,05,70,50,017,35,71,48,290,48,80,18,090,43,85,57,203,49*60
###2023-11-09 13:09:36.138572$GLGSV,2,2,05,86,53,308,47,,,,,,,,,,,,*50
###2023-11-09 13:09:36.141151$GAGSV,1,1,04,07,73,259,45,08,48,043,43,13,63,161,44,26,57,310,44*61
###2023-11-09 13:09:36.143734$GBGSV,2,1,06,11,22,180,43,14,65,009,45,24,20,132,44,26,23,081,43*61
###2023-11-09 13:09:36.145678$GBGSV,2,2,06,28,43,287,47,33,59,304,47,,,,,,,,*66
###2023-11-09 13:09:36.147127$GNVTG,84.98,T,,M,3.48,N,6.44,K,A*17
###2023-11-09 13:09:36.230622$GNGGA,130936.40,3611.0342345,N,07544.9384710,W,1,24,0.6,0.552,M,-39.961,M,0.0,*6F
###2023-11-09 13:09:36.233557$GPGSV,2,1,07,05,20,090,41,10,19,293,44,13,24,045,42,15,61,037,45*72
###2023-11-09 13:09:36.235834$GPGSV,2,2,07,18,78,277,47,23,50,316,45,24,50,134,46,,,,*4F
###2023-11-09 13:09:36.238441$GLGSV,2,1,05,70,50,017,35,71,48,290,48,80,18,090,43,85,57,203,48*61
###2023-11-09 13:09:36.240053$GLGSV,2,2,05,86,53,308,47,,,,,,,,,,,,*50
###2023-11-09 13:09:36.242624$GAGSV,1,1,04,07,73,259,45,08,48,043,43,13,63,161,44,26,57,310,44*61
###2023-11-09 13:09:36.245205$GBGSV,2,1,06,11,22,180,43,14,65,009,45,24,20,132,44,26,23,081,43*61
###2023-11-09 13:09:36.247186$GBGSV,2,2,06,28,43,287,47,33,59,304,47,,,,,,,,*66
###2023-11-09 13:09:36.248625$GNVTG,85.96,T,,M,3.60,N,6.66,K,A*12
###2023-11-09 13:09:36.330595$GNGGA,130936.50,3611.0342352,N,07544.9383453,W,1,24,0.6,0.550,M,-39.961,M,0.0,*69
