###2023-11-09 13:08:51.633805$GPGSV,2,2,07,18,78,277,47,23,50,316,45,24,50,135,45,,,,*4D
###2023-11-09 13:08:51.636383$GLGSV,2,1,05,70,50,017,35,71,48,290,48,80,18,090,43,85,57,203,48*61
###2023-11-09 13:08:51.638019$GLGSV,2,2,05,86,53,308,48,,,,,,,,,,,,*5F
###2023-11-09 13:08:51.640601$GAGSV,1,1,04,07,72,258,45,08,48,043,44,13,64,160,45,26,57,310,45*60
###2023-11-09 13:08:51.643189$GBGSV,2,1,06,11,23,180,41,14,65,008,44,24,20,132,43,26,23,081,41*67
###2023-11-09 13:08:51.645133$GBGSV,2,2,06,28,43,287,47,33,59,304,48,,,,,,,,*69
###2023-11-09 13:08:51.646567$GNVTG,70.82,T,,M,4.86,N,9.00,K,A*1D
###2023-11-09 13:08:51.728677$GNGGA,130851.90,3611.0189266,N,07544.9937050,W,1,24,0.6,1.085,M,-39.962,M,0.0,*6B
###2023-11-09 13:08:51.731302$GPGSV,2,1,07,05,20,090,41,10,19,293,45,13,24,045,41,15,61,037,45*70
###2023-11-09 13:08:51.733555$GPGSV,2,2,07,18,78,277,47,23,50,316,45,24,50,135,45,,,,*4D
###2023-11-09 13:08:51.736143$GLGSV,2,1,05,70,50,017,35,71,48,290,48,80,18,090,43,85,57,203,48*61
###2023-11-09 13:08:51.737774$GLGSV,2,2,05,86,53,308,48,,,,,,,,,,,,*5F
###2023-11-09 13:08:51.740362$GAGSV,1,1,04,07,72,258,45,08,48,043,45,13,64,160,45,26,57,310,46*62
###2023-11-09 13:08:51.742955$GBGSV,2,1,06,11,23,180,41,14,65,008,45,24,20,132,43,26,23,081,41*66
###2023-11-09 13:08:51.744903$GBGSV,2,2,06,28,43,287,47,33,59,304,48,,,,,,,,*69
###2023-11-09 13:08:51.746336$GNVTG,73.07,T,,M,5.03,N,9.32,K,A*1E
###2023-11-09 13:08:51.832765$GNGGA,130852.00,3611.0189647,N,07544.9935336,W,1,24,0.6,1.043,M,-39.962,M,0.0,*6D
###2023-11-09 13:08:51.835381$GPGSV,2,1,07,05,20,090,41,10,19,293,45,13,24,045,41,15,61,037,45*70
###2023-11-09 13:08:51.837664$GPGSV,2,2,07,18,78,277,47,23,50,316,45,24,50,135,45,,,,*4D
###2023-11-09 13:08:51.840241$GLGSV,2,1,05,70,50,017,35,71,48,290,49,80,18,090,43,85,57,203,48*60
###2023-11-09 13:08:51.841853$GLGSV,2,2,05,86,53,308,48,,,,,,,,,,,,*5F
###2023-11-09 13:08:51.844412$GAGSV,1,1,04,07,72,258,45,08,48,043,45,13,64,160,45,26,57,310,45*61
###2023-11-09 13:08:51.847012$GBGSV,2,1,06,11,23,180,41,14,65,008,45,24,20,132,43,26,23,081,43*64
###2023-11-09 13:08:51.848965$GBGSV,2,2,06,28,43,287,47,33,59,304,48,,,,,,,,*69
###2023-11-09 13:08:51.850408$GNVTG,76.10,T,,M,5.23,N,9.68,K,A*10
###2023-11-09 13:08:51.933627$GNGGA,130852.10,3611.0189989,N,07544.9933555,W,1,24,0.6,0.964,M,-39.962,M,0.0,*69
###2023-11-09 13:08:51.936212$GPGSV,2,1,07,05,20,090,41,10,19,293,44,13,24,045,41,15,61,037,45*71
###2023-11-09 13:08:51.938480$GPGSV,2,2,07,18,78,277,47,23,50,316,45,24,50,135,45,,,,*4D
###2023-11-09 13:08:51.941056$GLGSV,2,1,05,70,50,017,35,71,48,290,48,80,18,090,44,85,57,203,48*66
###2023-11-09 13:08:51.942663$GLGSV,2,2,05,86,53,308,47,,,,,,,,,,,,*50
###2023-11-09 13:08:51.945226$GAGSV,1,1,04,07,72,258,45,08,48,043,45,13,64,160,45,26,57,310,44*60
###2023-11-09 13:08:51.947818$GBGSV,2,1,06,11,23,180,41,14,65,008,45,24,20,132,43,26,23,081,43*64
###2023-11-09 13:08:51.949757$GBGSV,2,2,06,28,43,287,47,33,59,304,47,,,,,,,,*66
###2023-11-09 13:08:51.951181$GNVTG,77.08,T,,M,5.35,N,9.90,K,A*18
###2023-11-09 13:08:52.032131$GNGGA,130852.20,3611.0190324,N,07544.9931750,W,1,24,0.6,0.867,M,-39.962,M,0.0,*68
###2023-11-09 13:08:52.034732$GPGSV,2,1,07,05,20,090,42,10,19,293,44,13,24,045,41,15,61,037,45*72
###2023-11-09 13:08:52.037018$GPGSV,2,2,07,18,78,277,47,23,50,316,45,24,50,135,45,,,,*4D
###2023-11-09 13:08:52.039607$GLGSV,2,1,05,70,50,017,35,71,48,290,48,80,18,090,44,85,57,203,49*67
###2023-11-09 13:08:52.041228$GLGSV,2,2,05,86,53,308,47,,,,,,,,,,,,*50
###2023-11-09 13:08:52.043803$GAGSV,1,1,04,07,72,258,45,08,48,043,44,13,64,160,45,26,57,310,44*61
###2023-11-09 13:08:52.046376$GBGSV,2,1,06,11,23,180,42,14,65,008,45,24,20,132,44,26,23,081,43*60
###2023-11-09 13:08:52.048326$GBGSV,2,2,06,28,43,287,46,33,59,304,47,,,,,,,,*67
###2023-11-09 13:08:52.049756$GNVTG,77.01,T,,M,5.37,N,9.94,K,A*17
###2023-11-09 13:08:52.130627$GNGGA,130852.30,3611.0190670,N,07544.9929935,W,1,24,0.6,0.768,M,-39.962,M,0.0,*69
###2023-11-09 13:08:52.133219$GPGSV,2,1,07,05,20,090,43,10,19,293,43,13,24,045,41,15,61,037,45*74
###2023-11-09 13:08:52.135475$GPGSV,2,2,07,18,78,277,47,23,50,316,44,24,50,135,45,,,,*4C
###2023-11-09 13:08:52.138067$GLGSV,2,1,05,70,50,017,35,71,48,290,48,80,18,090,44,85,57,203,50*6F
###2023-11-09 13:08:52.139674$GLGSV,2,2,05,86,53,308,47,,,,,,,,,,,,*50
###2023-11-09 13:08:52.142241$GAGSV,1,1,04,07,72,258,45,08,48,043,44,13,64,160,45,26,57,310,44*61
###2023-11-09 13:08:52.144819$GBGSV,2,1,06,11,23,180,44,14,65,008,45,24,20,132,45,26,23,081,43*67
###2023-11-09 13:08:52.146756$GBGSV,2,2,06,28,43,287,46,33,59,304,47,,,,,,,,*67
###2023-11-09 13:08:52.148241$GNVTG,76.54,T,,M,5.48,N,10.15,K,A*2F
###2023-11-09 13:08:52.229648$GNGGA,130852.40,3611.0191093,N,07544.9928086,W,1,24,0.6,0.696,M,-39.962,M,0.0,*64
###2023-11-09 13:08:52.232232$GPGSV,2,1,07,05,20,090,43,10,19,293,43,13,24,045,40,15,61,037,45*75
###2023-11-09 13:08:52.234474$GPGSV,2,2,07,18,78,277,47,23,50,316,44,24,50,135,46,,,,*4F
###2023-11-09 13:08:52.237038$GLGSV,2,1,05,70,50,017,35,71,48,290,48,80,18,090,44,85,57,203,50*6F
###2023-11-09 13:08:52.238644$GLGSV,2,2,05,86,53,308,47,,,,,,,,,,,,*50
###2023-11-09 13:08:52.241202$GAGSV,1,1,04,07,72,258,45,08,48,043,44,13,64,160,46,26,57,310,44*62
###2023-11-09 13:08:52.243764$GBGSV,2,1,06,11,23,180,44,14,65,008,44,24,20,132,45,26,23,081,43*66
###2023-11-09 13:08:52.245688$GBGSV,2,2,06,28,43,287,45,33,59,304,46,,,,,,,,*65
###2023-11-09 13:08:52.247153$GNVTG,72.00,T,,M,5.70,N,10.55,K,A*25
###2023-11-09 13:08:52.329645$GNGGA,130852.50,3611.0191615,N,07544.9926216,W,1,24,0.6,0.654,M,-39.962,M,0.0,*66
###2023-11-09 13:08:52.332250$GPGSV,2,1,07,05,20,090,43,10,19,293,44,13,24,045,39,15,61,037,45*7C
###2023-11-09 13:08:52.334505$GPGSV,2,2,07,18,78,277,47,23,50,316,44,24,50,135,46,,,,*4F
###2023-11-09 13:08:52.337097$GLGSV,2,1,05,70,50,017,35,71,48,290,48,80,18,090,44,85,57,203,50*6F
###2023-11-09 13:08:52.338714$GLGSV,2,2,05,86,53,308,47,,,,,,,,,,,,*50
###2023-11-09 13:08:52.341290$GAGSV,1,1,04,07,72,258,45,08,48,043,44,13,64,160,46,26,57,310,44*62
###2023-11-09 13:08:52.343861$GBGSV,2,1,06,11,23,180,43,14,65,008,44,24,20,132,45,26,23,081,43*61
###2023-11-09 13:08:52.345791$GBGSV,2,2,06,28,43,287,46,33,59,304,46,,,,,,,,*66
###2023-11-09 13:08:52.347265$GNVTG,70.09,T,,M,5.81,N,10.76,K,A*21
###2023-11-09 13:08:52.429760$GNGGA,130852.60,3611.0192176,N,07544.9924311,W,1,24,0.6,0.635,M,-39.962,M,0.0,*67
###2023-11-09 13:08:52.432348$GPGSV,2,1,07,05,20,090,43,10,19,293,45,13,24,045,39,15,61,037,45*7D
###2023-11-09 13:08:52.434591$GPGSV,2,2,07,18,78,277,47,23,50,316,45,24,50,135,45,,,,*4D
###2023-11-09 13:08:52.437177$GLGSV,2,1,05,70,50,017,35,71,48,290,48,80,18,090,44,85,57,203,49*67
###2023-11-09 13:08:52.438786$GLGSV,2,2,05,86,53,308,47,,,,,,,,,,,,*50
###2023-11-09 13:08:52.441365$GAGSV,1,1,04,07,72,258,45,08,48,043,44,13,64,160,45,26,57,310,44*61
###2023-11-09 13:08:52.443937$GBGSV,2,1,06,11,23,180,42,14,65,008,44,24,20,132,44,26,23,081,43*61
###2023-11-09 13:08:52.445869$GBGSV,2,2,06,28,43,287,47,33,59,304,46,,,,,,,,*67
###2023-11-09 13:08:52.447348$GNVTG,69.89,T,,M,5.97,N,11.05,K,A*23
###2023-11-09 13:08:52.530735$GNGGA,130852.70,3611.0192716,N,07544.9922347,W,1,24,0.6,0.615,M,-39.962,M,0.0,*61
###2023-11-09 13:08:52.533308$GPGSV,2,1,07,05,20,090,41,10,19,293,46,13,24,045,41,15,61,037,45*73
###2023-11-09 13:08:52.535564$GPGSV,2,2,07,18,78,277,47,23,50,316,45,24,50,135,45,,,,*4D
###2023-11-09 13:08:52.538155$GLGSV,2,1,05,70,50,017,35,71,48,290,48,80,18,090,43,85,57,203,47*6E
###2023-11-09 13:08:52.539769$GLGSV,2,2,05,86,53,308,47,,,,,,,,,,,,*50
###2023-11-09 13:08:52.542345$GAGSV,1,1,04,07,72,258,45,08,48,043,45,13,64,160,45,26,57,310,45*61
###2023-11-09 13:08:52.544918$GBGSV,2,1,06,11,23,180,41,14,65,008,45,24,20,132,43,26,23,081,43*64
###2023-11-09 13:08:52.546842$GBGSV,2,2,06,28,43,287,47,33,59,304,47,,,,,,,,*66
###2023-11-09 13:08:52.548306$GNVTG,72.64,T,,M,6.10,N,11.30,K,A*20
###2023-11-09 13:08:52.629639$GNGGA,130852.80,3611.0193184,N,07544.9920308,W,1,24,0.6,0.598,M,-39.962,M,0.0,*6D
###2023-11-09 13:08:52.632231$GPGSV,2,1,07,05,20,090,41,10,19,293,45,13,24,045,41,15,61,037,45*70
###2023-11-09 13:08:52.634788$GPGSV,2,2,07,18,78,277,47,23,50,316,45,24,50,135,45,,,,*4D
###2023-11-09 13:08:52.637381$GLGSV,2,1,05,70,50,017,35,71,48,290,48,80,18,090,43,85,57,203,47*6E
###2023-11-09 13:08:52.639005$GLGSV,2,2,05,86,53,308,47,,,,,,,,,,,,*50
###2023-11-09 13:08:52.641569$GAGSV,1,1,04,07,72,258,45,08,48,043,45,13,64,160,45,26,57,310,45*61
###2023-11-09 13:08:52.644147$GBGSV,2,1,06,11,23,180,41,14,65,008,45,24,20,132,43,26,23,081,41*66
###2023-11-09 13:08:52.646085$GBGSV,2,2,06,28,43,287,47,33,59,304,47,,,,,,,,*66
###2023-11-09 13:08:52.647566$GNVTG,75.57,T,,M,6.24,N,11.56,K,A*20
###2023-11-09 13:08:52.729639$GNGGA,130852.90,3611.0193599,N,07544.9918223,W,1,24,0.6,0.583,M,-39.962,M,0.0,*6D
###2023-11-09 13:08:52.732237$GPGSV,2,1,07,05,20,090,43,10,19,293,45,13,24,045,41,15,61,037,45*72
###2023-11-09 13:08:52.734502$GPGSV,2,2,07,18,78,277,47,23,50,316,45,24,50,135,45,,,,*4D
