###2023-11-09 13:06:25.749114$GBGSV,2,2,06,28,43,289,47,33,58,302,47,,,,,,,,*6F
###2023-11-09 13:06:25.750574$GNVTG,22.92,T,,M,0.54,N,1.01,K,A*19
###2023-11-09 13:06:25.832510$GNGGA,130626.00,3611.0412894,N,07544.9806683,W,1,24,0.6,0.997,M,-39.961,M,0.0,*6F
###2023-11-09 13:06:25.835121$GPGSV,2,1,07,05,21,090,42,10,18,292,44,13,25,045,41,15,62,036,46*73
###2023-11-09 13:06:25.837404$GPGSV,2,2,07,18,77,282,47,23,49,314,45,24,49,137,46,,,,*4B
###2023-11-09 13:06:25.839966$GLGSV,2,1,05,70,50,016,36,71,48,288,48,80,17,091,44,85,58,203,48*6C
###2023-11-09 13:06:25.841569$GLGSV,2,2,05,86,52,309,47,,,,,,,,,,,,*50
###2023-11-09 13:06:25.844128$GAGSV,1,1,04,07,72,255,45,08,49,042,43,13,64,160,44,26,56,311,45*6B
###2023-11-09 13:06:25.846698$GBGSV,2,1,06,11,24,180,42,14,65,006,46,24,19,133,42,26,23,082,41*66
###2023-11-09 13:06:25.848657$GBGSV,2,2,06,28,43,289,47,33,58,302,47,,,,,,,,*6F
###2023-11-09 13:06:25.850084$GNVTG,22.92,T,,M,0.72,N,1.33,K,A*1C
###2023-11-09 13:06:25.940358$GNGGA,130626.10,3611.0413118,N,07544.9806666,W,1,24,0.6,0.978,M,-39.961,M,0.0,*68
###2023-11-09 13:06:25.942939$GPGSV,2,1,07,05,21,090,42,10,18,292,44,13,25,045,41,15,62,036,46*73
###2023-11-09 13:06:25.945192$GPGSV,2,2,07,18,77,282,47,23,49,314,45,24,49,137,46,,,,*4B
###2023-11-09 13:06:25.947774$GLGSV,2,1,05,70,50,016,36,71,48,288,48,80,17,091,44,85,58,203,48*6C
###2023-11-09 13:06:25.949380$GLGSV,2,2,05,86,52,309,47,,,,,,,,,,,,*50
###2023-11-09 13:06:25.951942$GAGSV,1,1,04,07,72,255,45,08,49,042,43,13,64,160,44,26,56,311,45*6B
###2023-11-09 13:06:25.954510$GBGSV,2,1,06,11,24,180,42,14,65,006,46,24,19,133,42,26,23,082,41*66
###2023-11-09 13:06:25.956448$GBGSV,2,2,06,28,43,289,47,33,58,302,47,,,,,,,,*6F
###2023-11-09 13:06:25.957886$GNVTG,22.92,T,,M,0.93,N,1.73,K,A*17
###2023-11-09 13:06:26.033349$GNGGA,130626.20,3611.0413376,N,07544.9806603,W,1,24,0.6,0.962,M,-39.961,M,0.0,*69
###2023-11-09 13:06:26.035921$GPGSV,2,1,07,05,21,090,42,10,18,292,44,13,25,045,41,15,62,036,46*73
###2023-11-09 13:06:26.038181$GPGSV,2,2,07,18,77,282,47,23,49,314,45,24,49,137,46,,,,*4B
###2023-11-09 13:06:26.040739$GLGSV,2,1,05,70,50,016,36,71,48,288,48,80,17,091,44,85,58,203,48*6C
###2023-11-09 13:06:26.042336$GLGSV,2,2,05,86,52,309,47,,,,,,,,,,,,*50
###2023-11-09 13:06:26.044890$GAGSV,1,1,04,07,72,255,45,08,49,042,43,13,64,160,44,26,56,311,45*6B
###2023-11-09 13:06:26.047470$GBGSV,2,1,06,11,24,180,42,14,65,006,46,24,19,133,42,26,23,082,41*66
###2023-11-09 13:06:26.049399$GBGSV,2,2,06,28,43,289,47,33,58,302,47,,,,,,,,*6F
###2023-11-09 13:06:26.050819$GNVTG,13.86,T,,M,1.01,N,1.87,K,A*11
###2023-11-09 13:06:26.135588$GNGGA,130626.30,3611.0413630,N,07544.9806514,W,1,24,0.6,0.942,M,-39.961,M,0.0,*68
###2023-11-09 13:06:26.138185$GPGSV,2,1,07,05,21,090,42,10,18,292,44,13,25,045,41,15,62,036,46*73
###2023-11-09 13:06:26.140421$GPGSV,2,2,07,18,77,282,47,23,49,314,45,24,49,137,46,,,,*4B
###2023-11-09 13:06:26.142966$GLGSV,2,1,05,70,50,016,36,71,48,288,48,80,17,091,44,85,58,203,48*6C
###2023-11-09 13:06:26.144557$GLGSV,2,2,05,86,52,309,47,,,,,,,,,,,,*50
###2023-11-09 13:06:26.147109$GAGSV,1,1,04,07,72,255,45,08,49,042,44,13,64,160,44,26,56,311,45*6C
###2023-11-09 13:06:26.149662$GBGSV,2,1,06,11,24,180,42,14,65,006,46,24,19,133,42,26,23,082,41*66
###2023-11-09 13:06:26.151600$GBGSV,2,2,06,28,43,289,47,33,58,302,47,,,,,,,,*6F
###2023-11-09 13:06:26.153035$GNVTG,13.86,T,,M,0.95,N,1.76,K,A*13
###2023-11-09 13:06:26.230594$GNGGA,130626.40,3611.0413859,N,07544.9806406,W,1,24,0.6,0.926,M,-39.961,M,0.0,*6E
###2023-11-09 13:06:26.233176$GPGSV,2,1,07,05,21,090,42,10,18,292,44,13,25,045,41,15,62,036,46*73
###2023-11-09 13:06:26.235424$GPGSV,2,2,07,18,77,282,47,23,49,314,45,24,49,137,46,,,,*4B
###2023-11-09 13:06:26.238012$GLGSV,2,1,05,70,50,016,36,71,48,288,48,80,17,091,44,85,58,203,48*6C
###2023-11-09 13:06:26.239618$GLGSV,2,2,05,86,52,309,47,,,,,,,,,,,,*50
###2023-11-09 13:06:26.242181$GAGSV,1,1,04,07,72,255,45,08,49,042,44,13,64,160,44,26,56,311,45*6C
###2023-11-09 13:06:26.244754$GBGSV,2,1,06,11,24,180,42,14,65,006,46,24,19,133,42,26,23,082,41*66
###2023-11-09 13:06:26.246685$GBGSV,2,2,06,28,43,289,47,33,58,302,47,,,,,,,,*6F
###2023-11-09 13:06:26.248117$GNVTG,13.86,T,,M,0.87,N,1.62,K,A*15
###2023-11-09 13:06:26.333093$GNGGA,130626.50,3611.0414059,N,07544.9806276,W,1,24,0.6,0.916,M,-39.961,M,0.0,*62
###2023-11-09 13:06:26.335687$GPGSV,2,1,07,05,21,090,42,10,18,292,44,13,25,045,41,15,62,036,46*73
###2023-11-09 13:06:26.337963$GPGSV,2,2,07,18,77,282,47,23,49,314,45,24,49,137,46,,,,*4B
###2023-11-09 13:06:26.340522$GLGSV,2,1,05,70,50,016,36,71,48,288,48,80,17,091,44,85,58,203,48*6C
###2023-11-09 13:06:26.342119$GLGSV,2,2,05,86,52,309,47,,,,,,,,,,,,*50
###2023-11-09 13:06:26.344670$GAGSV,1,1,04,07,72,255,45,08,49,042,44,13,64,160,44,26,56,311,45*6C
###2023-11-09 13:06:26.347242$GBGSV,2,1,06,11,24,180,41,14,65,006,46,24,19,133,42,26,23,082,41*65
###2023-11-09 13:06:26.349176$GBGSV,2,2,06,28,43,289,47,33,58,302,47,,,,,,,,*6F
###2023-11-09 13:06:26.350602$GNVTG,13.86,T,,M,0.82,N,1.51,K,A*10
###2023-11-09 13:06:26.431503$GNGGA,130626.60,3611.0414246,N,07544.9806129,W,1,24,0.6,0.909,M,-39.961,M,0.0,*6A
###2023-11-09 13:06:26.434097$GPGSV,2,1,07,05,21,090,42,10,18,292,44,13,25,045,41,15,62,036,46*73
###2023-11-09 13:06:26.436343$GPGSV,2,2,07,18,77,282,47,23,49,314,45,24,49,137,46,,,,*4B
###2023-11-09 13:06:26.438922$GLGSV,2,1,05,70,50,016,36,71,48,288,48,80,17,091,44,85,58,203,48*6C
###2023-11-09 13:06:26.440531$GLGSV,2,2,05,86,52,309,47,,,,,,,,,,,,*50
###2023-11-09 13:06:26.443087$GAGSV,1,1,04,07,72,255,45,08,49,042,44,13,64,160,44,26,56,311,45*6C
###2023-11-09 13:06:26.445647$GBGSV,2,1,06,11,24,180,41,14,65,006,46,24,19,133,42,26,23,082,41*65
###2023-11-09 13:06:26.447587$GBGSV,2,2,06,28,43,289,47,33,58,302,47,,,,,,,,*6F
###2023-11-09 13:06:26.449015$GNVTG,13.86,T,,M,0.84,N,1.55,K,A*12
###2023-11-09 13:06:26.531491$GNGGA,130626.70,3611.0414448,N,07544.9805965,W,1,24,0.6,0.906,M,-39.961,M,0.0,*6F
###2023-11-09 13:06:26.534096$GPGSV,2,1,07,05,21,090,42,10,18,292,44,13,25,045,41,15,62,036,46*73
###2023-11-09 13:06:26.536354$GPGSV,2,2,07,18,77,282,47,23,49,314,45,24,49,137,46,,,,*4B
###2023-11-09 13:06:26.538963$GLGSV,2,1,05,70,50,016,36,71,48,288,48,80,17,091,44,85,58,203,48*6C
###2023-11-09 13:06:26.540582$GLGSV,2,2,05,86,52,309,47,,,,,,,,,,,,*50
###2023-11-09 13:06:26.543175$GAGSV,1,1,04,07,72,255,45,08,49,042,44,13,64,160,44,26,56,311,45*6C
###2023-11-09 13:06:26.545762$GBGSV,2,1,06,11,24,180,41,14,65,006,46,24,19,133,42,26,23,082,41*65
###2023-11-09 13:06:26.547725$GBGSV,2,2,06,28,43,289,47,33,58,302,47,,,,,,,,*6F
###2023-11-09 13:06:26.549163$GNVTG,13.86,T,,M,0.95,N,1.76,K,A*13
###2023-11-09 13:06:26.632627$GNGGA,130626.80,3611.0414676,N,07544.9805792,W,1,24,0.6,0.902,M,-39.961,M,0.0,*6D
###2023-11-09 13:06:26.635246$GPGSV,2,1,07,05,21,090,42,10,18,292,44,13,25,045,41,15,62,036,45*70
###2023-11-09 13:06:26.637538$GPGSV,2,2,07,18,77,282,47,23,49,314,45,24,49,137,46,,,,*4B
###2023-11-09 13:06:26.640122$GLGSV,2,1,05,70,50,016,36,71,48,288,48,80,17,091,44,85,58,203,48*6C
###2023-11-09 13:06:26.641734$GLGSV,2,2,05,86,52,309,47,,,,,,,,,,,,*50
###2023-11-09 13:06:26.644311$GAGSV,1,1,04,07,72,255,45,08,49,042,44,13,64,160,44,26,56,311,45*6C
###2023-11-09 13:06:26.646889$GBGSV,2,1,06,11,24,180,41,14,65,006,46,24,19,133,42,26,23,082,41*65
###2023-11-09 13:06:26.648850$GBGSV,2,2,06,28,43,289,47,33,58,302,47,,,,,,,,*6F
###2023-11-09 13:06:26.650281$GNVTG,29.99,T,,M,1.01,N,1.87,K,A*16
###2023-11-09 13:06:26.730994$GNGGA,130626.90,3611.0414909,N,07544.9805626,W,1,24,0.6,0.895,M,-39.961,M,0.0,*6A
###2023-11-09 13:06:26.733590$GPGSV,2,1,07,05,21,090,42,10,18,292,44,13,25,045,41,15,62,036,45*70
###2023-11-09 13:06:26.735848$GPGSV,2,2,07,18,77,282,47,23,49,314,45,24,49,137,45,,,,*48
###2023-11-09 13:06:26.738423$GLGSV,2,1,05,70,50,016,36,71,48,288,48,80,17,091,44,85,58,203,48*6C
###2023-11-09 13:06:26.740020$GLGSV,2,2,05,86,52,309,47,,,,,,,,,,,,*50
###2023-11-09 13:06:26.742577$GAGSV,1,1,04,07,72,255,45,08,49,042,44,13,64,160,44,26,56,311,45*6C
###2023-11-09 13:06:26.745148$GBGSV,2,1,06,11,24,180,41,14,65,006,46,24,19,133,42,26,23,082,41*65
###2023-11-09 13:06:26.747089$GBGSV,2,2,06,28,43,289,47,33,58,302,47,,,,,,,,*6F
###2023-11-09 13:06:26.748832$GNVTG,29.99,T,,M,0.97,N,1.80,K,A*1F
###2023-11-09 13:06:26.837653$GNGGA,130627.00,3611.0415133,N,07544.9805470,W,1,24,0.6,0.891,M,-39.961,M,0.0,*67
###2023-11-09 13:06:26.840250$GPGSV,2,1,07,05,21,090,42,10,18,292,44,13,25,045,41,15,62,036,45*70
###2023-11-09 13:06:26.842508$GPGSV,2,2,07,18,77,282,47,23,49,314,45,24,49,137,45,,,,*48
###2023-11-09 13:06:26.845103$GLGSV,2,1,05,70,50,016,36,71,48,288,48,80,17,091,44,85,58,203,48*6C
###2023-11-09 13:06:26.846724$GLGSV,2,2,05,86,52,309,47,,,,,,,,,,,,*50
###2023-11-09 13:06:26.849321$GAGSV,1,1,04,07,72,255,45,08,49,042,44,13,64,160,44,26,56,311,45*6C
###2023-11-09 13:06:26.851915$GBGSV,2,1,06,11,24,180,41,14,65,006,46,24,19,133,42,26,23,082,41*65
###2023-11-09 13:06:26.853845$GBGSV,2,2,06,28,43,289,47,33,58,302,47,,,,,,,,*6F
