###2023-11-09 13:06:51.339673$GLGSV,2,1,05,70,50,016,35,71,48,288,48,80,17,091,43,85,58,203,48*68
###2023-11-09 13:06:51.341295$GLGSV,2,2,05,86,52,309,47,,,,,,,,,,,,*50
###2023-11-09 13:06:51.343861$GAGSV,1,1,04,07,72,255,45,08,49,042,44,13,64,160,44,26,56,311,45*6C
###2023-11-09 13:06:51.346454$GBGSV,2,1,06,11,24,180,41,14,65,006,45,24,19,133,44,26,23,082,43*62
###2023-11-09 13:06:51.348410$GBGSV,2,2,06,28,43,289,47,33,58,302,47,,,,,,,,*6F
###2023-11-09 13:06:51.349837$GNVTG,40.17,T,,M,0.76,N,1.40,K,A*15
###2023-11-09 13:06:51.430370$GNGGA,130651.60,3611.0466133,N,07544.9778924,W,1,24,0.6,1.109,M,-39.961,M,0.0,*64
###2023-11-09 13:06:51.432962$GPGSV,2,1,07,05,21,090,41,10,18,292,42,13,24,045,42,15,62,037,45*76
###2023-11-09 13:06:51.435206$GPGSV,2,2,07,18,77,281,47,23,50,315,45,24,49,136,45,,,,*43
###2023-11-09 13:06:51.437826$GLGSV,2,1,05,70,50,016,35,71,48,288,48,80,17,091,43,85,58,203,48*68
###2023-11-09 13:06:51.439446$GLGSV,2,2,05,86,52,309,47,,,,,,,,,,,,*50
###2023-11-09 13:06:51.442012$GAGSV,1,1,04,07,72,255,45,08,49,042,44,13,64,160,44,26,56,311,45*6C
###2023-11-09 13:06:51.444592$GBGSV,2,1,06,11,24,180,42,14,65,006,45,24,19,133,44,26,23,082,43*61
###2023-11-09 13:06:51.446535$GBGSV,2,2,06,28,43,289,47,33,58,302,47,,,,,,,,*6F
###2023-11-09 13:06:51.447986$GNVTG,40.17,T,,M,0.87,N,1.62,K,A*1B
###2023-11-09 13:06:51.532866$GNGGA,130651.70,3611.0466362,N,07544.9779033,W,1,24,0.6,1.138,M,-39.961,M,0.0,*6F
###2023-11-09 13:06:51.535456$GPGSV,2,1,07,05,21,090,41,10,18,292,42,13,24,045,42,15,62,037,45*76
###2023-11-09 13:06:51.537722$GPGSV,2,2,07,18,77,281,47,23,50,315,45,24,49,136,45,,,,*43
###2023-11-09 13:06:51.540294$GLGSV,2,1,05,70,50,016,35,71,48,288,48,80,17,091,43,85,58,203,48*68
###2023-11-09 13:06:51.541899$GLGSV,2,2,05,86,52,309,47,,,,,,,,,,,,*50
###2023-11-09 13:06:51.544476$GAGSV,1,1,04,07,72,255,45,08,49,042,44,13,64,160,44,26,56,311,45*6C
###2023-11-09 13:06:51.547065$GBGSV,2,1,06,11,24,180,42,14,65,006,45,24,19,133,44,26,23,082,43*61
###2023-11-09 13:06:51.548999$GBGSV,2,2,06,28,43,289,47,33,58,302,47,,,,,,,,*6F
###2023-11-09 13:06:51.550435$GNVTG,40.17,T,,M,0.91,N,1.69,K,A*17
###2023-11-09 13:06:51.630789$GNGGA,130651.80,3611.0466568,N,07544.9779171,W,1,24,0.6,1.172,M,-39.961,M,0.0,*65
###2023-11-09 13:06:51.633395$GPGSV,2,1,07,05,21,090,42,10,18,292,42,13,24,045,42,15,62,037,45*75
###2023-11-09 13:06:51.635627$GPGSV,2,2,07,18,77,281,47,23,50,315,45,24,49,136,45,,,,*43
###2023-11-09 13:06:51.638199$GLGSV,2,1,05,70,50,016,35,71,48,288,48,80,17,091,44,85,58,203,48*6F
###2023-11-09 13:06:51.639795$GLGSV,2,2,05,86,52,309,47,,,,,,,,,,,,*50
###2023-11-09 13:06:51.642350$GAGSV,1,1,04,07,72,255,45,08,49,042,44,13,64,160,44,26,56,311,45*6C
###2023-11-09 13:06:51.644905$GBGSV,2,1,06,11,24,180,42,14,65,006,45,24,19,133,44,26,23,082,43*61
###2023-11-09 13:06:51.646829$GBGSV,2,2,06,28,43,289,47,33,58,302,47,,,,,,,,*6F
###2023-11-09 13:06:51.648267$GNVTG,40.17,T,,M,0.84,N,1.55,K,A*1C
###2023-11-09 13:06:51.730762$GNGGA,130651.90,3611.0466730,N,07544.9779359,W,1,24,0.6,1.200,M,-39.961,M,0.0,*65
###2023-11-09 13:06:51.733369$GPGSV,2,1,07,05,21,090,42,10,18,292,43,13,24,045,42,15,62,037,45*74
###2023-11-09 13:06:51.735625$GPGSV,2,2,07,18,77,281,47,23,50,315,45,24,49,136,45,,,,*43
###2023-11-09 13:06:51.738216$GLGSV,2,1,05,70,50,016,35,71,48,288,48,80,17,091,44,85,58,203,48*6F
###2023-11-09 13:06:51.739825$GLGSV,2,2,05,86,52,309,47,,,,,,,,,,,,*50
###2023-11-09 13:06:51.742392$GAGSV,1,1,04,07,72,255,46,08,49,042,44,13,64,160,44,26,56,311,45*6F
###2023-11-09 13:06:51.744972$GBGSV,2,1,06,11,24,180,41,14,65,006,45,24,19,133,44,26,23,082,43*62
###2023-11-09 13:06:51.746913$GBGSV,2,2,06,28,43,289,46,33,58,302,47,,,,,,,,*6E
###2023-11-09 13:06:51.748342$GNVTG,40.17,T,,M,0.84,N,1.55,K,A*1C
###2023-11-09 13:06:51.833853$GNGGA,130652.00,3611.0466847,N,07544.9779607,W,1,24,0.6,1.218,M,-39.961,M,0.0,*67
###2023-11-09 13:06:51.836436$GPGSV,2,1,07,05,21,090,42,10,18,292,43,13,24,045,42,15,62,037,46*77
###2023-11-09 13:06:51.838703$GPGSV,2,2,07,18,77,281,47,23,50,315,45,24,49,136,45,,,,*43
###2023-11-09 13:06:51.841286$GLGSV,2,1,05,70,50,016,35,71,48,288,48,80,17,091,44,85,58,203,48*6F
###2023-11-09 13:06:51.842892$GLGSV,2,2,05,86,52,309,47,,,,,,,,,,,,*50
###2023-11-09 13:06:51.845480$GAGSV,1,1,04,07,72,255,46,08,49,042,44,13,64,160,44,26,56,311,45*6F
###2023-11-09 13:06:51.848100$GBGSV,2,1,06,11,24,180,41,14,65,006,45,24,19,133,43,26,23,082,43*65
###2023-11-09 13:06:51.850039$GBGSV,2,2,06,28,43,289,46,33,58,302,47,,,,,,,,*6E
###2023-11-09 13:06:51.851473$GNVTG,40.17,T,,M,0.89,N,1.66,K,A*11
###2023-11-09 13:06:51.935840$GNGGA,130652.10,3611.0466951,N,07544.9779901,W,1,24,0.6,1.228,M,-39.961,M,0.0,*6A
###2023-11-09 13:06:51.938440$GPGSV,2,1,07,05,21,090,42,10,18,292,43,13,24,045,42,15,62,037,46*77
###2023-11-09 13:06:51.940676$GPGSV,2,2,07,18,77,281,47,23,50,315,45,24,49,136,45,,,,*43
###2023-11-09 13:06:51.943241$GLGSV,2,1,05,70,50,016,35,71,48,288,48,80,17,091,44,85,58,203,48*6F
###2023-11-09 13:06:51.944838$GLGSV,2,2,05,86,52,309,47,,,,,,,,,,,,*50
###2023-11-09 13:06:51.947406$GAGSV,1,1,04,07,72,255,45,08,49,042,44,13,64,160,44,26,56,311,45*6C
###2023-11-09 13:06:51.949978$GBGSV,2,1,06,11,24,180,41,14,65,006,45,24,19,133,43,26,23,082,43*65
###2023-11-09 13:06:51.951923$GBGSV,2,2,06,28,43,289,46,33,58,302,47,,,,,,,,*6E
###2023-11-09 13:06:51.953397$GNVTG,293.98,T,,M,1.01,N,1.87,K,A*24
###2023-11-09 13:06:52.032971$GNGGA,130652.20,3611.0467066,N,07544.9780206,W,1,24,0.6,1.239,M,-39.961,M,0.0,*6F
###2023-11-09 13:06:52.035551$GPGSV,2,1,07,05,21,090,42,10,18,292,43,13,24,045,42,15,62,037,45*74
###2023-11-09 13:06:52.037820$GPGSV,2,2,07,18,77,281,47,23,50,315,45,24,49,136,45,,,,*43
###2023-11-09 13:06:52.040397$GLGSV,2,1,05,70,50,016,35,71,48,288,48,80,17,091,44,85,58,203,48*6F
###2023-11-09 13:06:52.041998$GLGSV,2,2,05,86,52,309,48,,,,,,,,,,,,*5F
###2023-11-09 13:06:52.044553$GAGSV,1,1,04,07,72,255,45,08,49,042,44,13,64,160,44,26,56,311,45*6C
###2023-11-09 13:06:52.047136$GBGSV,2,1,06,11,24,180,42,14,65,006,45,24,19,133,43,26,23,082,43*66
###2023-11-09 13:06:52.049068$GBGSV,2,2,06,28,43,289,47,33,58,302,47,,,,,,,,*6F
###2023-11-09 13:06:52.050529$GNVTG,295.68,T,,M,1.03,N,1.91,K,A*28
###2023-11-09 13:06:52.133862$GNGGA,130652.30,3611.0467221,N,07544.9780518,W,1,24,0.6,1.245,M,-39.961,M,0.0,*6C
###2023-11-09 13:06:52.136454$GPGSV,2,1,07,05,21,090,42,10,18,292,43,13,24,045,42,15,62,037,45*74
###2023-11-09 13:06:52.138727$GPGSV,2,2,07,18,77,281,47,23,50,315,45,24,49,136,45,,,,*43
###2023-11-09 13:06:52.141294$GLGSV,2,1,05,70,50,016,35,71,48,288,48,80,17,091,43,85,58,203,48*68
###2023-11-09 13:06:52.142900$GLGSV,2,2,05,86,52,309,48,,,,,,,,,,,,*5F
###2023-11-09 13:06:52.145467$GAGSV,1,1,04,07,72,255,45,08,49,042,44,13,64,160,44,26,56,311,45*6C
###2023-11-09 13:06:52.148069$GBGSV,2,1,06,11,24,180,42,14,65,006,45,24,19,133,43,26,23,082,43*66
###2023-11-09 13:06:52.150006$GBGSV,2,2,06,28,43,289,47,33,58,302,47,,,,,,,,*6F
###2023-11-09 13:06:52.151473$GNVTG,305.73,T,,M,1.15,N,2.12,K,A*25
###2023-11-09 13:06:52.231848$GNGGA,130652.40,3611.0467432,N,07544.9780806,W,1,24,0.6,1.251,M,-39.961,M,0.0,*68
###2023-11-09 13:06:52.234426$GPGSV,2,1,07,05,21,090,42,10,18,292,43,13,24,045,42,15,62,037,45*74
###2023-11-09 13:06:52.236660$GPGSV,2,2,07,18,77,281,47,23,50,315,45,24,49,136,45,,,,*43
###2023-11-09 13:06:52.239235$GLGSV,2,1,05,70,50,016,35,71,48,288,48,80,17,091,43,85,58,203,48*68
###2023-11-09 13:06:52.240835$GLGSV,2,2,05,86,52,309,47,,,,,,,,,,,,*50
###2023-11-09 13:06:52.243401$GAGSV,1,1,04,07,72,255,45,08,49,042,44,13,64,160,44,26,56,311,45*6C
###2023-11-09 13:06:52.245965$GBGSV,2,1,06,11,24,180,42,14,65,006,45,24,19,133,43,26,23,082,43*66
###2023-11-09 13:06:52.247896$GBGSV,2,2,06,28,43,289,47,33,58,302,47,,,,,,,,*6F
###2023-11-09 13:06:52.249351$GNVTG,317.25,T,,M,1.15,N,2.12,K,A*25
###2023-11-09 13:06:52.334225$GNGGA,130652.50,3611.0467703,N,07544.9781058,W,1,24,0.6,1.253,M,-39.961,M,0.0,*68
###2023-11-09 13:06:52.336806$GPGSV,2,1,07,05,21,090,42,10,18,292,43,13,24,045,42,15,62,037,45*74
###2023-11-09 13:06:52.339087$GPGSV,2,2,07,18,77,281,47,23,50,315,45,24,49,136,46,,,,*40
###2023-11-09 13:06:52.341965$GLGSV,2,1,05,70,50,016,35,71,48,288,48,80,17,091,43,85,58,203,48*68
###2023-11-09 13:06:52.343585$GLGSV,2,2,05,86,52,309,47,,,,,,,,,,,,*50
###2023-11-09 13:06:52.346172$GAGSV,1,1,04,07,72,255,45,08,49,042,44,13,64,160,44,26,56,311,45*6C
###2023-11-09 13:06:52.348783$GBGSV,2,1,06,11,24,180,42,14,65,006,45,24,19,133,43,26,23,082,43*66
###2023-11-09 13:06:52.350739$GBGSV,2,2,06,28,43,289,47,33,58,302,47,,,,,,,,*6F
###2023-11-09 13:06:52.352211$GNVTG,327.28,T,,M,1.28,N,2.38,K,A*2D
###2023-11-09 13:06:52.431241$GNGGA,130652.60,3611.0468022,N,07544.9781284,W,1,24,0.6,1.253,M,-39.961,M,0.0,*63
###2023-11-09 13:06:52.433842$GPGSV,2,1,07,05,21,090,42,10,18,292,43,13,24,045,42,15,62,037,45*74
###2023-11-09 13:06:52.436092$GPGSV,2,2,07,18,77,281,47,23,50,315,45,24,49,136,46,,,,*40
###2023-11-09 13:06:52.438680$GLGSV,2,1,05,70,50,016,35,71,48,288,48,80,17,091,43,85,58,203,48*68
