###2023-11-09 13:05:58.449607$GBGSV,2,2,06,28,43,289,47,33,58,302,48,,,,,,,,*60
###2023-11-09 13:05:58.451066$GNVTG,70.12,T,,M,1.61,N,2.99,K,A*13
###2023-11-09 13:05:58.532100$GNGGA,130558.70,3611.0380462,N,07544.9850651,W,1,23,0.6,0.710,M,-39.962,M,0.0,*62
###2023-11-09 13:05:58.534689$GPGSV,2,1,07,05,21,089,41,10,17,292,44,13,25,045,41,15,62,036,46*77
###2023-11-09 13:05:58.537066$GPGSV,2,2,07,18,77,285,47,23,49,314,45,24,49,137,45,,,,*4F
###2023-11-09 13:05:58.539628$GLGSV,1,1,04,71,48,288,49,80,17,092,44,85,59,204,49,86,52,311,47*62
###2023-11-09 13:05:58.542194$GAGSV,1,1,04,07,72,255,45,08,49,042,44,13,64,160,45,26,56,311,45*6D
###2023-11-09 13:05:58.544772$GBGSV,2,1,06,11,24,180,40,14,65,006,45,24,19,133,42,26,23,082,41*67
###2023-11-09 13:05:58.546699$GBGSV,2,2,06,28,43,289,47,33,58,302,48,,,,,,,,*60
###2023-11-09 13:05:58.548136$GNVTG,63.87,T,,M,1.89,N,3.49,K,A*17
###2023-11-09 13:05:58.632124$GNGGA,130558.80,3611.0380669,N,07544.9850078,W,1,23,0.6,0.715,M,-39.962,M,0.0,*6C
###2023-11-09 13:05:58.634741$GPGSV,2,1,07,05,21,089,41,10,17,292,44,13,25,045,42,15,62,036,46*74
###2023-11-09 13:05:58.637028$GPGSV,2,2,07,18,77,285,47,23,49,314,45,24,49,137,45,,,,*4F
###2023-11-09 13:05:58.639603$GLGSV,1,1,04,71,48,288,49,80,17,092,44,85,59,204,49,86,52,311,47*62
###2023-11-09 13:05:58.642171$GAGSV,1,1,04,07,72,255,45,08,49,042,44,13,64,160,45,26,56,311,45*6D
###2023-11-09 13:05:58.644744$GBGSV,2,1,06,11,24,180,40,14,65,006,45,24,19,133,42,26,23,082,42*64
###2023-11-09 13:05:58.646680$GBGSV,2,2,06,28,43,289,47,33,58,302,48,,,,,,,,*60
###2023-11-09 13:05:58.648123$GNVTG,65.64,T,,M,1.77,N,3.28,K,A*1A
###2023-11-09 13:05:58.732742$GNGGA,130558.90,3611.0380823,N,07544.9849546,W,1,23,0.6,0.711,M,-39.962,M,0.0,*69
###2023-11-09 13:05:58.735327$GPGSV,2,1,07,05,21,089,41,10,17,292,44,13,25,045,42,15,62,036,46*74
###2023-11-09 13:05:58.737594$GPGSV,2,2,07,18,77,285,47,23,49,314,45,24,49,137,45,,,,*4F
###2023-11-09 13:05:58.740177$GLGSV,1,1,04,71,48,288,48,80,17,092,44,85,59,204,48,86,52,311,47*62
###2023-11-09 13:05:58.742758$GAGSV,1,1,04,07,72,255,45,08,49,042,44,13,64,160,45,26,56,311,45*6D
###2023-11-09 13:05:58.745337$GBGSV,2,1,06,11,24,180,40,14,65,006,45,24,19,133,42,26,23,082,43*65
###2023-11-09 13:05:58.747292$GBGSV,2,2,06,28,43,289,47,33,58,302,48,,,,,,,,*60
###2023-11-09 13:05:58.748720$GNVTG,72.56,T,,M,1.52,N,2.81,K,A*18
###2023-11-09 13:05:58.837753$GNGGA,130559.00,3611.0380911,N,07544.9849098,W,1,24,0.6,0.702,M,-39.962,M,0.0,*62
###2023-11-09 13:05:58.840346$GPGSV,2,1,07,05,21,089,41,10,17,292,44,13,25,045,42,15,62,036,46*74
###2023-11-09 13:05:58.842610$GPGSV,2,2,07,18,77,285,47,23,49,314,45,24,49,137,45,,,,*4F
###2023-11-09 13:05:58.845176$GLGSV,2,1,05,70,50,016,35,71,48,288,48,80,17,092,44,85,59,204,48*6A
###2023-11-09 13:05:58.846778$GLGSV,2,2,05,86,52,311,47,,,,,,,,,,,,*59
###2023-11-09 13:05:58.849348$GAGSV,1,1,04,07,72,255,45,08,49,042,44,13,64,160,45,26,56,311,45*6D
###2023-11-09 13:05:58.851948$GBGSV,2,1,06,11,24,180,40,14,65,006,45,24,19,133,42,26,23,082,43*65
###2023-11-09 13:05:58.853890$GBGSV,2,2,06,28,43,289,47,33,58,302,48,,,,,,,,*60
###2023-11-09 13:05:58.855322$GNVTG,77.71,T,,M,1.15,N,2.12,K,A*11
###2023-11-09 13:05:58.932124$GNGGA,130559.10,3611.0380956,N,07544.9848705,W,1,24,0.6,0.697,M,-39.962,M,0.0,*6F
###2023-11-09 13:05:58.934717$GPGSV,2,1,07,05,21,089,41,10,17,292,44,13,25,045,42,15,62,036,46*74
###2023-11-09 13:05:58.936993$GPGSV,2,2,07,18,77,285,47,23,49,314,45,24,49,137,45,,,,*4F
###2023-11-09 13:05:58.939567$GLGSV,2,1,05,70,50,016,35,71,48,288,49,80,17,092,44,85,59,204,48*6B
###2023-11-09 13:05:58.941188$GLGSV,2,2,05,86,52,311,47,,,,,,,,,,,,*59
###2023-11-09 13:05:58.943770$GAGSV,1,1,04,07,72,255,45,08,49,042,44,13,64,160,44,26,56,311,45*6C
###2023-11-09 13:05:58.946350$GBGSV,2,1,06,11,24,180,40,14,65,006,45,24,19,133,42,26,23,082,43*65
###2023-11-09 13:05:58.948297$GBGSV,2,2,06,28,43,289,47,33,58,302,48,,,,,,,,*60
###2023-11-09 13:05:58.949734$GNVTG,82.04,T,,M,1.13,N,2.09,K,A*15
###2023-11-09 13:05:59.036118$GNGGA,130559.20,3611.0381010,N,07544.9848293,W,1,24,0.6,0.692,M,-39.962,M,0.0,*69
###2023-11-09 13:05:59.038741$GPGSV,2,1,07,05,21,089,41,10,17,292,44,13,25,045,42,15,62,036,46*74
###2023-11-09 13:05:59.041001$GPGSV,2,2,07,18,77,285,47,23,49,314,45,24,49,137,45,,,,*4F
###2023-11-09 13:05:59.043586$GLGSV,2,1,05,70,50,016,35,71,48,288,49,80,17,092,43,85,59,204,48*6C
###2023-11-09 13:05:59.045204$GLGSV,2,2,05,86,52,311,48,,,,,,,,,,,,*56
###2023-11-09 13:05:59.047779$GAGSV,1,1,04,07,72,255,45,08,49,042,44,13,64,160,45,26,56,311,45*6D
###2023-11-09 13:05:59.050356$GBGSV,2,1,06,11,24,180,40,14,65,006,45,24,19,133,41,26,23,082,43*66
###2023-11-09 13:05:59.052299$GBGSV,2,2,06,28,43,289,47,33,58,302,48,,,,,,,,*60
###2023-11-09 13:05:59.053733$GNVTG,76.15,T,,M,1.28,N,2.38,K,A*14
###2023-11-09 13:05:59.131230$GNGGA,130559.30,3611.0381119,N,07544.9847841,W,1,24,0.6,0.692,M,-39.962,M,0.0,*6A
###2023-11-09 13:05:59.133815$GPGSV,2,1,07,05,21,089,41,10,17,292,44,13,25,045,42,15,62,036,46*74
###2023-11-09 13:05:59.136058$GPGSV,2,2,07,18,77,285,47,23,49,314,45,24,49,137,45,,,,*4F
###2023-11-09 13:05:59.138640$GLGSV,2,1,05,70,50,016,35,71,48,288,49,80,17,092,43,85,59,204,48*6C
###2023-11-09 13:05:59.140243$GLGSV,2,2,05,86,52,311,48,,,,,,,,,,,,*56
###2023-11-09 13:05:59.142799$GAGSV,1,1,04,07,72,255,45,08,49,042,44,13,64,160,45,26,56,311,45*6D
###2023-11-09 13:05:59.145374$GBGSV,2,1,06,11,24,180,41,14,65,006,45,24,19,133,41,26,23,082,43*67
###2023-11-09 13:05:59.147316$GBGSV,2,2,06,28,43,289,47,33,58,302,48,,,,,,,,*60
###2023-11-09 13:05:59.148745$GNVTG,67.55,T,,M,1.46,N,2.70,K,A*14
###2023-11-09 13:05:59.232269$GNGGA,130559.40,3611.0381296,N,07544.9847332,W,1,23,0.6,0.691,M,-39.962,M,0.0,*62
###2023-11-09 13:05:59.234869$GPGSV,2,1,07,05,21,089,40,10,17,292,44,13,25,045,42,15,62,036,46*75
###2023-11-09 13:05:59.237149$GPGSV,2,2,07,18,77,285,47,23,49,314,45,24,49,137,45,,,,*4F
###2023-11-09 13:05:59.239739$GLGSV,1,1,04,71,48,288,49,80,17,092,43,85,59,204,49,86,52,311,48*6A
###2023-11-09 13:05:59.242311$GAGSV,1,1,04,07,72,255,45,08,49,042,44,13,64,160,45,26,56,311,45*6D
###2023-11-09 13:05:59.244897$GBGSV,2,1,06,11,24,180,41,14,65,006,45,24,19,133,41,26,23,082,42*66
###2023-11-09 13:05:59.246833$GBGSV,2,2,06,28,43,289,47,33,58,302,48,,,,,,,,*60
###2023-11-09 13:05:59.248281$GNVTG,63.25,T,,M,1.75,N,3.24,K,A*17
###2023-11-09 13:05:59.331742$GNGGA,130559.50,3611.0381507,N,07544.9846792,W,1,23,0.6,0.692,M,-39.962,M,0.0,*60
###2023-11-09 13:05:59.334332$GPGSV,2,1,07,05,21,089,41,10,17,292,44,13,25,045,42,15,62,036,46*74
###2023-11-09 13:05:59.336599$GPGSV,2,2,07,18,77,285,47,23,49,314,45,24,49,137,45,,,,*4F
###2023-11-09 13:05:59.339192$GLGSV,1,1,04,71,48,288,48,80,17,092,44,85,59,204,48,86,52,311,48*6D
###2023-11-09 13:05:59.341785$GAGSV,1,1,04,07,72,255,45,08,49,042,44,13,64,160,45,26,56,311,45*6D
###2023-11-09 13:05:59.344370$GBGSV,2,1,06,11,24,180,41,14,65,006,45,24,19,133,42,26,23,082,43*64
###2023-11-09 13:05:59.346310$GBGSV,2,2,06,28,43,289,47,33,58,302,48,,,,,,,,*60
###2023-11-09 13:05:59.347755$GNVTG,62.60,T,,M,1.75,N,3.24,K,A*17
###2023-11-09 13:05:59.431110$GNGGA,130559.60,3611.0381700,N,07544.9846267,W,1,23,0.6,0.689,M,-39.962,M,0.0,*63
###2023-11-09 13:05:59.433687$GPGSV,2,1,07,05,21,089,41,10,17,292,44,13,25,045,42,15,62,036,46*74
###2023-11-09 13:05:59.435933$GPGSV,2,2,07,18,77,285,47,23,49,314,45,24,49,137,45,,,,*4F
###2023-11-09 13:05:59.438550$GLGSV,1,1,04,71,48,288,48,80,17,092,45,85,59,204,48,86,52,311,48*6C
###2023-11-09 13:05:59.441127$GAGSV,1,1,04,07,72,255,45,08,49,042,45,13,64,160,45,26,56,311,45*6C
###2023-11-09 13:05:59.443696$GBGSV,2,1,06,11,24,180,40,14,65,006,45,24,19,133,42,26,23,082,43*65
###2023-11-09 13:05:59.445640$GBGSV,2,2,06,28,43,289,47,33,58,302,47,,,,,,,,*6F
###2023-11-09 13:05:59.447080$GNVTG,65.62,T,,M,1.61,N,2.99,K,A*10
###2023-11-09 13:05:59.537885$GNGGA,130559.70,3611.0381843,N,07544.9845797,W,1,23,0.6,0.689,M,-39.962,M,0.0,*63
###2023-11-09 13:05:59.540483$GPGSV,2,1,07,05,21,089,42,10,17,292,44,13,25,045,42,15,62,036,46*77
###2023-11-09 13:05:59.542746$GPGSV,2,2,07,18,77,285,47,23,49,314,45,24,49,137,45,,,,*4F
###2023-11-09 13:05:59.545645$GLGSV,1,1,04,71,48,288,48,80,17,092,45,85,59,204,48,86,52,311,47*63
###2023-11-09 13:05:59.548270$GAGSV,1,1,04,07,72,255,45,08,49,042,45,13,64,160,45,26,56,311,45*6C
###2023-11-09 13:05:59.550872$GBGSV,2,1,06,11,24,180,40,14,65,006,45,24,19,133,42,26,23,082,43*65
###2023-11-09 13:05:59.552825$GBGSV,2,2,06,28,43,289,47,33,58,302,47,,,,,,,,*6F
###2023-11-09 13:05:59.554262$GNVTG,70.21,T,,M,1.30,N,2.41,K,A*12
###2023-11-09 13:05:59.632105$GNGGA,130559.80,3611.0381934,N,07544.9845396,W,1,23,0.6,0.700,M,-39.962,M,0.0,*68
###2023-11-09 13:05:59.634700$GPGSV,2,1,07,05,21,089,42,10,17,292,44,13,25,045,42,15,62,036,46*77
###2023-11-09 13:05:59.636971$GPGSV,2,2,07,18,77,285,47,23,49,314,45,24,49,137,45,,,,*4F
###2023-11-09 13:05:59.639546$GLGSV,1,1,04,71,48,288,48,80,17,092,45,85,59,204,48,86,52,311,47*63
###2023-11-09 13:05:59.642135$GAGSV,1,1,04,07,72,255,45,08,49,042,45,13,64,160,45,26,56,311,45*6C
###2023-11-09 13:05:59.644730$GBGSV,2,1,06,11,24,180,40,14,65,006,45,24,19,133,42,26,23,082,43*65
