###2023-11-09 13:08:53.841189$GLGSV,2,2,05,86,53,308,47,,,,,,,,,,,,*50
###2023-11-09 13:08:53.843794$GAGSV,1,1,04,07,72,258,45,08,48,043,44,13,64,160,45,26,57,310,44*61
###2023-11-09 13:08:53.846389$GBGSV,2,1,06,11,23,180,43,14,65,008,44,24,20,132,45,26,23,081,43*61
###2023-11-09 13:08:53.848371$GBGSV,2,2,06,28,43,287,47,33,59,304,47,,,,,,,,*66
###2023-11-09 13:08:53.849848$GNVTG,64.11,T,,M,5.40,N,10.01,K,A*20
###2023-11-09 13:08:53.935629$GNGGA,130854.10,3611.0200816,N,07544.9895602,W,1,24,0.6,0.852,M,-39.962,M,0.0,*62
###2023-11-09 13:08:53.938247$GPGSV,2,1,07,05,20,090,43,10,19,293,43,13,24,045,40,15,61,037,45*75
###2023-11-09 13:08:53.940504$GPGSV,2,2,07,18,78,277,46,23,50,316,45,24,50,135,46,,,,*4F
###2023-11-09 13:08:53.943072$GLGSV,2,1,05,70,50,017,35,71,48,290,47,80,18,090,45,85,57,203,49*69
###2023-11-09 13:08:53.944683$GLGSV,2,2,05,86,53,308,47,,,,,,,,,,,,*50
###2023-11-09 13:08:53.947269$GAGSV,1,1,04,07,72,258,45,08,48,043,44,13,64,160,45,26,57,310,44*61
###2023-11-09 13:08:53.949851$GBGSV,2,1,06,11,23,180,43,14,65,008,45,24,20,132,45,26,23,081,43*60
###2023-11-09 13:08:53.951790$GBGSV,2,2,06,28,43,287,47,33,59,304,47,,,,,,,,*66
###2023-11-09 13:08:53.953219$GNVTG,62.89,T,,M,5.35,N,9.90,K,A*15
###2023-11-09 13:08:54.034468$GNGGA,130854.20,3611.0201474,N,07544.9893982,W,1,24,0.6,0.903,M,-39.962,M,0.0,*6C
###2023-11-09 13:08:54.037066$GPGSV,2,1,07,05,20,090,43,10,19,293,44,13,24,045,41,15,61,037,45*73
###2023-11-09 13:08:54.039302$GPGSV,2,2,07,18,78,277,46,23,50,316,46,24,50,135,45,,,,*4F
###2023-11-09 13:08:54.041863$GLGSV,2,1,05,70,50,017,35,71,48,290,47,80,18,090,45,85,57,203,48*68
###2023-11-09 13:08:54.043458$GLGSV,2,2,05,86,53,308,48,,,,,,,,,,,,*5F
###2023-11-09 13:08:54.046003$GAGSV,1,1,04,07,72,258,45,08,48,043,44,13,64,160,45,26,57,310,45*60
###2023-11-09 13:08:54.048578$GBGSV,2,1,06,11,23,180,42,14,65,008,45,24,20,132,44,26,23,081,43*60
###2023-11-09 13:08:54.050500$GBGSV,2,2,06,28,43,287,47,33,59,304,48,,,,,,,,*69
###2023-11-09 13:08:54.051924$GNVTG,63.82,T,,M,5.23,N,9.68,K,A*1F
###2023-11-09 13:08:54.129637$GNGGA,130854.30,3611.0202072,N,07544.9892355,W,1,24,0.6,0.952,M,-39.962,M,0.0,*69
###2023-11-09 13:08:54.132233$GPGSV,2,1,07,05,20,090,42,10,19,293,44,13,24,045,42,15,61,037,46*72
###2023-11-09 13:08:54.134486$GPGSV,2,2,07,18,78,277,46,23,50,316,46,24,50,135,45,,,,*4F
###2023-11-09 13:08:54.137071$GLGSV,2,1,05,70,50,017,36,71,48,290,48,80,18,090,44,85,57,203,48*65
###2023-11-09 13:08:54.138680$GLGSV,2,2,05,86,53,308,49,,,,,,,,,,,,*5E
###2023-11-09 13:08:54.141250$GAGSV,1,1,04,07,72,258,46,08,48,043,44,13,64,160,45,26,57,310,45*63
###2023-11-09 13:08:54.143834$GBGSV,2,1,06,11,23,180,42,14,65,008,45,24,20,132,43,26,23,081,43*67
###2023-11-09 13:08:54.145768$GBGSV,2,2,06,28,43,287,48,33,59,304,48,,,,,,,,*66
###2023-11-09 13:08:54.147218$GNVTG,67.70,T,,M,5.19,N,9.61,K,A*16
###2023-11-09 13:08:54.230592$GNGGA,130854.40,3611.0202583,N,07544.9890681,W,1,24,0.6,0.994,M,-39.962,M,0.0,*61
###2023-11-09 13:08:54.233176$GPGSV,2,1,07,05,20,090,42,10,19,293,44,13,24,045,42,15,61,037,46*72
###2023-11-09 13:08:54.235425$GPGSV,2,2,07,18,78,277,46,23,50,316,46,24,50,135,45,,,,*4F
###2023-11-09 13:08:54.238012$GLGSV,2,1,05,70,50,017,36,71,48,290,48,80,18,090,44,85,57,203,48*65
###2023-11-09 13:08:54.239616$GLGSV,2,2,05,86,53,308,49,,,,,,,,,,,,*5E
###2023-11-09 13:08:54.242175$GAGSV,1,1,04,07,72,258,46,08,48,043,44,13,64,160,45,26,57,310,45*63
###2023-11-09 13:08:54.244734$GBGSV,2,1,06,11,23,180,42,14,65,008,44,24,20,132,43,26,23,081,43*66
###2023-11-09 13:08:54.246660$GBGSV,2,2,06,28,43,287,48,33,59,304,48,,,,,,,,*66
###2023-11-09 13:08:54.248096$GNVTG,71.40,T,,M,5.25,N,9.72,K,A*1F
###2023-11-09 13:08:54.329730$GNGGA,130854.50,3611.0203057,N,07544.9888980,W,1,24,0.6,1.035,M,-39.962,M,0.0,*69
###2023-11-09 13:08:54.332310$GPGSV,2,1,07,05,20,090,42,10,19,293,44,13,24,045,42,15,61,037,46*72
###2023-11-09 13:08:54.334553$GPGSV,2,2,07,18,78,277,46,23,50,316,46,24,50,135,45,,,,*4F
###2023-11-09 13:08:54.337117$GLGSV,2,1,05,70,50,017,36,71,48,290,47,80,18,090,44,85,57,203,48*6A
###2023-11-09 13:08:54.338714$GLGSV,2,2,05,86,53,308,49,,,,,,,,,,,,*5E
###2023-11-09 13:08:54.341264$GAGSV,1,1,04,07,72,258,46,08,48,043,44,13,64,160,45,26,57,310,45*63
###2023-11-09 13:08:54.343828$GBGSV,2,1,06,11,23,180,42,14,65,008,44,24,20,132,44,26,23,081,43*61
###2023-11-09 13:08:54.345748$GBGSV,2,2,06,28,43,287,48,33,59,304,48,,,,,,,,*66
###2023-11-09 13:08:54.347179$GNVTG,70.95,T,,M,5.25,N,9.72,K,A*16
###2023-11-09 13:08:54.429640$GNGGA,130854.60,3611.0203561,N,07544.9887312,W,1,24,0.6,1.062,M,-39.962,M,0.0,*66
###2023-11-09 13:08:54.432229$GPGSV,2,1,07,05,20,090,42,10,19,293,43,13,24,045,42,15,61,037,45*76
###2023-11-09 13:08:54.434489$GPGSV,2,2,07,18,78,277,47,23,50,316,46,24,50,135,45,,,,*4E
###2023-11-09 13:08:54.437076$GLGSV,2,1,05,70,50,017,36,71,48,290,47,80,18,090,45,85,57,203,49*6A
###2023-11-09 13:08:54.438685$GLGSV,2,2,05,86,53,308,48,,,,,,,,,,,,*5F
###2023-11-09 13:08:54.441253$GAGSV,1,1,04,07,72,258,46,08,48,043,44,13,64,160,45,26,57,310,45*63
###2023-11-09 13:08:54.443827$GBGSV,2,1,06,11,23,180,42,14,65,008,44,24,20,132,44,26,23,081,43*61
###2023-11-09 13:08:54.445759$GBGSV,2,2,06,28,43,287,47,33,59,304,47,,,,,,,,*66
###2023-11-09 13:08:54.447206$GNVTG,68.56,T,,M,5.15,N,9.54,K,A*17
###2023-11-09 13:08:54.530619$GNGGA,130854.70,3611.0204152,N,07544.9885711,W,1,24,0.6,1.068,M,-39.962,M,0.0,*6B
###2023-11-09 13:08:54.533200$GPGSV,2,1,07,05,20,090,42,10,19,293,43,13,24,045,41,15,61,037,45*75
###2023-11-09 13:08:54.535454$GPGSV,2,2,07,18,78,277,47,23,50,316,46,24,50,135,46,,,,*4D
###2023-11-09 13:08:54.538047$GLGSV,2,1,05,70,50,017,35,71,48,290,47,80,18,090,45,85,57,203,49*69
###2023-11-09 13:08:54.539660$GLGSV,2,2,05,86,53,308,48,,,,,,,,,,,,*5F
###2023-11-09 13:08:54.542217$GAGSV,1,1,04,07,72,258,45,08,48,043,44,13,64,160,45,26,57,310,45*60
###2023-11-09 13:08:54.544794$GBGSV,2,1,06,11,23,180,43,14,65,008,44,24,20,132,44,26,23,081,43*60
###2023-11-09 13:08:54.546730$GBGSV,2,2,06,28,43,287,47,33,59,304,47,,,,,,,,*66
###2023-11-09 13:08:54.548173$GNVTG,63.09,T,,M,5.13,N,9.50,K,A*14
###2023-11-09 13:08:54.629606$GNGGA,130854.80,3611.0204843,N,07544.9884163,W,1,24,0.6,1.063,M,-39.962,M,0.0,*64
###2023-11-09 13:08:54.632167$GPGSV,2,1,07,05,20,090,42,10,19,293,43,13,24,045,41,15,61,037,45*75
###2023-11-09 13:08:54.634404$GPGSV,2,2,07,18,78,277,47,23,50,316,46,24,50,135,46,,,,*4D
###2023-11-09 13:08:54.636965$GLGSV,2,1,05,70,50,017,35,71,48,290,47,80,18,090,45,85,57,203,49*69
###2023-11-09 13:08:54.638561$GLGSV,2,2,05,86,53,308,47,,,,,,,,,,,,*50
###2023-11-09 13:08:54.641110$GAGSV,1,1,04,07,72,258,45,08,48,043,44,13,64,160,45,26,57,310,44*61
###2023-11-09 13:08:54.643672$GBGSV,2,1,06,11,23,180,43,14,65,008,44,24,20,132,45,26,23,081,43*61
###2023-11-09 13:08:54.645591$GBGSV,2,2,06,28,43,287,47,33,59,304,47,,,,,,,,*66
###2023-11-09 13:08:54.647016$GNVTG,59.83,T,,M,5.19,N,9.61,K,A*17
###2023-11-09 13:08:54.729767$GNGGA,130854.90,3611.0205592,N,07544.9882624,W,1,24,0.6,1.043,M,-39.962,M,0.0,*65
###2023-11-09 13:08:54.732375$GPGSV,2,1,07,05,20,090,42,10,19,293,43,13,24,045,41,15,61,037,45*75
###2023-11-09 13:08:54.734631$GPGSV,2,2,07,18,78,277,47,23,50,316,46,24,50,135,45,,,,*4E
###2023-11-09 13:08:54.737213$GLGSV,2,1,05,70,50,017,35,71,48,290,47,80,18,090,44,85,57,203,49*68
###2023-11-09 13:08:54.738824$GLGSV,2,2,05,86,53,308,47,,,,,,,,,,,,*50
###2023-11-09 13:08:54.741384$GAGSV,1,1,04,07,72,258,45,08,48,043,44,13,64,160,45,26,57,310,45*60
###2023-11-09 13:08:54.743955$GBGSV,2,1,06,11,23,180,42,14,65,008,44,24,20,132,44,26,23,081,43*61
###2023-11-09 13:08:54.745883$GBGSV,2,2,06,28,43,287,47,33,59,304,47,,,,,,,,*66
###2023-11-09 13:08:54.747327$GNVTG,58.80,T,,M,5.29,N,9.79,K,A*1F
###2023-11-09 13:08:54.832225$GNGGA,130855.00,3611.0206352,N,07544.9881064,W,1,24,0.6,1.001,M,-39.962,M,0.0,*63
###2023-11-09 13:08:54.834809$GPGSV,2,1,07,05,20,090,42,10,19,293,43,13,24,045,41,15,61,037,46*76
###2023-11-09 13:08:54.837076$GPGSV,2,2,07,18,78,277,47,23,50,316,46,24,50,135,45,,,,*4E
###2023-11-09 13:08:54.839643$GLGSV,2,1,05,70,50,017,35,71,48,290,48,80,18,090,44,85,57,203,48*66
###2023-11-09 13:08:54.841246$GLGSV,2,2,05,86,53,308,48,,,,,,,,,,,,*5F
###2023-11-09 13:08:54.844128$GAGSV,1,1,04,07,72,258,45,08,48,043,45,13,64,160,45,26,57,310,45*61
###2023-11-09 13:08:54.846720$GBGSV,2,1,06,11,23,180,42,14,65,008,45,24,20,132,44,26,23,081,43*60
###2023-11-09 13:08:54.848678$GBGSV,2,2,06,28,43,287,47,33,59,304,47,,,,,,,,*66
###2023-11-09 13:08:54.850113$GNVTG,59.82,T,,M,5.35,N,9.90,K,A*16
###2023-11-09 13:08:54.929485$GNGGA,130855.10,3611.0207062,N,07544.9879428,W,1,24,0.6,0.949,M,-39.962,M,0.0,*6C
###2023-11-09 13:08:54.932086$GPGSV,2,1,07,05,20,090,42,10,19,293,43,13,24,045,41,15,61,037,46*76
###2023-11-09 13:08:54.934339$GPGSV,2,2,07,18,78,277,47,23,50,316,46,24,50,135,45,,,,*4E
###2023-11-09 13:08:54.936911$GLGSV,2,1,05,70,50,017,35,71,48,290,48,80,18,090,44,85,57,203,48*66
###2023-11-09 13:08:54.938511$GLGSV,2,2,05,86,53,308,48,,,,,,,,,,,,*5F
