###2023-11-09 13:07:24.744612$GBGSV,2,1,06,11,24,180,42,14,65,006,45,24,19,133,44,26,23,082,42*60
###2023-11-09 13:07:24.746579$GBGSV,2,2,06,28,43,289,47,33,58,302,47,,,,,,,,*6F
###2023-11-09 13:07:24.748081$GNVTG,346.77,T,,M,1.01,N,1.87,K,A*2C
###2023-11-09 13:07:24.832888$GNGGA,130725.00,3611.0538479,N,07544.9774205,W,1,24,0.6,1.230,M,-39.961,M,0.0,*6C
###2023-11-09 13:07:24.835481$GPGSV,2,1,07,05,21,090,41,10,18,292,44,13,24,045,42,15,62,037,46*73
###2023-11-09 13:07:24.837749$GPGSV,2,2,07,18,77,281,47,23,50,315,45,24,49,136,46,,,,*40
###2023-11-09 13:07:24.840332$GLGSV,2,1,05,70,50,016,35,71,48,288,48,80,17,091,43,85,58,203,48*68
###2023-11-09 13:07:24.841949$GLGSV,2,2,05,86,52,309,47,,,,,,,,,,,,*50
###2023-11-09 13:07:24.844514$GAGSV,1,1,04,07,72,257,45,08,49,042,44,13,64,160,44,26,56,310,45*6F
###2023-11-09 13:07:24.847101$GBGSV,2,1,06,11,24,180,42,14,65,006,45,24,19,133,44,26,23,082,42*60
###2023-11-09 13:07:24.849050$GBGSV,2,2,06,28,43,289,47,33,58,302,47,,,,,,,,*6F
###2023-11-09 13:07:24.850521$GNVTG,347.30,T,,M,1.13,N,2.09,K,A*28
###2023-11-09 13:07:24.932106$GNGGA,130725.10,3611.0538790,N,07544.9774279,W,1,24,0.6,1.234,M,-39.961,M,0.0,*66
###2023-11-09 13:07:24.934697$GPGSV,2,1,07,05,21,090,41,10,18,292,44,13,24,045,42,15,62,037,46*73
###2023-11-09 13:07:24.936967$GPGSV,2,2,07,18,77,281,46,23,50,315,45,24,49,136,46,,,,*41
###2023-11-09 13:07:24.939538$GLGSV,2,1,05,70,50,016,35,71,48,288,48,80,17,091,43,85,58,203,48*68
###2023-11-09 13:07:24.941136$GLGSV,2,2,05,86,52,309,47,,,,,,,,,,,,*50
###2023-11-09 13:07:24.943696$GAGSV,1,1,04,07,72,257,45,08,49,042,44,13,64,160,44,26,56,310,45*6F
###2023-11-09 13:07:24.946271$GBGSV,2,1,06,11,24,180,41,14,65,006,45,24,19,133,43,26,23,082,43*65
###2023-11-09 13:07:24.948206$GBGSV,2,2,06,28,43,289,47,33,58,302,47,,,,,,,,*6F
###2023-11-09 13:07:24.949664$GNVTG,350.03,T,,M,1.19,N,2.20,K,A*2F
###2023-11-09 13:07:25.032001$GNGGA,130725.20,3611.0539106,N,07544.9774340,W,1,24,0.6,1.237,M,-39.961,M,0.0,*65
###2023-11-09 13:07:25.034613$GPGSV,2,1,07,05,21,090,41,10,18,292,44,13,24,045,42,15,62,037,46*73
###2023-11-09 13:07:25.036872$GPGSV,2,2,07,18,77,281,46,23,50,315,45,24,49,136,46,,,,*41
###2023-11-09 13:07:25.039462$GLGSV,2,1,05,70,50,016,35,71,48,288,48,80,17,091,43,85,58,203,48*68
###2023-11-09 13:07:25.041069$GLGSV,2,2,05,86,52,309,47,,,,,,,,,,,,*50
###2023-11-09 13:07:25.043630$GAGSV,1,1,04,07,72,257,45,08,49,042,44,13,64,160,44,26,56,310,45*6F
###2023-11-09 13:07:25.046200$GBGSV,2,1,06,11,24,180,41,14,65,006,45,24,19,133,43,26,23,082,43*65
###2023-11-09 13:07:25.048146$GBGSV,2,2,06,28,43,289,47,33,58,302,47,,,,,,,,*6F
###2023-11-09 13:07:25.049621$GNVTG,351.46,T,,M,1.17,N,2.16,K,A*24
###2023-11-09 13:07:25.131870$GNGGA,130725.30,3611.0539414,N,07544.9774388,W,1,24,0.6,1.234,M,-39.961,M,0.0,*65
###2023-11-09 13:07:25.134465$GPGSV,2,1,07,05,21,090,41,10,18,292,43,13,24,045,43,15,62,037,46*75
###2023-11-09 13:07:25.136716$GPGSV,2,2,07,18,77,281,46,23,50,315,45,24,49,136,46,,,,*41
###2023-11-09 13:07:25.139311$GLGSV,2,1,05,70,50,016,35,71,48,288,48,80,17,091,43,85,58,203,48*68
###2023-11-09 13:07:25.140910$GLGSV,2,2,05,86,52,309,47,,,,,,,,,,,,*50
###2023-11-09 13:07:25.143460$GAGSV,1,1,04,07,72,257,45,08,49,042,44,13,64,160,44,26,56,310,45*6F
###2023-11-09 13:07:25.146033$GBGSV,2,1,06,11,24,180,40,14,65,006,45,24,19,133,42,26,23,082,43*65
###2023-11-09 13:07:25.147978$GBGSV,2,2,06,28,43,289,47,33,58,302,47,,,,,,,,*6F
###2023-11-09 13:07:25.149441$GNVTG,353.13,T,,M,1.11,N,2.05,K,A*22
###2023-11-09 13:07:25.232714$GNGGA,130725.40,3611.0539705,N,07544.9774410,W,1,24,0.6,1.222,M,-39.961,M,0.0,*60
###2023-11-09 13:07:25.235284$GPGSV,2,1,07,05,21,090,41,10,18,292,43,13,24,045,43,15,62,037,45*76
###2023-11-09 13:07:25.237546$GPGSV,2,2,07,18,77,281,47,23,50,315,45,24,49,136,46,,,,*40
###2023-11-09 13:07:25.240103$GLGSV,2,1,05,70,50,016,35,71,48,288,48,80,17,091,43,85,58,203,48*68
###2023-11-09 13:07:25.241697$GLGSV,2,2,05,86,52,309,47,,,,,,,,,,,,*50
###2023-11-09 13:07:25.244236$GAGSV,1,1,04,07,72,257,45,08,49,042,44,13,64,160,45,26,56,310,45*6E
###2023-11-09 13:07:25.246798$GBGSV,2,1,06,11,24,180,40,14,65,006,45,24,19,133,42,26,23,082,43*65
###2023-11-09 13:07:25.248730$GBGSV,2,2,06,28,43,289,47,33,58,302,47,,,,,,,,*6F
###2023-11-09 13:07:25.250189$GNVTG,358.44,T,,M,1.03,N,1.91,K,A*26
###2023-11-09 13:07:25.331114$GNGGA,130725.50,3611.0539987,N,07544.9774410,W,1,24,0.6,1.192,M,-39.961,M,0.0,*6D
###2023-11-09 13:07:25.333717$GPGSV,2,1,07,05,21,090,41,10,18,292,43,13,24,045,42,15,62,037,45*77
###2023-11-09 13:07:25.335974$GPGSV,2,2,07,18,77,281,47,23,50,315,45,24,49,136,46,,,,*40
###2023-11-09 13:07:25.338560$GLGSV,2,1,05,70,50,016,35,71,48,288,48,80,17,091,43,85,58,203,48*68
###2023-11-09 13:07:25.340164$GLGSV,2,2,05,86,52,309,47,,,,,,,,,,,,*50
###2023-11-09 13:07:25.342720$GAGSV,1,1,04,07,72,257,45,08,49,042,44,13,64,160,45,26,56,310,45*6E
###2023-11-09 13:07:25.345282$GBGSV,2,1,06,11,24,180,40,14,65,006,45,24,19,133,42,26,23,082,43*65
###2023-11-09 13:07:25.347225$GBGSV,2,2,06,28,43,289,47,33,58,302,47,,,,,,,,*6F
###2023-11-09 13:07:25.348679$GNVTG,359.91,T,,M,1.05,N,1.94,K,A*2C
###2023-11-09 13:07:25.437399$GNGGA,130725.60,3611.0540290,N,07544.9774385,W,1,24,0.6,1.154,M,-39.961,M,0.0,*6C
###2023-11-09 13:07:25.439987$GPGSV,2,1,07,05,21,090,41,10,18,292,43,13,24,045,40,15,62,037,45*75
###2023-11-09 13:07:25.442234$GPGSV,2,2,07,18,77,281,47,23,50,315,45,24,49,136,46,,,,*40
###2023-11-09 13:07:25.444785$GLGSV,2,1,05,70,50,016,35,71,48,288,48,80,17,091,42,85,58,203,48*69
###2023-11-09 13:07:25.446388$GLGSV,2,2,05,86,52,309,47,,,,,,,,,,,,*50
###2023-11-09 13:07:25.448953$GAGSV,1,1,04,07,72,257,45,08,49,042,44,13,64,160,45,26,56,310,44*6F
###2023-11-09 13:07:25.451530$GBGSV,2,1,06,11,24,180,40,14,65,006,45,24,19,133,43,26,23,082,43*64
###2023-11-09 13:07:25.453471$GBGSV,2,2,06,28,43,289,47,33,58,302,47,,,,,,,,*6F
###2023-11-09 13:07:25.454859$GNVTG,4.95,T,,M,1.19,N,2.20,K,A*22
###2023-11-09 13:07:25.531093$GNGGA,130725.70,3611.0540638,N,07544.9774332,W,1,24,0.6,1.112,M,-39.961,M,0.0,*65
###2023-11-09 13:07:25.533664$GPGSV,2,1,07,05,21,090,41,10,18,292,42,13,24,045,40,15,62,037,45*74
###2023-11-09 13:07:25.535898$GPGSV,2,2,07,18,77,281,47,23,50,315,45,24,49,136,46,,,,*40
###2023-11-09 13:07:25.538475$GLGSV,2,1,05,70,50,016,35,71,48,288,48,80,17,091,42,85,58,203,48*69
###2023-11-09 13:07:25.540074$GLGSV,2,2,05,86,52,309,47,,,,,,,,,,,,*50
###2023-11-09 13:07:25.542623$GAGSV,1,1,04,07,72,257,45,08,49,042,44,13,64,160,45,26,56,310,44*6F
###2023-11-09 13:07:25.545186$GBGSV,2,1,06,11,24,180,41,14,65,006,45,24,19,133,43,26,23,082,42*64
###2023-11-09 13:07:25.547118$GBGSV,2,2,06,28,43,289,47,33,58,302,47,,,,,,,,*6F
###2023-11-09 13:07:25.548504$GNVTG,7.17,T,,M,1.36,N,2.52,K,A*23
###2023-11-09 13:07:25.629518$GNGGA,130725.80,3611.0541017,N,07544.9774238,W,1,24,0.6,1.073,M,-39.961,M,0.0,*6D
###2023-11-09 13:07:25.632126$GPGSV,2,1,07,05,21,090,41,10,18,292,43,13,24,045,40,15,62,037,45*75
###2023-11-09 13:07:25.634388$GPGSV,2,2,07,18,77,281,46,23,50,315,45,24,49,136,46,,,,*41
###2023-11-09 13:07:25.636970$GLGSV,2,1,05,70,50,016,35,71,48,288,48,80,17,091,42,85,58,203,48*69
###2023-11-09 13:07:25.638578$GLGSV,2,2,05,86,52,309,47,,,,,,,,,,,,*50
###2023-11-09 13:07:25.641137$GAGSV,1,1,04,07,72,257,45,08,49,042,44,13,64,160,45,26,56,310,44*6F
###2023-11-09 13:07:25.643708$GBGSV,2,1,06,11,24,180,41,14,65,006,45,24,19,133,43,26,23,082,42*64
###2023-11-09 13:07:25.645637$GBGSV,2,2,06,28,43,289,47,33,58,302,47,,,,,,,,*6F
###2023-11-09 13:07:25.647073$GNVTG,13.38,T,,M,1.44,N,2.66,K,A*19
###2023-11-09 13:07:25.731870$GNGGA,130725.90,3611.0541394,N,07544.9774105,W,1,24,0.6,1.036,M,-39.961,M,0.0,*68
###2023-11-09 13:07:25.734457$GPGSV,2,1,07,05,21,090,41,10,18,292,43,13,24,045,40,15,62,037,45*75
###2023-11-09 13:07:25.736724$GPGSV,2,2,07,18,77,281,47,23,50,315,45,24,49,136,46,,,,*40
###2023-11-09 13:07:25.739317$GLGSV,2,1,05,70,50,016,35,71,48,288,48,80,17,091,42,85,58,203,48*69
###2023-11-09 13:07:25.740928$GLGSV,2,2,05,86,52,309,47,,,,,,,,,,,,*50
###2023-11-09 13:07:25.743494$GAGSV,1,1,04,07,72,257,45,08,49,042,44,13,64,160,45,26,56,310,44*6F
###2023-11-09 13:07:25.746376$GBGSV,2,1,06,11,24,180,41,14,65,006,45,24,19,133,43,26,23,082,42*64
###2023-11-09 13:07:25.748366$GBGSV,2,2,06,28,43,289,47,33,58,302,47,,,,,,,,*6F
###2023-11-09 13:07:25.749804$GNVTG,17.06,T,,M,1.40,N,2.59,K,A*18
###2023-11-09 13:07:25.831854$GNGGA,130726.00,3611.0541727,N,07544.9773950,W,1,24,0.6,1.004,M,-39.961,M,0.0,*60
###2023-11-09 13:07:25.834431$GPGSV,2,1,07,05,21,090,41,10,18,292,43,13,24,045,42,15,62,037,45*77
###2023-11-09 13:07:25.836686$GPGSV,2,2,07,18,77,281,47,23,50,315,45,24,49,136,46,,,,*40
###2023-11-09 13:07:25.839274$GLGSV,2,1,05,70,50,016,35,71,48,288,48,80,17,091,42,85,58,203,48*69
###2023-11-09 13:07:25.840871$GLGSV,2,2,05,86,52,309,47,,,,,,,,,,,,*50
###2023-11-09 13:07:25.843417$GAGSV,1,1,04,07,72,257,45,08,49,042,44,13,64,160,45,26,56,310,44*6F
###2023-11-09 13:07:25.845992$GBGSV,2,1,06,11,24,180,41,14,65,006,45,24,19,133,43,26,23,082,43*65
