###2023-11-09 13:10:18.732438$GPGSV,2,1,07,05,20,091,42,10,19,293,44,13,24,045,40,15,61,037,45*72
###2023-11-09 13:10:18.734724$GPGSV,2,2,07,18,78,277,47,23,50,316,45,24,50,134,45,,,,*4C
###2023-11-09 13:10:18.737361$GLGSV,2,1,05,70,49,019,35,71,48,291,48,80,19,089,44,85,56,202,48*68
###2023-11-09 13:10:18.738980$GLGSV,2,2,05,86,54,306,48,,,,,,,,,,,,*56
###2023-11-09 13:10:18.741557$GAGSV,1,1,04,07,73,259,45,08,48,043,46,13,63,161,44,26,57,310,45*65
###2023-11-09 13:10:18.744146$GBGSV,2,1,06,11,22,180,41,14,65,009,45,24,21,132,43,26,23,080,42*65
###2023-11-09 13:10:18.746091$GBGSV,2,2,06,28,43,286,47,33,59,305,48,,,,,,,,*69
###2023-11-09 13:10:18.747555$GNVTG,85.19,T,,M,4.37,N,8.10,K,A*1F
###2023-11-09 13:10:18.833392$GNGGA,131019.00,3611.0502330,N,07544.8760117,W,1,24,0.6,0.547,M,-39.961,M,0.0,*64
###2023-11-09 13:10:18.836002$GPGSV,2,1,07,05,20,091,42,10,19,293,43,13,24,045,40,15,61,037,45*75
###2023-11-09 13:10:18.838297$GPGSV,2,2,07,18,78,277,47,23,50,316,45,24,50,134,45,,,,*4C
###2023-11-09 13:10:18.840892$GLGSV,2,1,05,70,49,019,35,71,48,291,48,80,19,089,44,85,56,202,48*68
###2023-11-09 13:10:18.842509$GLGSV,2,2,05,86,54,306,47,,,,,,,,,,,,*59
###2023-11-09 13:10:18.845085$GAGSV,1,1,04,07,73,259,45,08,48,043,45,13,63,161,45,26,57,310,45*67
###2023-11-09 13:10:18.847683$GBGSV,2,1,06,11,22,180,42,14,65,009,45,24,21,132,43,26,23,080,42*66
###2023-11-09 13:10:18.849628$GBGSV,2,2,06,28,43,286,47,33,59,305,47,,,,,,,,*66
###2023-11-09 13:10:18.851062$GNVTG,82.01,T,,M,4.30,N,7.96,K,A*17
###2023-11-09 13:10:18.931358$GNGGA,131019.10,3611.0502547,N,07544.8758702,W,1,24,0.6,0.562,M,-39.961,M,0.0,*6D
###2023-11-09 13:10:18.933950$GPGSV,2,1,07,05,20,091,43,10,19,293,43,13,24,045,40,15,61,037,45*74
###2023-11-09 13:10:18.936194$GPGSV,2,2,07,18,78,277,47,23,50,316,44,24,50,134,46,,,,*4E
###2023-11-09 13:10:18.938769$GLGSV,2,1,05,70,49,019,35,71,48,291,48,80,19,089,44,85,56,202,48*68
###2023-11-09 13:10:18.940374$GLGSV,2,2,05,86,54,306,46,,,,,,,,,,,,*58
###2023-11-09 13:10:18.942927$GAGSV,1,1,04,07,73,259,45,08,48,043,44,13,63,161,45,26,57,310,44*67
###2023-11-09 13:10:18.945495$GBGSV,2,1,06,11,22,180,43,14,65,009,45,24,21,132,44,26,23,080,42*60
###2023-11-09 13:10:18.947441$GBGSV,2,2,06,28,43,286,46,33,59,305,47,,,,,,,,*67
###2023-11-09 13:10:18.948863$GNVTG,76.03,T,,M,4.18,N,7.74,K,A*18
###2023-11-09 13:10:19.031377$GNGGA,131019.20,3611.0502854,N,07544.8757348,W,1,24,0.6,0.582,M,-39.961,M,0.0,*6A
###2023-11-09 13:10:19.033977$GPGSV,2,1,07,05,20,091,43,10,19,293,43,13,24,045,40,15,61,037,45*74
###2023-11-09 13:10:19.036244$GPGSV,2,2,07,18,78,277,47,23,50,316,45,24,50,134,46,,,,*4F
###2023-11-09 13:10:19.038852$GLGSV,2,1,05,70,49,019,35,71,48,291,48,80,19,089,44,85,56,202,49*69
###2023-11-09 13:10:19.040469$GLGSV,2,2,05,86,54,306,47,,,,,,,,,,,,*59
###2023-11-09 13:10:19.043031$GAGSV,1,1,04,07,73,259,45,08,48,043,44,13,63,161,45,26,57,310,44*67
###2023-11-09 13:10:19.045612$GBGSV,2,1,06,11,22,180,43,14,65,009,45,24,21,132,45,26,23,080,42*61
###2023-11-09 13:10:19.047564$GBGSV,2,2,06,28,43,286,46,33,59,305,47,,,,,,,,*67
###2023-11-09 13:10:19.048999$GNVTG,72.32,T,,M,4.08,N,7.56,K,A*1F
###2023-11-09 13:10:19.130496$GNGGA,131019.30,3611.0503208,N,07544.8756033,W,1,24,0.6,0.608,M,-39.961,M,0.0,*66
###2023-11-09 13:10:19.133104$GPGSV,2,1,07,05,20,091,43,10,19,293,43,13,24,045,40,15,61,037,45*74
###2023-11-09 13:10:19.135361$GPGSV,2,2,07,18,78,277,47,23,50,316,45,24,50,134,46,,,,*4F
###2023-11-09 13:10:19.137955$GLGSV,2,1,05,70,49,019,35,71,48,291,48,80,19,089,44,85,56,202,49*69
###2023-11-09 13:10:19.139559$GLGSV,2,2,05,86,54,306,47,,,,,,,,,,,,*59
###2023-11-09 13:10:19.142121$GAGSV,1,1,04,07,73,259,45,08,48,043,45,13,63,161,45,26,57,310,44*66
###2023-11-09 13:10:19.144689$GBGSV,2,1,06,11,22,180,43,14,65,009,45,24,21,132,44,26,23,080,42*60
###2023-11-09 13:10:19.146616$GBGSV,2,2,06,28,43,286,46,33,59,305,47,,,,,,,,*67
###2023-11-09 13:10:19.148062$GNVTG,70.45,T,,M,4.06,N,7.52,K,A*17
###2023-11-09 13:10:19.229486$GNGGA,131019.40,3611.0503582,N,07544.8754697,W,1,24,0.6,0.626,M,-39.961,M,0.0,*62
###2023-11-09 13:10:19.232062$GPGSV,2,1,07,05,20,091,43,10,19,293,43,13,24,045,40,15,61,037,45*74
###2023-11-09 13:10:19.234306$GPGSV,2,2,07,18,78,277,47,23,50,316,45,24,50,134,46,,,,*4F
###2023-11-09 13:10:19.236856$GLGSV,2,1,05,70,49,019,35,71,48,291,48,80,19,089,44,85,56,202,48*68
###2023-11-09 13:10:19.238462$GLGSV,2,2,05,86,54,306,47,,,,,,,,,,,,*59
###2023-11-09 13:10:19.241009$GAGSV,1,1,04,07,73,259,45,08,48,043,45,13,63,161,45,26,57,310,44*66
###2023-11-09 13:10:19.243573$GBGSV,2,1,06,11,22,180,42,14,65,009,45,24,21,132,44,26,23,080,42*61
###2023-11-09 13:10:19.245499$GBGSV,2,2,06,28,43,286,46,33,59,305,47,,,,,,,,*67
###2023-11-09 13:10:19.246932$GNVTG,71.09,T,,M,4.22,N,7.81,K,A*16
###2023-11-09 13:10:19.329653$GNGGA,131019.50,3611.0503922,N,07544.8753300,W,1,24,0.6,0.636,M,-39.961,M,0.0,*68
###2023-11-09 13:10:19.332261$GPGSV,2,1,07,05,20,091,43,10,19,293,43,13,24,045,41,15,61,037,45*75
###2023-11-09 13:10:19.334527$GPGSV,2,2,07,18,78,277,47,23,50,316,45,24,50,134,45,,,,*4C
###2023-11-09 13:10:19.337113$GLGSV,2,1,05,70,49,019,35,71,48,291,48,80,19,089,44,85,56,202,48*68
###2023-11-09 13:10:19.338730$GLGSV,2,2,05,86,54,306,48,,,,,,,,,,,,*56
###2023-11-09 13:10:19.341306$GAGSV,1,1,04,07,73,259,45,08,48,043,45,13,63,161,45,26,57,310,45*67
###2023-11-09 13:10:19.343887$GBGSV,2,1,06,11,22,180,42,14,65,009,45,24,21,132,44,26,23,080,42*61
###2023-11-09 13:10:19.345820$GBGSV,2,2,06,28,43,286,47,33,59,305,48,,,,,,,,*69
###2023-11-09 13:10:19.347294$GNVTG,74.77,T,,M,4.33,N,8.03,K,A*1F
###2023-11-09 13:10:19.430602$GNGGA,131019.60,3611.0504203,N,07544.8751865,W,1,24,0.6,0.635,M,-39.961,M,0.0,*6D
###2023-11-09 13:10:19.433199$GPGSV,2,1,07,05,20,091,43,10,19,293,43,13,24,045,41,15,61,037,45*75
###2023-11-09 13:10:19.435470$GPGSV,2,2,07,18,78,277,47,23,50,316,45,24,50,134,45,,,,*4C
###2023-11-09 13:10:19.438097$GLGSV,2,1,05,70,49,019,35,71,48,291,48,80,19,089,44,85,56,202,48*68
###2023-11-09 13:10:19.439714$GLGSV,2,2,05,86,54,306,48,,,,,,,,,,,,*56
###2023-11-09 13:10:19.442293$GAGSV,1,1,04,07,73,259,45,08,48,043,45,13,63,161,45,26,57,310,45*67
###2023-11-09 13:10:19.444878$GBGSV,2,1,06,11,22,180,42,14,65,009,45,24,21,132,44,26,23,080,42*61
###2023-11-09 13:10:19.446817$GBGSV,2,2,06,28,43,286,47,33,59,305,47,,,,,,,,*66
###2023-11-09 13:10:19.448266$GNVTG,77.42,T,,M,4.32,N,7.99,K,A*17
###2023-11-09 13:10:19.529483$GNGGA,131019.70,3611.0504475,N,07544.8750440,W,1,24,0.6,0.627,M,-39.961,M,0.0,*62
###2023-11-09 13:10:19.532042$GPGSV,2,1,07,05,20,091,43,10,19,293,44,13,24,045,40,15,61,037,45*73
###2023-11-09 13:10:19.534287$GPGSV,2,2,07,18,78,277,47,23,50,316,44,24,50,134,45,,,,*4D
###2023-11-09 13:10:19.536849$GLGSV,2,1,05,70,49,019,35,71,48,291,48,80,19,089,45,85,56,202,48*69
###2023-11-09 13:10:19.538453$GLGSV,2,2,05,86,54,306,48,,,,,,,,,,,,*56
###2023-11-09 13:10:19.541020$GAGSV,1,1,04,07,73,259,45,08,48,043,45,13,63,161,45,26,57,310,45*67
###2023-11-09 13:10:19.543592$GBGSV,2,1,06,11,22,180,42,14,65,009,45,24,21,132,45,26,23,080,42*60
###2023-11-09 13:10:19.545515$GBGSV,2,2,06,28,43,286,47,33,59,305,47,,,,,,,,*66
###2023-11-09 13:10:19.546956$GNVTG,75.50,T,,M,4.28,N,7.92,K,A*16
###2023-11-09 13:10:19.629888$GNGGA,131019.80,3611.0504798,N,07544.8749041,W,1,24,0.6,0.627,M,-39.961,M,0.0,*60
###2023-11-09 13:10:19.632484$GPGSV,2,1,07,05,20,091,43,10,19,293,44,13,24,045,40,15,61,037,45*73
###2023-11-09 13:10:19.634749$GPGSV,2,2,07,18,78,277,47,23,50,316,44,24,50,134,46,,,,*4E
###2023-11-09 13:10:19.637349$GLGSV,2,1,05,70,49,019,35,71,48,291,48,80,19,089,45,85,56,202,49*68
###2023-11-09 13:10:19.638964$GLGSV,2,2,05,86,54,306,47,,,,,,,,,,,,*59
###2023-11-09 13:10:19.641542$GAGSV,1,1,04,07,73,259,45,08,48,043,45,13,63,161,45,26,57,310,44*66
###2023-11-09 13:10:19.644143$GBGSV,2,1,06,11,22,180,43,14,65,009,45,24,21,132,45,26,23,080,42*61
###2023-11-09 13:10:19.646097$GBGSV,2,2,06,28,43,286,47,33,59,305,47,,,,,,,,*66
###2023-11-09 13:10:19.647539$GNVTG,72.13,T,,M,4.24,N,7.85,K,A*1C
###2023-11-09 13:10:19.729627$GNGGA,131019.90,3611.0505209,N,07544.8747681,W,1,24,0.6,0.647,M,-39.961,M,0.0,*6F
###2023-11-09 13:10:19.732211$GPGSV,2,1,07,05,20,091,43,10,19,293,44,13,24,045,40,15,61,037,45*73
###2023-11-09 13:10:19.734752$GPGSV,2,2,07,18,78,277,46,23,50,316,44,24,50,134,46,,,,*4F
###2023-11-09 13:10:19.737335$GLGSV,2,1,05,70,49,019,35,71,48,291,48,80,19,089,45,85,56,202,49*68
###2023-11-09 13:10:19.738945$GLGSV,2,2,05,86,54,306,47,,,,,,,,,,,,*59
###2023-11-09 13:10:19.741510$GAGSV,1,1,04,07,73,259,45,08,48,043,45,13,63,161,45,26,57,310,44*66
###2023-11-09 13:10:19.744090$GBGSV,2,1,06,11,22,180,43,14,65,009,45,24,21,132,45,26,23,080,42*61
###2023-11-09 13:10:19.746026$GBGSV,2,2,06,28,43,286,47,33,59,305,47,,,,,,,,*66
###2023-11-09 13:10:19.747470$GNVTG,66.26,T,,M,4.26,N,7.88,K,A*10
###2023-11-09 13:10:19.832351$GNGGA,131020.00,3611.0505709,N,07544.8746337,W,1,24,0.6,0.674,M,-39.961,M,0.0,*60
###2023-11-09 13:10:19.834939$GPGSV,2,1,07,05,20,091,43,10,19,293,44,13,24,045,40,15,61,037,45*73
