###2023-11-09 13:10:26.448424$GNVTG,351.08,T,,M,4.16,N,7.70,K,A*2F
###2023-11-09 13:10:26.530497$GNGGA,131026.70,3611.0558181,N,07544.8687853,W,1,24,0.6,0.751,M,-39.960,M,0.0,*6D
###2023-11-09 13:10:26.533118$GPGSV,2,1,07,05,20,091,43,10,19,294,42,13,23,045,42,15,60,038,44*78
###2023-11-09 13:10:26.535397$GPGSV,2,2,07,18,78,277,46,23,50,316,46,24,50,134,46,,,,*4D
###2023-11-09 13:10:26.538002$GLGSV,2,1,05,70,49,019,36,71,48,291,47,80,19,089,45,85,56,202,48*65
###2023-11-09 13:10:26.539627$GLGSV,2,2,05,86,54,306,48,,,,,,,,,,,,*56
###2023-11-09 13:10:26.542207$GAGSV,1,1,04,07,73,259,45,08,48,043,45,13,63,161,45,26,57,310,44*66
###2023-11-09 13:10:26.544800$GBGSV,2,1,06,11,22,180,42,14,65,009,45,24,21,132,44,26,23,080,44*67
###2023-11-09 13:10:26.546748$GBGSV,2,2,06,28,43,286,47,33,59,305,47,,,,,,,,*66
###2023-11-09 13:10:26.548253$GNVTG,347.34,T,,M,4.22,N,7.81,K,A*2E
###2023-11-09 13:10:26.631255$GNGGA,131026.80,3611.0559300,N,07544.8688224,W,1,24,0.6,0.755,M,-39.960,M,0.0,*69
###2023-11-09 13:10:26.633862$GPGSV,2,1,07,05,20,091,43,10,19,294,42,13,23,045,42,15,60,038,44*78
###2023-11-09 13:10:26.636127$GPGSV,2,2,07,18,78,277,46,23,50,316,46,24,50,134,46,,,,*4D
###2023-11-09 13:10:26.638719$GLGSV,2,1,05,70,49,019,36,71,48,291,47,80,19,089,45,85,56,202,48*65
###2023-11-09 13:10:26.640327$GLGSV,2,2,05,86,54,306,48,,,,,,,,,,,,*56
###2023-11-09 13:10:26.642900$GAGSV,1,1,04,07,73,259,45,08,48,043,45,13,63,161,45,26,57,310,44*66
###2023-11-09 13:10:26.645490$GBGSV,2,1,06,11,22,180,42,14,65,009,45,24,21,132,44,26,23,080,44*67
###2023-11-09 13:10:26.647446$GBGSV,2,2,06,28,43,286,47,33,59,305,47,,,,,,,,*66
###2023-11-09 13:10:26.648915$GNVTG,343.27,T,,M,4.16,N,7.70,K,A*21
###2023-11-09 13:10:26.730273$GNGGA,131026.90,3611.0560389,N,07544.8688647,W,1,24,0.6,0.757,M,-39.960,M,0.0,*60
###2023-11-09 13:10:26.732879$GPGSV,2,1,07,05,20,091,43,10,19,294,42,13,23,045,42,15,60,038,44*78
###2023-11-09 13:10:26.735130$GPGSV,2,2,07,18,78,277,46,23,50,316,46,24,50,134,46,,,,*4D
###2023-11-09 13:10:26.737719$GLGSV,2,1,05,70,49,019,36,71,48,291,47,80,19,089,45,85,56,202,48*65
###2023-11-09 13:10:26.739326$GLGSV,2,2,05,86,54,306,48,,,,,,,,,,,,*56
###2023-11-09 13:10:26.741882$GAGSV,1,1,04,07,73,259,45,08,48,043,45,13,63,161,45,26,57,310,44*66
###2023-11-09 13:10:26.744442$GBGSV,2,1,06,11,22,180,42,14,65,009,45,24,21,132,44,26,23,080,44*67
###2023-11-09 13:10:26.746366$GBGSV,2,2,06,28,43,286,47,33,59,305,47,,,,,,,,*66
###2023-11-09 13:10:26.747869$GNVTG,342.05,T,,M,4.10,N,7.60,K,A*27
###2023-11-09 13:10:26.833244$GNGGA,131027.00,3611.0561467,N,07544.8689079,W,1,24,0.6,0.754,M,-39.960,M,0.0,*67
###2023-11-09 13:10:26.835860$GPGSV,2,1,07,05,20,091,43,10,19,294,43,13,23,045,42,15,60,038,44*79
###2023-11-09 13:10:26.838137$GPGSV,2,2,07,18,78,277,46,23,50,316,46,24,50,134,46,,,,*4D
###2023-11-09 13:10:26.840720$GLGSV,2,1,05,70,49,019,36,71,48,291,48,80,19,089,45,85,56,202,48*6A
###2023-11-09 13:10:26.842327$GLGSV,2,2,05,86,54,306,48,,,,,,,,,,,,*56
###2023-11-09 13:10:26.844901$GAGSV,1,1,04,07,73,259,45,08,48,043,45,13,63,161,45,26,57,310,44*66
###2023-11-09 13:10:26.847537$GBGSV,2,1,06,11,22,180,42,14,65,009,45,24,21,132,44,26,23,080,44*67
###2023-11-09 13:10:26.849492$GBGSV,2,2,06,28,43,286,47,33,59,305,46,,,,,,,,*67
###2023-11-09 13:10:26.850966$GNVTG,342.38,T,,M,4.08,N,7.56,K,A*25
###2023-11-09 13:10:26.931245$GNGGA,131027.10,3611.0562542,N,07544.8689500,W,1,24,0.6,0.751,M,-39.960,M,0.0,*6D
###2023-11-09 13:10:26.933839$GPGSV,2,1,07,05,20,091,43,10,19,294,43,13,23,045,42,15,60,038,44*79
###2023-11-09 13:10:26.936088$GPGSV,2,2,07,18,78,277,46,23,50,316,46,24,50,134,46,,,,*4D
###2023-11-09 13:10:26.938678$GLGSV,2,1,05,70,49,019,36,71,48,291,48,80,19,089,45,85,56,202,48*6A
###2023-11-09 13:10:26.940291$GLGSV,2,2,05,86,54,306,48,,,,,,,,,,,,*56
###2023-11-09 13:10:26.942857$GAGSV,1,1,04,07,73,259,45,08,48,043,45,13,63,161,45,26,57,310,44*66
###2023-11-09 13:10:26.945436$GBGSV,2,1,06,11,22,180,42,14,65,009,45,24,21,132,44,26,23,080,44*67
###2023-11-09 13:10:26.947382$GBGSV,2,2,06,28,43,286,47,33,59,305,46,,,,,,,,*67
###2023-11-09 13:10:26.948852$GNVTG,342.96,T,,M,4.06,N,7.52,K,A*2B
###2023-11-09 13:10:27.033225$GNGGA,131027.20,3611.0563615,N,07544.8689889,W,1,24,0.6,0.755,M,-39.960,M,0.0,*66
###2023-11-09 13:10:27.035796$GPGSV,2,1,07,05,20,091,43,10,19,294,42,13,23,045,42,15,60,038,44*78
###2023-11-09 13:10:27.038053$GPGSV,2,2,07,18,78,277,46,23,50,316,46,24,50,134,46,,,,*4D
###2023-11-09 13:10:27.040615$GLGSV,2,1,05,70,49,019,36,71,48,291,48,80,19,089,46,85,56,202,48*69
###2023-11-09 13:10:27.042218$GLGSV,2,2,05,86,54,306,48,,,,,,,,,,,,*56
###2023-11-09 13:10:27.044773$GAGSV,1,1,04,07,73,259,45,08,48,043,45,13,63,161,45,26,57,310,44*66
###2023-11-09 13:10:27.047344$GBGSV,2,1,06,11,22,180,42,14,65,009,45,24,21,132,44,26,23,080,44*67
###2023-11-09 13:10:27.049265$GBGSV,2,2,06,28,43,286,47,33,59,305,46,,,,,,,,*67
###2023-11-09 13:10:27.050718$GNVTG,344.38,T,,M,4.02,N,7.45,K,A*2B
###2023-11-09 13:10:27.131254$GNGGA,131027.30,3611.0564686,N,07544.8690269,W,1,24,0.6,0.755,M,-39.960,M,0.0,*66
###2023-11-09 13:10:27.133846$GPGSV,2,1,07,05,20,091,44,10,19,294,42,13,23,045,43,15,60,038,44*7E
###2023-11-09 13:10:27.136094$GPGSV,2,2,07,18,78,277,46,23,50,316,46,24,50,134,46,,,,*4D
###2023-11-09 13:10:27.138687$GLGSV,2,1,05,70,49,019,36,71,48,291,48,80,19,089,46,85,56,202,48*69
###2023-11-09 13:10:27.140296$GLGSV,2,2,05,86,54,306,48,,,,,,,,,,,,*56
###2023-11-09 13:10:27.142863$GAGSV,1,1,04,07,73,259,45,08,48,043,45,13,63,161,45,26,57,310,44*66
###2023-11-09 13:10:27.145432$GBGSV,2,1,06,11,22,180,42,14,65,009,45,24,21,132,44,26,23,080,45*66
###2023-11-09 13:10:27.147373$GBGSV,2,2,06,28,43,286,47,33,59,305,46,,,,,,,,*67
###2023-11-09 13:10:27.148841$GNVTG,343.72,T,,M,4.02,N,7.45,K,A*22
###2023-11-09 13:10:27.231366$GNGGA,131027.40,3611.0565737,N,07544.8690709,W,1,24,0.6,0.741,M,-39.960,M,0.0,*6D
###2023-11-09 13:10:27.233952$GPGSV,2,1,07,05,20,091,44,10,19,294,42,13,23,045,43,15,60,038,44*7E
###2023-11-09 13:10:27.236211$GPGSV,2,2,07,18,78,277,46,23,50,316,45,24,50,134,46,,,,*4E
###2023-11-09 13:10:27.238801$GLGSV,2,1,05,70,49,019,36,71,48,291,48,80,19,089,46,85,56,202,48*69
###2023-11-09 13:10:27.240414$GLGSV,2,2,05,86,54,306,48,,,,,,,,,,,,*56
###2023-11-09 13:10:27.242968$GAGSV,1,1,04,07,73,259,45,08,48,043,45,13,63,161,45,26,57,310,44*66
###2023-11-09 13:10:27.245539$GBGSV,2,1,06,11,22,180,42,14,65,009,45,24,21,132,44,26,23,080,45*66
###2023-11-09 13:10:27.247485$GBGSV,2,2,06,28,43,286,47,33,59,305,46,,,,,,,,*67
###2023-11-09 13:10:27.248941$GNVTG,339.38,T,,M,3.98,N,7.38,K,A*2F
###2023-11-09 13:10:27.331354$GNGGA,131027.50,3611.0566744,N,07544.8691236,W,1,24,0.6,0.724,M,-39.960,M,0.0,*60
###2023-11-09 13:10:27.333928$GPGSV,2,1,07,05,20,091,44,10,19,294,42,13,23,045,43,15,60,038,45*7F
###2023-11-09 13:10:27.336167$GPGSV,2,2,07,18,78,277,46,23,50,316,45,24,50,134,46,,,,*4E
###2023-11-09 13:10:27.338751$GLGSV,2,1,05,70,49,019,36,71,48,291,48,80,19,089,46,85,56,202,48*69
###2023-11-09 13:10:27.340356$GLGSV,2,2,05,86,54,306,48,,,,,,,,,,,,*56
###2023-11-09 13:10:27.342905$GAGSV,1,1,04,07,73,259,45,08,48,043,45,13,63,161,45,26,57,310,44*66
###2023-11-09 13:10:27.345473$GBGSV,2,1,06,11,22,180,42,14,65,009,45,24,21,132,44,26,23,080,45*66
###2023-11-09 13:10:27.347448$GBGSV,2,2,06,28,43,286,47,33,59,305,46,,,,,,,,*67
###2023-11-09 13:10:27.348914$GNVTG,335.04,T,,M,3.91,N,7.24,K,A*28
###2023-11-09 13:10:27.430518$GNGGA,131027.60,3611.0567715,N,07544.8691810,W,1,24,0.6,0.703,M,-39.960,M,0.0,*6D
###2023-11-09 13:10:27.433128$GPGSV,2,1,07,05,20,091,44,10,19,294,42,13,23,045,43,15,60,038,45*7F
###2023-11-09 13:10:27.435387$GPGSV,2,2,07,18,78,277,46,23,50,316,45,24,50,134,46,,,,*4E
###2023-11-09 13:10:27.437981$GLGSV,2,1,05,70,49,019,36,71,48,291,48,80,19,089,46,85,56,202,48*69
###2023-11-09 13:10:27.439595$GLGSV,2,2,05,86,54,306,48,,,,,,,,,,,,*56
###2023-11-09 13:10:27.442173$GAGSV,1,1,04,07,73,259,45,08,48,043,45,13,63,161,45,26,57,310,44*66
###2023-11-09 13:10:27.444749$GBGSV,2,1,06,11,22,180,42,14,65,009,45,24,21,132,44,26,23,080,45*66
###2023-11-09 13:10:27.446684$GBGSV,2,2,06,28,43,286,47,33,59,305,46,,,,,,,,*67
###2023-11-09 13:10:27.448466$GNVTG,334.19,T,,M,3.87,N,7.16,K,A*23
###2023-11-09 13:10:27.531239$GNGGA,131027.70,3611.0568667,N,07544.8692376,W,1,24,0.6,0.689,M,-39.960,M,0.0,*6C
###2023-11-09 13:10:27.533834$GPGSV,2,1,07,05,20,091,44,10,19,294,42,13,23,045,43,15,60,038,45*7F
###2023-11-09 13:10:27.536093$GPGSV,2,2,07,18,78,277,46,23,50,316,45,24,50,134,46,,,,*4E
###2023-11-09 13:10:27.538704$GLGSV,2,1,05,70,49,019,36,71,48,291,49,80,19,089,46,85,56,202,48*68
###2023-11-09 13:10:27.540323$GLGSV,2,2,05,86,54,306,48,,,,,,,,,,,,*56
###2023-11-09 13:10:27.542900$GAGSV,1,1,04,07,73,259,45,08,48,043,45,13,63,161,45,26,57,310,44*66
###2023-11-09 13:10:27.545487$GBGSV,2,1,06,11,22,180,42,14,65,009,45,24,21,132,44,26,23,080,45*66
###2023-11-09 13:10:27.547442$GBGSV,2,2,06,28,43,286,47,33,59,305,46,,,,,,,,*67
###2023-11-09 13:10:27.548915$GNVTG,334.64,T,,M,3.77,N,6.98,K,A*21
