###2023-11-09 13:07:08.041609$GLGSV,2,2,05,86,52,309,48,,,,,,,,,,,,*5F
###2023-11-09 13:07:08.044181$GAGSV,1,1,04,07,72,257,45,08,49,042,44,13,64,160,44,26,56,311,45*6E
###2023-11-09 13:07:08.046762$GBGSV,2,1,06,11,24,180,41,14,65,006,45,24,19,133,43,26,23,082,42*64
###2023-11-09 13:07:08.048723$GBGSV,2,2,06,28,43,289,47,33,58,302,47,,,,,,,,*6F
###2023-11-09 13:07:08.050195$GNVTG,297.78,T,,M,1.21,N,2.23,K,A*21
###2023-11-09 13:07:08.134341$GNGGA,130708.30,3611.0504710,N,07544.9776903,W,1,24,0.6,1.299,M,-39.961,M,0.0,*6F
###2023-11-09 13:07:08.136925$GPGSV,2,1,07,05,21,090,42,10,18,292,43,13,24,045,42,15,62,037,46*77
###2023-11-09 13:07:08.139189$GPGSV,2,2,07,18,77,281,47,23,50,315,45,24,49,136,46,,,,*40
###2023-11-09 13:07:08.141765$GLGSV,2,1,05,70,50,016,36,71,48,288,48,80,17,091,44,85,58,203,48*6C
###2023-11-09 13:07:08.143381$GLGSV,2,2,05,86,52,309,48,,,,,,,,,,,,*5F
###2023-11-09 13:07:08.145951$GAGSV,1,1,04,07,72,257,45,08,49,042,44,13,64,160,44,26,56,311,45*6E
###2023-11-09 13:07:08.148551$GBGSV,2,1,06,11,24,180,41,14,65,006,45,24,19,133,43,26,23,082,42*64
###2023-11-09 13:07:08.150481$GBGSV,2,2,06,28,43,289,47,33,58,302,47,,,,,,,,*6F
###2023-11-09 13:07:08.151958$GNVTG,291.41,T,,M,1.21,N,2.23,K,A*2D
###2023-11-09 13:07:08.228617$GNGGA,130708.40,3611.0504852,N,07544.9777270,W,1,24,0.6,1.296,M,-39.961,M,0.0,*60
###2023-11-09 13:07:08.231209$GPGSV,2,1,07,05,21,090,42,10,18,292,43,13,24,045,42,15,62,037,46*77
###2023-11-09 13:07:08.233456$GPGSV,2,2,07,18,77,281,47,23,50,315,45,24,49,136,46,,,,*40
###2023-11-09 13:07:08.236021$GLGSV,2,1,05,70,50,016,36,71,48,288,48,80,17,091,44,85,58,203,48*6C
###2023-11-09 13:07:08.237638$GLGSV,2,2,05,86,52,309,48,,,,,,,,,,,,*5F
###2023-11-09 13:07:08.240199$GAGSV,1,1,04,07,72,257,45,08,49,042,44,13,64,160,44,26,56,311,45*6E
###2023-11-09 13:07:08.242774$GBGSV,2,1,06,11,24,180,41,14,65,006,45,24,19,133,43,26,23,082,42*64
###2023-11-09 13:07:08.244706$GBGSV,2,2,06,28,43,289,47,33,58,302,47,,,,,,,,*6F
###2023-11-09 13:07:08.246177$GNVTG,298.98,T,,M,1.15,N,2.12,K,A*25
###2023-11-09 13:07:08.328256$GNGGA,130708.50,3611.0505018,N,07544.9777603,W,1,24,0.6,1.285,M,-39.961,M,0.0,*64
###2023-11-09 13:07:08.330836$GPGSV,2,1,07,05,21,090,42,10,18,292,42,13,24,045,41,15,62,037,46*75
###2023-11-09 13:07:08.333083$GPGSV,2,2,07,18,77,281,47,23,50,315,45,24,49,136,46,,,,*40
###2023-11-09 13:07:08.335655$GLGSV,2,1,05,70,50,016,36,71,48,288,48,80,17,091,44,85,58,203,48*6C
###2023-11-09 13:07:08.337276$GLGSV,2,2,05,86,52,309,47,,,,,,,,,,,,*50
###2023-11-09 13:07:08.339854$GAGSV,1,1,04,07,72,257,45,08,49,042,44,13,64,160,44,26,56,311,45*6E
###2023-11-09 13:07:08.342440$GBGSV,2,1,06,11,24,180,42,14,65,006,45,24,19,133,43,26,23,082,42*67
###2023-11-09 13:07:08.344367$GBGSV,2,2,06,28,43,289,47,33,58,302,47,,,,,,,,*6F
###2023-11-09 13:07:08.345830$GNVTG,303.44,T,,M,1.11,N,2.05,K,A*25
###2023-11-09 13:07:08.428364$GNGGA,130708.60,3611.0505204,N,07544.9777910,W,1,24,0.6,1.268,M,-39.961,M,0.0,*66
###2023-11-09 13:07:08.430957$GPGSV,2,1,07,05,21,090,42,10,18,292,43,13,24,045,41,15,62,037,46*74
###2023-11-09 13:07:08.433201$GPGSV,2,2,07,18,77,281,47,23,50,315,45,24,49,136,46,,,,*40
###2023-11-09 13:07:08.435771$GLGSV,2,1,05,70,50,016,36,71,48,288,48,80,17,091,44,85,58,203,48*6C
###2023-11-09 13:07:08.437377$GLGSV,2,2,05,86,52,309,47,,,,,,,,,,,,*50
###2023-11-09 13:07:08.439947$GAGSV,1,1,04,07,72,257,45,08,49,042,44,13,64,160,44,26,56,311,45*6E
###2023-11-09 13:07:08.442529$GBGSV,2,1,06,11,24,180,42,14,65,006,45,24,19,133,43,26,23,082,42*67
###2023-11-09 13:07:08.444458$GBGSV,2,2,06,28,43,289,47,33,58,302,47,,,,,,,,*6F
###2023-11-09 13:07:08.445925$GNVTG,309.29,T,,M,1.09,N,2.02,K,A*2A
###2023-11-09 13:07:08.527269$GNGGA,130708.70,3611.0505419,N,07544.9778170,W,1,24,0.6,1.250,M,-39.961,M,0.0,*67
###2023-11-09 13:07:08.529883$GPGSV,2,1,07,05,21,090,42,10,18,292,43,13,24,045,41,15,62,037,46*74
###2023-11-09 13:07:08.532142$GPGSV,2,2,07,18,77,281,47,23,50,315,45,24,49,136,46,,,,*40
###2023-11-09 13:07:08.534745$GLGSV,2,1,05,70,50,016,36,71,48,288,48,80,17,091,43,85,58,203,48*6B
###2023-11-09 13:07:08.536349$GLGSV,2,2,05,86,52,309,47,,,,,,,,,,,,*50
###2023-11-09 13:07:08.538948$GAGSV,1,1,04,07,72,257,45,08,49,042,44,13,64,160,44,26,56,311,45*6E
###2023-11-09 13:07:08.541529$GBGSV,2,1,06,11,24,180,42,14,65,006,45,24,19,133,43,26,23,082,41*64
###2023-11-09 13:07:08.543473$GBGSV,2,2,06,28,43,289,47,33,58,302,47,,,,,,,,*6F
###2023-11-09 13:07:08.544939$GNVTG,321.52,T,,M,1.05,N,1.94,K,A*2C
###2023-11-09 13:07:08.627277$GNGGA,130708.80,3611.0505653,N,07544.9778384,W,1,24,0.6,1.227,M,-39.961,M,0.0,*6D
###2023-11-09 13:07:08.629887$GPGSV,2,1,07,05,21,090,42,10,18,292,43,13,24,045,41,15,62,037,46*74
###2023-11-09 13:07:08.632173$GPGSV,2,2,07,18,77,281,47,23,50,315,45,24,49,136,45,,,,*43
###2023-11-09 13:07:08.634755$GLGSV,2,1,05,70,50,016,36,71,48,288,48,80,17,091,44,85,58,203,48*6C
###2023-11-09 13:07:08.636360$GLGSV,2,2,05,86,52,309,47,,,,,,,,,,,,*50
###2023-11-09 13:07:08.638952$GAGSV,1,1,04,07,72,257,45,08,49,042,44,13,64,160,45,26,56,311,44*6E
###2023-11-09 13:07:08.641534$GBGSV,2,1,06,11,24,180,42,14,65,006,46,24,19,133,43,26,23,082,41*67
###2023-11-09 13:07:08.643467$GBGSV,2,2,06,28,43,289,47,33,58,302,47,,,,,,,,*6F
###2023-11-09 13:07:08.644938$GNVTG,324.98,T,,M,1.01,N,1.87,K,A*29
###2023-11-09 13:07:08.728381$GNGGA,130708.90,3611.0505890,N,07544.9778560,W,1,24,0.6,1.200,M,-39.961,M,0.0,*64
###2023-11-09 13:07:08.730970$GPGSV,2,1,07,05,21,090,42,10,18,292,43,13,24,045,41,15,62,037,46*74
###2023-11-09 13:07:08.733210$GPGSV,2,2,07,18,77,281,47,23,50,315,45,24,49,136,45,,,,*43
###2023-11-09 13:07:08.735777$GLGSV,2,1,05,70,50,016,36,71,48,288,47,80,17,091,44,85,58,203,48*63
###2023-11-09 13:07:08.737393$GLGSV,2,2,05,86,52,309,47,,,,,,,,,,,,*50
###2023-11-09 13:07:08.739959$GAGSV,1,1,04,07,72,257,45,08,49,042,44,13,64,160,45,26,56,311,44*6E
###2023-11-09 13:07:08.742548$GBGSV,2,1,06,11,24,180,42,14,65,006,46,24,19,133,43,26,23,082,41*67
###2023-11-09 13:07:08.744478$GBGSV,2,2,06,28,43,289,47,33,58,302,47,,,,,,,,*6F
###2023-11-09 13:07:08.745938$GNVTG,324.98,T,,M,0.95,N,1.76,K,A*2B
###2023-11-09 13:07:08.831385$GNGGA,130709.00,3611.0506114,N,07544.9778691,W,1,24,0.6,1.170,M,-39.961,M,0.0,*63
###2023-11-09 13:07:08.833984$GPGSV,2,1,07,05,21,090,42,10,18,292,43,13,24,045,41,15,62,037,46*74
###2023-11-09 13:07:08.836251$GPGSV,2,2,07,18,77,281,47,23,50,315,45,24,49,136,46,,,,*40
###2023-11-09 13:07:08.838850$GLGSV,2,1,05,70,50,016,36,71,48,288,47,80,17,091,44,85,58,203,48*63
###2023-11-09 13:07:08.840472$GLGSV,2,2,05,86,52,309,47,,,,,,,,,,,,*50
###2023-11-09 13:07:08.843037$GAGSV,1,1,04,07,72,257,45,08,49,042,44,13,64,160,45,26,56,311,45*6F
###2023-11-09 13:07:08.845629$GBGSV,2,1,06,11,24,180,42,14,65,006,46,24,19,133,43,26,23,082,41*67
###2023-11-09 13:07:08.847600$GBGSV,2,2,06,28,43,289,47,33,58,302,47,,,,,,,,*6F
###2023-11-09 13:07:08.849066$GNVTG,324.98,T,,M,0.80,N,1.48,K,A*22
###2023-11-09 13:07:08.931374$GNGGA,130709.10,3611.0506310,N,07544.9778790,W,1,24,0.6,1.136,M,-39.961,M,0.0,*66
###2023-11-09 13:07:08.933972$GPGSV,2,1,07,05,21,090,42,10,18,292,43,13,24,045,41,15,62,037,46*74
###2023-11-09 13:07:08.936240$GPGSV,2,2,07,18,77,281,47,23,50,315,45,24,49,136,46,,,,*40
###2023-11-09 13:07:08.938829$GLGSV,2,1,05,70,50,016,36,71,48,288,47,80,17,091,44,85,58,203,48*63
###2023-11-09 13:07:08.940444$GLGSV,2,2,05,86,52,309,47,,,,,,,,,,,,*50
###2023-11-09 13:07:08.943017$GAGSV,1,1,04,07,72,257,45,08,49,042,44,13,64,160,44,26,56,311,44*6F
###2023-11-09 13:07:08.945590$GBGSV,2,1,06,11,24,180,42,14,65,006,46,24,19,133,43,26,23,082,41*67
###2023-11-09 13:07:08.947549$GBGSV,2,2,06,28,43,289,47,33,58,302,47,,,,,,,,*6F
###2023-11-09 13:07:08.949034$GNVTG,324.98,T,,M,0.68,N,1.26,K,A*2C
###2023-11-09 13:07:09.031214$GNGGA,130709.20,3611.0506487,N,07544.9778856,W,1,24,0.6,1.104,M,-39.961,M,0.0,*68
###2023-11-09 13:07:09.033795$GPGSV,2,1,07,05,21,090,42,10,18,292,43,13,24,045,40,15,62,037,46*75
###2023-11-09 13:07:09.036041$GPGSV,2,2,07,18,77,281,47,23,50,315,45,24,49,136,46,,,,*40
###2023-11-09 13:07:09.038625$GLGSV,2,1,05,70,50,016,36,71,48,288,47,80,17,091,44,85,58,203,48*63
###2023-11-09 13:07:09.040534$GLGSV,2,2,05,86,52,309,47,,,,,,,,,,,,*50
###2023-11-09 13:07:09.043093$GAGSV,1,1,04,07,72,257,45,08,49,042,44,13,64,160,44,26,56,311,44*6F
###2023-11-09 13:07:09.045669$GBGSV,2,1,06,11,24,180,42,14,65,006,46,24,19,133,43,26,23,082,41*67
###2023-11-09 13:07:09.047614$GBGSV,2,2,06,28,43,289,47,33,58,302,47,,,,,,,,*6F
###2023-11-09 13:07:09.049080$GNVTG,324.98,T,,M,0.62,N,1.15,K,A*26
###2023-11-09 13:07:09.129282$GNGGA,130709.30,3611.0506654,N,07544.9778886,W,1,24,0.6,1.067,M,-39.961,M,0.0,*6C
###2023-11-09 13:07:09.131886$GPGSV,2,1,07,05,21,090,42,10,18,292,43,13,24,045,40,15,62,037,46*75
###2023-11-09 13:07:09.134134$GPGSV,2,2,07,18,77,281,47,23,50,315,45,24,49,136,46,,,,*40
###2023-11-09 13:07:09.136721$GLGSV,2,1,05,70,50,016,36,71,48,288,47,80,17,091,44,85,58,203,48*63
###2023-11-09 13:07:09.138345$GLGSV,2,2,05,86,52,309,47,,,,,,,,,,,,*50
