###2023-11-09 13:06:45.747422$GBGSV,2,2,06,28,43,289,47,33,58,302,47,,,,,,,,*6F
###2023-11-09 13:06:45.748880$GNVTG,33.47,T,,M,0.70,N,1.30,K,A*15
###2023-11-09 13:06:45.832862$GNGGA,130646.00,3611.0453732,N,07544.9785054,W,1,24,0.6,0.991,M,-39.961,M,0.0,*61
###2023-11-09 13:06:45.835465$GPGSV,2,1,07,05,21,090,42,10,18,292,43,13,24,045,42,15,62,037,45*74
###2023-11-09 13:06:45.837748$GPGSV,2,2,07,18,77,281,47,23,50,315,45,24,49,136,46,,,,*40
###2023-11-09 13:06:45.840320$GLGSV,2,1,05,70,50,016,35,71,48,288,48,80,17,091,44,85,58,203,48*6F
###2023-11-09 13:06:45.841929$GLGSV,2,2,05,86,52,309,47,,,,,,,,,,,,*50
###2023-11-09 13:06:45.844501$GAGSV,1,1,04,07,72,255,45,08,49,042,44,13,64,160,44,26,56,311,45*6C
###2023-11-09 13:06:45.847111$GBGSV,2,1,06,11,24,180,41,14,65,006,45,24,19,133,44,26,23,082,43*62
###2023-11-09 13:06:45.849062$GBGSV,2,2,06,28,43,289,47,33,58,302,47,,,,,,,,*6F
###2023-11-09 13:06:45.850496$GNVTG,33.47,T,,M,0.68,N,1.26,K,A*1B
###2023-11-09 13:06:45.935962$GNGGA,130646.10,3611.0453920,N,07544.9785021,W,1,24,0.6,1.012,M,-39.961,M,0.0,*6C
###2023-11-09 13:06:45.938575$GPGSV,2,1,07,05,21,090,42,10,18,292,43,13,24,045,42,15,62,037,45*74
###2023-11-09 13:06:45.940808$GPGSV,2,2,07,18,77,281,47,23,50,315,45,24,49,136,46,,,,*40
###2023-11-09 13:06:45.943367$GLGSV,2,1,05,70,50,016,35,71,48,288,48,80,17,091,44,85,58,203,48*6F
###2023-11-09 13:06:45.944972$GLGSV,2,2,05,86,52,309,47,,,,,,,,,,,,*50
###2023-11-09 13:06:45.947542$GAGSV,1,1,04,07,72,255,45,08,49,042,44,13,64,160,44,26,56,311,45*6C
###2023-11-09 13:06:45.950105$GBGSV,2,1,06,11,24,180,41,14,65,006,45,24,19,133,44,26,23,082,43*62
###2023-11-09 13:06:45.952045$GBGSV,2,2,06,28,43,289,47,33,58,302,48,,,,,,,,*60
###2023-11-09 13:06:45.953487$GNVTG,33.47,T,,M,0.64,N,1.19,K,A*1B
###2023-11-09 13:06:46.031099$GNGGA,130646.20,3611.0454109,N,07544.9785005,W,1,24,0.6,1.038,M,-39.961,M,0.0,*65
###2023-11-09 13:06:46.033681$GPGSV,2,1,07,05,21,090,42,10,18,292,43,13,24,045,42,15,62,037,45*74
###2023-11-09 13:06:46.035945$GPGSV,2,2,07,18,77,281,47,23,50,315,45,24,49,136,46,,,,*40
###2023-11-09 13:06:46.038542$GLGSV,2,1,05,70,50,016,35,71,48,288,48,80,17,091,44,85,58,203,48*6F
###2023-11-09 13:06:46.040153$GLGSV,2,2,05,86,52,309,47,,,,,,,,,,,,*50
###2023-11-09 13:06:46.042727$GAGSV,1,1,04,07,72,255,45,08,49,042,44,13,64,160,44,26,56,311,45*6C
###2023-11-09 13:06:46.045319$GBGSV,2,1,06,11,24,180,41,14,65,006,45,24,19,133,44,26,23,082,43*62
###2023-11-09 13:06:46.047285$GBGSV,2,2,06,28,43,289,47,33,58,302,47,,,,,,,,*6F
###2023-11-09 13:06:46.048723$GNVTG,33.47,T,,M,0.66,N,1.22,K,A*11
###2023-11-09 13:06:46.133001$GNGGA,130646.30,3611.0454276,N,07544.9784998,W,1,24,0.6,1.063,M,-39.961,M,0.0,*6D
###2023-11-09 13:06:46.135590$GPGSV,2,1,07,05,21,090,42,10,18,292,43,13,24,045,42,15,62,037,45*74
###2023-11-09 13:06:46.137861$GPGSV,2,2,07,18,77,281,47,23,50,315,45,24,49,136,46,,,,*40
###2023-11-09 13:06:46.140447$GLGSV,2,1,05,70,50,016,35,71,48,288,48,80,17,091,44,85,58,203,48*6F
###2023-11-09 13:06:46.142062$GLGSV,2,2,05,86,52,309,47,,,,,,,,,,,,*50
###2023-11-09 13:06:46.144634$GAGSV,1,1,04,07,72,255,46,08,49,042,44,13,64,160,44,26,56,311,45*6F
###2023-11-09 13:06:46.147231$GBGSV,2,1,06,11,24,180,41,14,65,006,45,24,19,133,44,26,23,082,43*62
###2023-11-09 13:06:46.149171$GBGSV,2,2,06,28,43,289,47,33,58,302,47,,,,,,,,*6F
###2023-11-09 13:06:46.150598$GNVTG,33.47,T,,M,0.52,N,0.97,K,A*19
###2023-11-09 13:06:46.230959$GNGGA,130646.40,3611.0454430,N,07544.9785036,W,1,24,0.6,1.082,M,-39.961,M,0.0,*6D
###2023-11-09 13:06:46.233543$GPGSV,2,1,07,05,21,090,42,10,18,292,43,13,24,045,42,15,62,037,45*74
###2023-11-09 13:06:46.235799$GPGSV,2,2,07,18,77,281,47,23,50,315,45,24,49,136,46,,,,*40
###2023-11-09 13:06:46.238381$GLGSV,2,1,05,70,50,016,35,71,48,288,48,80,17,091,44,85,58,203,48*6F
###2023-11-09 13:06:46.239989$GLGSV,2,2,05,86,52,309,47,,,,,,,,,,,,*50
###2023-11-09 13:06:46.242557$GAGSV,1,1,04,07,72,255,46,08,49,042,44,13,64,160,44,26,56,311,45*6F
###2023-11-09 13:06:46.245131$GBGSV,2,1,06,11,24,180,43,14,65,006,45,24,19,133,44,26,23,082,43*60
###2023-11-09 13:06:46.247071$GBGSV,2,2,06,28,43,289,47,33,58,302,47,,,,,,,,*6F
###2023-11-09 13:06:46.248495$GNVTG,33.47,T,,M,0.58,N,1.08,K,A*14
###2023-11-09 13:06:46.330870$GNGGA,130646.50,3611.0454593,N,07544.9785107,W,1,24,0.6,1.100,M,-39.961,M,0.0,*6C
###2023-11-09 13:06:46.333478$GPGSV,2,1,07,05,21,090,42,10,18,292,42,13,24,045,42,15,62,037,45*75
###2023-11-09 13:06:46.335754$GPGSV,2,2,07,18,77,281,47,23,50,315,45,24,49,136,46,,,,*40
###2023-11-09 13:06:46.338353$GLGSV,2,1,05,70,50,016,35,71,48,288,48,80,17,091,44,85,58,203,48*6F
###2023-11-09 13:06:46.339964$GLGSV,2,2,05,86,52,309,48,,,,,,,,,,,,*5F
###2023-11-09 13:06:46.342529$GAGSV,1,1,04,07,72,255,46,08,49,042,44,13,64,160,44,26,56,311,45*6F
###2023-11-09 13:06:46.345117$GBGSV,2,1,06,11,24,180,43,14,65,006,45,24,19,133,44,26,23,082,43*60
###2023-11-09 13:06:46.347079$GBGSV,2,2,06,28,43,289,47,33,58,302,47,,,,,,,,*6F
###2023-11-09 13:06:46.348517$GNVTG,33.47,T,,M,0.64,N,1.19,K,A*1B
###2023-11-09 13:06:46.432483$GNGGA,130646.60,3611.0454778,N,07544.9785198,W,1,24,0.6,1.115,M,-39.961,M,0.0,*6A
###2023-11-09 13:06:46.435071$GPGSV,2,1,07,05,21,090,42,10,18,292,42,13,24,045,42,15,62,037,45*75
###2023-11-09 13:06:46.437336$GPGSV,2,2,07,18,77,281,47,23,50,315,45,24,49,136,46,,,,*40
###2023-11-09 13:06:46.439914$GLGSV,2,1,05,70,50,016,35,71,48,288,48,80,17,091,44,85,58,203,48*6F
###2023-11-09 13:06:46.441523$GLGSV,2,2,05,86,52,309,48,,,,,,,,,,,,*5F
###2023-11-09 13:06:46.444087$GAGSV,1,1,04,07,72,255,46,08,49,042,44,13,64,160,44,26,56,311,45*6F
###2023-11-09 13:06:46.446666$GBGSV,2,1,06,11,24,180,43,14,65,006,45,24,19,133,44,26,23,082,43*60
###2023-11-09 13:06:46.448609$GBGSV,2,2,06,28,43,289,47,33,58,302,47,,,,,,,,*6F
###2023-11-09 13:06:46.450037$GNVTG,33.47,T,,M,0.78,N,1.44,K,A*1E
###2023-11-09 13:06:46.530953$GNGGA,130646.70,3611.0454991,N,07544.9785305,W,1,24,0.6,1.128,M,-39.961,M,0.0,*6A
###2023-11-09 13:06:46.533521$GPGSV,2,1,07,05,21,090,42,10,18,292,42,13,24,045,42,15,62,037,45*75
###2023-11-09 13:06:46.535753$GPGSV,2,2,07,18,77,281,47,23,50,315,45,24,49,136,46,,,,*40
###2023-11-09 13:06:46.538329$GLGSV,2,1,05,70,50,016,35,71,48,288,48,80,17,091,44,85,58,203,48*6F
###2023-11-09 13:06:46.539923$GLGSV,2,2,05,86,52,309,47,,,,,,,,,,,,*50
###2023-11-09 13:06:46.542485$GAGSV,1,1,04,07,72,255,46,08,49,042,44,13,64,160,44,26,56,311,45*6F
###2023-11-09 13:06:46.545052$GBGSV,2,1,06,11,24,180,43,14,65,006,45,24,19,133,44,26,23,082,43*60
###2023-11-09 13:06:46.547000$GBGSV,2,2,06,28,43,289,47,33,58,302,47,,,,,,,,*6F
###2023-11-09 13:06:46.548416$GNVTG,33.47,T,,M,0.86,N,1.58,K,A*12
###2023-11-09 13:06:46.630871$GNGGA,130646.80,3611.0455232,N,07544.9785406,W,1,24,0.6,1.145,M,-39.961,M,0.0,*69
###2023-11-09 13:06:46.633477$GPGSV,2,1,07,05,21,090,42,10,18,292,42,13,24,045,42,15,62,037,45*75
###2023-11-09 13:06:46.635736$GPGSV,2,2,07,18,77,281,47,23,50,315,45,24,49,136,46,,,,*40
###2023-11-09 13:06:46.638325$GLGSV,2,1,05,70,50,016,35,71,48,288,48,80,17,091,43,85,58,203,48*68
###2023-11-09 13:06:46.639940$GLGSV,2,2,05,86,52,309,47,,,,,,,,,,,,*50
###2023-11-09 13:06:46.642521$GAGSV,1,1,04,07,72,255,46,08,49,042,44,13,64,160,44,26,56,311,45*6F
###2023-11-09 13:06:46.645107$GBGSV,2,1,06,11,24,180,42,14,65,006,45,24,19,133,44,26,23,082,43*61
###2023-11-09 13:06:46.647049$GBGSV,2,2,06,28,43,289,47,33,58,302,47,,,,,,,,*6F
###2023-11-09 13:06:46.648485$GNVTG,33.47,T,,M,0.97,N,1.80,K,A*17
###2023-11-09 13:06:46.731845$GNGGA,130646.90,3611.0455494,N,07544.9785501,W,1,24,0.6,1.154,M,-39.961,M,0.0,*64
###2023-11-09 13:06:46.734427$GPGSV,2,1,07,05,21,090,42,10,18,292,42,13,24,045,42,15,62,037,45*75
###2023-11-09 13:06:46.736678$GPGSV,2,2,07,18,77,281,47,23,50,315,45,24,49,136,46,,,,*40
###2023-11-09 13:06:46.739272$GLGSV,2,1,05,70,50,016,35,71,48,288,48,80,17,091,43,85,58,203,48*68
###2023-11-09 13:06:46.740879$GLGSV,2,2,05,86,52,309,47,,,,,,,,,,,,*50
###2023-11-09 13:06:46.743449$GAGSV,1,1,04,07,72,255,45,08,49,042,44,13,64,160,44,26,56,311,45*6C
###2023-11-09 13:06:46.746028$GBGSV,2,1,06,11,24,180,42,14,65,006,45,24,19,133,43,26,23,082,43*66
###2023-11-09 13:06:46.747984$GBGSV,2,2,06,28,43,289,47,33,58,302,47,,,,,,,,*6F
###2023-11-09 13:06:46.749721$GNVTG,33.47,T,,M,0.97,N,1.80,K,A*17
###2023-11-09 13:06:46.831845$GNGGA,130647.00,3611.0455736,N,07544.9785586,W,1,24,0.6,1.155,M,-39.961,M,0.0,*69
###2023-11-09 13:06:46.834443$GPGSV,2,1,07,05,21,090,42,10,18,292,42,13,24,045,42,15,62,037,45*75
###2023-11-09 13:06:46.836704$GPGSV,2,2,07,18,77,281,47,23,50,315,45,24,49,136,46,,,,*40
###2023-11-09 13:06:46.839291$GLGSV,2,1,05,70,50,016,35,71,48,288,47,80,17,091,43,85,58,203,48*67
###2023-11-09 13:06:46.840895$GLGSV,2,2,05,86,52,309,48,,,,,,,,,,,,*5F
###2023-11-09 13:06:46.843456$GAGSV,1,1,04,07,72,255,45,08,49,042,44,13,64,160,44,26,56,311,45*6C
###2023-11-09 13:06:46.846020$GBGSV,2,1,06,11,24,180,41,14,65,006,45,24,19,133,43,26,23,082,43*65
###2023-11-09 13:06:46.847963$GBGSV,2,2,06,28,43,289,47,33,58,302,47,,,,,,,,*6F
