###2023-11-09 13:08:01.632070$GPGSV,2,2,07,18,77,281,46,23,50,315,46,24,49,136,45,,,,*41
###2023-11-09 13:08:01.634665$GLGSV,2,1,05,70,50,017,36,71,48,290,49,80,17,091,44,85,58,203,47*6A
###2023-11-09 13:08:01.636273$GLGSV,2,2,05,86,52,309,48,,,,,,,,,,,,*5F
###2023-11-09 13:08:01.638864$GAGSV,1,1,04,07,72,258,44,08,49,042,45,13,64,160,45,26,56,310,44*60
###2023-11-09 13:08:01.641446$GBGSV,2,1,06,11,23,180,40,14,65,008,46,24,20,132,42,26,23,081,44*60
###2023-11-09 13:08:01.643377$GBGSV,2,2,06,28,43,287,46,33,59,304,47,,,,,,,,*67
###2023-11-09 13:08:01.644839$GNVTG,269.90,T,,M,4.08,N,7.56,K,A*2F
###2023-11-09 13:08:01.728150$GNGGA,130801.90,3611.0453538,N,07544.9848485,W,1,24,0.6,1.005,M,-39.961,M,0.0,*6E
###2023-11-09 13:08:01.730766$GPGSV,2,1,07,05,21,090,43,10,18,292,43,13,24,045,42,15,62,037,46*76
###2023-11-09 13:08:01.733037$GPGSV,2,2,07,18,77,281,46,23,50,315,46,24,49,136,44,,,,*40
###2023-11-09 13:08:01.735621$GLGSV,2,1,05,70,50,017,36,71,48,290,49,80,17,091,44,85,58,203,47*6A
###2023-11-09 13:08:01.737248$GLGSV,2,2,05,86,52,309,48,,,,,,,,,,,,*5F
###2023-11-09 13:08:01.739814$GAGSV,1,1,04,07,72,258,44,08,49,042,45,13,64,160,45,26,56,310,44*60
###2023-11-09 13:08:01.742390$GBGSV,2,1,06,11,23,180,40,14,65,008,46,24,20,132,41,26,23,081,43*64
###2023-11-09 13:08:01.744322$GBGSV,2,2,06,28,43,287,46,33,59,304,47,,,,,,,,*67
###2023-11-09 13:08:01.745781$GNVTG,269.56,T,,M,4.12,N,7.63,K,A*28
###2023-11-09 13:08:01.830981$GNGGA,130802.00,3611.0453477,N,07544.9849891,W,1,24,0.6,1.010,M,-39.961,M,0.0,*62
###2023-11-09 13:08:01.833560$GPGSV,2,1,07,05,21,090,43,10,18,292,44,13,24,045,42,15,62,037,46*71
###2023-11-09 13:08:01.835796$GPGSV,2,2,07,18,77,281,46,23,50,315,46,24,49,136,44,,,,*40
###2023-11-09 13:08:01.838372$GLGSV,2,1,05,70,50,017,36,71,48,290,49,80,17,091,44,85,58,203,47*6A
###2023-11-09 13:08:01.839976$GLGSV,2,2,05,86,52,309,48,,,,,,,,,,,,*5F
###2023-11-09 13:08:01.842517$GAGSV,1,1,04,07,72,258,44,08,49,042,45,13,64,160,45,26,56,310,44*60
###2023-11-09 13:08:01.845068$GBGSV,2,1,06,11,23,180,39,14,65,008,46,24,20,132,41,26,23,081,44*6D
###2023-11-09 13:08:01.846995$GBGSV,2,2,06,28,43,287,46,33,59,304,47,,,,,,,,*67
###2023-11-09 13:08:01.848444$GNVTG,264.78,T,,M,4.12,N,7.63,K,A*29
###2023-11-09 13:08:01.930850$GNGGA,130802.10,3611.0453355,N,07544.9851298,W,1,24,0.6,1.016,M,-39.961,M,0.0,*68
###2023-11-09 13:08:01.933432$GPGSV,2,1,07,05,21,090,43,10,18,292,44,13,24,045,42,15,62,037,46*71
###2023-11-09 13:08:01.935683$GPGSV,2,2,07,18,77,281,46,23,50,315,46,24,49,136,44,,,,*40
###2023-11-09 13:08:01.938265$GLGSV,2,1,05,70,50,017,36,71,48,290,49,80,17,091,44,85,58,203,47*6A
###2023-11-09 13:08:01.939876$GLGSV,2,2,05,86,52,309,48,,,,,,,,,,,,*5F
###2023-11-09 13:08:01.942438$GAGSV,1,1,04,07,72,258,44,08,49,042,45,13,64,160,45,26,56,310,44*60
###2023-11-09 13:08:01.945001$GBGSV,2,1,06,11,23,180,39,14,65,008,46,24,20,132,41,26,23,081,43*6A
###2023-11-09 13:08:01.946948$GBGSV,2,2,06,28,43,287,46,33,59,304,48,,,,,,,,*68
###2023-11-09 13:08:01.948412$GNVTG,263.53,T,,M,4.16,N,7.70,K,A*21
###2023-11-09 13:08:02.031977$GNGGA,130802.20,3611.0453227,N,07544.9852726,W,1,24,0.6,1.018,M,-39.961,M,0.0,*62
###2023-11-09 13:08:02.034567$GPGSV,2,1,07,05,21,090,43,10,18,292,44,13,24,045,42,15,62,037,46*71
###2023-11-09 13:08:02.036813$GPGSV,2,2,07,18,77,281,46,23,50,315,46,24,49,136,44,,,,*40
###2023-11-09 13:08:02.039406$GLGSV,2,1,05,70,50,017,36,71,48,290,49,80,17,091,44,85,58,203,47*6A
###2023-11-09 13:08:02.041014$GLGSV,2,2,05,86,52,309,48,,,,,,,,,,,,*5F
###2023-11-09 13:08:02.043580$GAGSV,1,1,04,07,72,258,44,08,49,042,45,13,64,160,45,26,56,310,44*60
###2023-11-09 13:08:02.046162$GBGSV,2,1,06,11,23,180,39,14,65,008,46,24,20,132,42,26,23,081,43*69
###2023-11-09 13:08:02.048107$GBGSV,2,2,06,28,43,287,46,33,59,304,48,,,,,,,,*68
###2023-11-09 13:08:02.049567$GNVTG,264.32,T,,M,4.24,N,7.85,K,A*2A
###2023-11-09 13:08:02.132583$GNGGA,130802.30,3611.0453116,N,07544.9854186,W,1,24,0.6,1.024,M,-39.961,M,0.0,*67
###2023-11-09 13:08:02.135151$GPGSV,2,1,07,05,21,090,42,10,18,292,44,13,24,045,42,15,62,037,46*70
###2023-11-09 13:08:02.137405$GPGSV,2,2,07,18,77,281,46,23,50,315,46,24,49,136,45,,,,*41
###2023-11-09 13:08:02.139966$GLGSV,2,1,05,70,50,017,36,71,48,290,49,80,17,091,44,85,58,203,47*6A
###2023-11-09 13:08:02.141560$GLGSV,2,2,05,86,52,309,48,,,,,,,,,,,,*5F
###2023-11-09 13:08:02.144102$GAGSV,1,1,04,07,72,258,44,08,49,042,45,13,64,160,45,26,56,310,44*60
###2023-11-09 13:08:02.146658$GBGSV,2,1,06,11,23,180,41,14,65,008,46,24,20,132,43,26,23,081,43*67
###2023-11-09 13:08:02.148581$GBGSV,2,2,06,28,43,287,46,33,59,304,48,,,,,,,,*68
###2023-11-09 13:08:02.150029$GNVTG,265.34,T,,M,4.35,N,8.06,K,A*29
###2023-11-09 13:08:02.229122$GNGGA,130802.40,3611.0453054,N,07544.9855675,W,1,24,0.6,1.025,M,-39.961,M,0.0,*6C
###2023-11-09 13:08:02.231704$GPGSV,2,1,07,05,21,090,42,10,18,292,44,13,24,045,42,15,62,037,45*73
###2023-11-09 13:08:02.233944$GPGSV,2,2,07,18,77,281,46,23,50,315,46,24,49,136,45,,,,*41
###2023-11-09 13:08:02.236507$GLGSV,2,1,05,70,50,017,36,71,48,290,48,80,17,091,44,85,58,203,47*6B
###2023-11-09 13:08:02.238122$GLGSV,2,2,05,86,52,309,48,,,,,,,,,,,,*5F
###2023-11-09 13:08:02.240690$GAGSV,1,1,04,07,72,258,44,08,49,042,45,13,64,160,45,26,56,310,44*60
###2023-11-09 13:08:02.243261$GBGSV,2,1,06,11,23,180,41,14,65,008,45,24,20,132,43,26,23,081,43*64
###2023-11-09 13:08:02.245195$GBGSV,2,2,06,28,43,287,46,33,59,304,47,,,,,,,,*67
###2023-11-09 13:08:02.246654$GNVTG,269.14,T,,M,4.37,N,8.10,K,A*22
###2023-11-09 13:08:02.329895$GNGGA,130802.50,3611.0453033,N,07544.9857198,W,1,24,0.6,1.024,M,-39.961,M,0.0,*6B
###2023-11-09 13:08:02.332491$GPGSV,2,1,07,05,21,090,42,10,18,292,44,13,24,045,42,15,62,037,45*73
###2023-11-09 13:08:02.334744$GPGSV,2,2,07,18,77,281,46,23,50,315,46,24,49,136,45,,,,*41
###2023-11-09 13:08:02.337330$GLGSV,2,1,05,70,50,017,36,71,48,290,48,80,17,091,44,85,58,203,47*6B
###2023-11-09 13:08:02.338940$GLGSV,2,2,05,86,52,309,48,,,,,,,,,,,,*5F
###2023-11-09 13:08:02.341505$GAGSV,1,1,04,07,72,258,44,08,49,042,45,13,64,160,45,26,56,310,44*60
###2023-11-09 13:08:02.344073$GBGSV,2,1,06,11,23,180,41,14,65,008,45,24,20,132,43,26,23,081,43*64
###2023-11-09 13:08:02.346007$GBGSV,2,2,06,28,43,287,46,33,59,304,47,,,,,,,,*67
###2023-11-09 13:08:02.347487$GNVTG,269.13,T,,M,4.53,N,8.39,K,A*2C
###2023-11-09 13:08:02.429976$GNGGA,130802.60,3611.0453027,N,07544.9858735,W,1,24,0.6,1.029,M,-39.961,M,0.0,*6E
###2023-11-09 13:08:02.432552$GPGSV,2,1,07,05,21,090,42,10,18,292,44,13,24,045,42,15,62,037,45*73
###2023-11-09 13:08:02.434789$GPGSV,2,2,07,18,77,281,46,23,50,315,46,24,49,136,45,,,,*41
###2023-11-09 13:08:02.437373$GLGSV,2,1,05,70,50,017,36,71,48,290,48,80,17,091,44,85,58,203,47*6B
###2023-11-09 13:08:02.438970$GLGSV,2,2,05,86,52,309,48,,,,,,,,,,,,*5F
###2023-11-09 13:08:02.441524$GAGSV,1,1,04,07,72,258,44,08,49,042,45,13,64,160,45,26,56,310,45*61
###2023-11-09 13:08:02.444093$GBGSV,2,1,06,11,23,180,41,14,65,008,45,24,20,132,43,26,23,081,43*64
###2023-11-09 13:08:02.446016$GBGSV,2,2,06,28,43,287,45,33,59,304,47,,,,,,,,*64
###2023-11-09 13:08:02.447487$GNVTG,270.71,T,,M,4.49,N,8.32,K,A*20
###2023-11-09 13:08:02.529003$GNGGA,130802.70,3611.0453025,N,07544.9860249,W,1,24,0.6,1.031,M,-39.961,M,0.0,*61
###2023-11-09 13:08:02.531593$GPGSV,2,1,07,05,21,090,42,10,18,292,44,13,24,045,42,15,62,037,46*70
###2023-11-09 13:08:02.533845$GPGSV,2,2,07,18,77,281,46,23,50,315,46,24,49,136,45,,,,*41
###2023-11-09 13:08:02.536412$GLGSV,2,1,05,70,50,017,36,71,48,290,49,80,17,091,44,85,58,203,47*6A
###2023-11-09 13:08:02.538038$GLGSV,2,2,05,86,52,309,48,,,,,,,,,,,,*5F
###2023-11-09 13:08:02.540605$GAGSV,1,1,04,07,72,258,44,08,49,042,45,13,64,160,45,26,56,310,45*61
###2023-11-09 13:08:02.543177$GBGSV,2,1,06,11,23,180,41,14,65,008,45,24,20,132,43,26,23,081,43*64
###2023-11-09 13:08:02.545110$GBGSV,2,2,06,28,43,287,46,33,59,304,47,,,,,,,,*67
###2023-11-09 13:08:02.546570$GNVTG,269.41,T,,M,4.39,N,8.14,K,A*28
###2023-11-09 13:08:02.629869$GNGGA,130802.80,3611.0453007,N,07544.9861770,W,1,24,0.6,1.034,M,-39.961,M,0.0,*65
###2023-11-09 13:08:02.632452$GPGSV,2,1,07,05,21,090,42,10,18,292,44,13,24,045,42,15,62,037,46*70
###2023-11-09 13:08:02.635005$GPGSV,2,2,07,18,77,281,46,23,50,315,46,24,49,136,44,,,,*40
###2023-11-09 13:08:02.637604$GLGSV,2,1,05,70,50,017,36,71,48,290,48,80,17,091,44,85,58,203,47*6B
###2023-11-09 13:08:02.639228$GLGSV,2,2,05,86,52,309,49,,,,,,,,,,,,*5E
###2023-11-09 13:08:02.641807$GAGSV,1,1,04,07,72,258,44,08,49,042,46,13,64,160,45,26,56,310,45*62
###2023-11-09 13:08:02.644386$GBGSV,2,1,06,11,23,180,41,14,65,008,45,24,20,132,42,26,23,081,43*65
###2023-11-09 13:08:02.646316$GBGSV,2,2,06,28,43,287,46,33,59,304,47,,,,,,,,*67
###2023-11-09 13:08:02.647793$GNVTG,269.20,T,,M,4.51,N,8.35,K,A*22
###2023-11-09 13:08:02.729001$GNGGA,130802.90,3611.0452957,N,07544.9863291,W,1,24,0.6,1.051,M,-39.961,M,0.0,*62
###2023-11-09 13:08:02.731573$GPGSV,2,1,07,05,21,090,42,10,18,292,44,13,24,045,42,15,62,037,46*70
###2023-11-09 13:08:02.733812$GPGSV,2,2,07,18,77,281,46,23,50,315,46,24,49,136,44,,,,*40
