###2023-11-09 13:07:54.942044$GAGSV,1,1,04,07,72,258,44,08,49,042,45,13,64,160,45,26,56,310,45*61
###2023-11-09 13:07:54.944632$GBGSV,2,1,06,11,23,180,41,14,65,008,45,24,20,132,43,26,23,081,44*63
###2023-11-09 13:07:54.946573$GBGSV,2,2,06,28,43,287,46,33,59,304,48,,,,,,,,*68
###2023-11-09 13:07:54.948095$GNVTG,266.16,T,,M,5.81,N,10.76,K,A*1A
###2023-11-09 13:07:55.031396$GNGGA,130755.20,3611.0475755,N,07544.9752612,W,1,24,0.6,1.078,M,-39.961,M,0.0,*64
###2023-11-09 13:07:55.033991$GPGSV,2,1,07,05,21,090,42,10,18,292,44,13,24,045,43,15,62,037,46*71
###2023-11-09 13:07:55.036248$GPGSV,2,2,07,18,77,281,46,23,50,315,45,24,49,136,45,,,,*42
###2023-11-09 13:07:55.038840$GLGSV,2,1,05,70,50,017,36,71,48,288,48,80,17,091,44,85,58,203,48*6D
###2023-11-09 13:07:55.040465$GLGSV,2,2,05,86,52,309,48,,,,,,,,,,,,*5F
###2023-11-09 13:07:55.043059$GAGSV,1,1,04,07,72,258,44,08,49,042,45,13,64,160,45,26,56,310,45*61
###2023-11-09 13:07:55.045642$GBGSV,2,1,06,11,23,180,40,14,65,008,45,24,20,132,43,26,23,081,44*62
###2023-11-09 13:07:55.047604$GBGSV,2,2,06,28,43,287,46,33,59,304,48,,,,,,,,*68
###2023-11-09 13:07:55.049115$GNVTG,263.23,T,,M,5.87,N,10.87,K,A*11
###2023-11-09 13:07:55.130121$GNGGA,130755.30,3611.0475534,N,07544.9754602,W,1,24,0.6,1.089,M,-39.961,M,0.0,*69
###2023-11-09 13:07:55.132710$GPGSV,2,1,07,05,21,090,42,10,18,292,44,13,24,045,43,15,62,037,46*71
###2023-11-09 13:07:55.134960$GPGSV,2,2,07,18,77,281,46,23,50,315,45,24,49,136,45,,,,*42
###2023-11-09 13:07:55.137553$GLGSV,2,1,05,70,50,017,36,71,48,288,48,80,17,091,44,85,58,203,48*6D
###2023-11-09 13:07:55.139162$GLGSV,2,2,05,86,52,309,48,,,,,,,,,,,,*5F
###2023-11-09 13:07:55.141726$GAGSV,1,1,04,07,72,258,44,08,49,042,45,13,64,160,45,26,56,310,45*61
###2023-11-09 13:07:55.144299$GBGSV,2,1,06,11,23,180,40,14,65,008,45,24,20,132,43,26,23,081,44*62
###2023-11-09 13:07:55.146231$GBGSV,2,2,06,28,43,287,46,33,59,304,48,,,,,,,,*68
###2023-11-09 13:07:55.147746$GNVTG,260.99,T,,M,5.83,N,10.80,K,A*10
###2023-11-09 13:07:55.229230$GNGGA,130755.40,3611.0475314,N,07544.9756583,W,1,24,0.6,1.097,M,-39.961,M,0.0,*6D
###2023-11-09 13:07:55.231802$GPGSV,2,1,07,05,21,090,42,10,18,292,43,13,24,045,43,15,62,037,46*76
###2023-11-09 13:07:55.234041$GPGSV,2,2,07,18,77,281,46,23,50,315,45,24,49,136,45,,,,*42
###2023-11-09 13:07:55.236603$GLGSV,2,1,05,70,50,017,35,71,48,288,48,80,17,091,44,85,58,203,48*6E
###2023-11-09 13:07:55.238211$GLGSV,2,2,05,86,52,309,48,,,,,,,,,,,,*5F
###2023-11-09 13:07:55.240762$GAGSV,1,1,04,07,72,258,44,08,49,042,45,13,64,160,45,26,56,310,45*61
###2023-11-09 13:07:55.243320$GBGSV,2,1,06,11,23,180,41,14,65,008,45,24,20,132,43,26,23,081,43*64
###2023-11-09 13:07:55.245256$GBGSV,2,2,06,28,43,287,46,33,59,304,48,,,,,,,,*68
###2023-11-09 13:07:55.246741$GNVTG,263.20,T,,M,5.83,N,10.80,K,A*11
###2023-11-09 13:07:55.328390$GNGGA,130755.50,3611.0475130,N,07544.9758586,W,1,24,0.6,1.100,M,-39.961,M,0.0,*6C
###2023-11-09 13:07:55.330998$GPGSV,2,1,07,05,21,090,42,10,18,292,43,13,24,045,42,15,62,037,46*77
###2023-11-09 13:07:55.333249$GPGSV,2,2,07,18,77,281,46,23,50,315,45,24,49,136,45,,,,*42
###2023-11-09 13:07:55.335815$GLGSV,2,1,05,70,50,017,35,71,48,288,47,80,17,091,44,85,58,203,48*61
###2023-11-09 13:07:55.337438$GLGSV,2,2,05,86,52,309,47,,,,,,,,,,,,*50
###2023-11-09 13:07:55.339995$GAGSV,1,1,04,07,72,258,44,08,49,042,45,13,64,160,45,26,56,310,45*61
###2023-11-09 13:07:55.342568$GBGSV,2,1,06,11,23,180,42,14,65,008,45,24,20,132,44,26,23,081,43*60
###2023-11-09 13:07:55.344506$GBGSV,2,2,06,28,43,287,46,33,59,304,47,,,,,,,,*67
###2023-11-09 13:07:55.346010$GNVTG,263.58,T,,M,5.95,N,11.02,K,A*12
###2023-11-09 13:07:55.429154$GNGGA,130755.60,3611.0474981,N,07544.9760621,W,1,24,0.6,1.091,M,-39.961,M,0.0,*60
###2023-11-09 13:07:55.431751$GPGSV,2,1,07,05,21,090,42,10,18,292,43,13,24,045,42,15,62,037,46*77
###2023-11-09 13:07:55.434018$GPGSV,2,2,07,18,77,281,46,23,50,315,45,24,49,136,45,,,,*42
###2023-11-09 13:07:55.436599$GLGSV,2,1,05,70,50,017,35,71,48,288,48,80,17,091,44,85,58,203,47*61
###2023-11-09 13:07:55.438221$GLGSV,2,2,05,86,52,309,48,,,,,,,,,,,,*5F
###2023-11-09 13:07:55.440798$GAGSV,1,1,04,07,72,258,44,08,49,042,45,13,64,160,45,26,56,310,45*61
###2023-11-09 13:07:55.443389$GBGSV,2,1,06,11,23,180,42,14,65,008,45,24,20,132,44,26,23,081,43*60
###2023-11-09 13:07:55.445328$GBGSV,2,2,06,28,43,287,46,33,59,304,47,,,,,,,,*67
###2023-11-09 13:07:55.446827$GNVTG,265.91,T,,M,5.99,N,11.09,K,A*16
###2023-11-09 13:07:55.528239$GNGGA,130755.70,3611.0474869,N,07544.9762666,W,1,24,0.6,1.074,M,-39.961,M,0.0,*6C
###2023-11-09 13:07:55.530810$GPGSV,2,1,07,05,21,090,42,10,18,292,43,13,24,045,42,15,62,037,46*77
###2023-11-09 13:07:55.533051$GPGSV,2,2,07,18,77,281,46,23,50,315,45,24,49,136,45,,,,*42
###2023-11-09 13:07:55.535612$GLGSV,2,1,05,70,50,017,35,71,48,288,48,80,17,091,44,85,58,203,47*61
###2023-11-09 13:07:55.537228$GLGSV,2,2,05,86,52,309,48,,,,,,,,,,,,*5F
###2023-11-09 13:07:55.539787$GAGSV,1,1,04,07,72,258,44,08,49,042,45,13,64,160,45,26,56,310,45*61
###2023-11-09 13:07:55.542357$GBGSV,2,1,06,11,23,180,42,14,65,008,45,24,20,132,44,26,23,081,43*60
###2023-11-09 13:07:55.544288$GBGSV,2,2,06,28,43,287,46,33,59,304,47,,,,,,,,*67
###2023-11-09 13:07:55.545782$GNVTG,265.93,T,,M,5.99,N,11.09,K,A*14
###2023-11-09 13:07:55.628137$GNGGA,130755.80,3611.0474740,N,07544.9764687,W,1,24,0.6,1.061,M,-39.961,M,0.0,*6A
###2023-11-09 13:07:55.630735$GPGSV,2,1,07,05,21,090,42,10,18,292,43,13,24,045,42,15,62,037,46*77
###2023-11-09 13:07:55.632992$GPGSV,2,2,07,18,77,281,46,23,50,315,45,24,49,136,45,,,,*42
###2023-11-09 13:07:55.635569$GLGSV,2,1,05,70,50,017,35,71,48,288,48,80,17,091,44,85,58,203,47*61
###2023-11-09 13:07:55.637189$GLGSV,2,2,05,86,52,309,48,,,,,,,,,,,,*5F
###2023-11-09 13:07:55.639763$GAGSV,1,1,04,07,72,258,44,08,49,042,45,13,64,160,45,26,56,310,45*61
###2023-11-09 13:07:55.642333$GBGSV,2,1,06,11,23,180,42,14,65,008,45,24,20,132,44,26,23,081,43*60
###2023-11-09 13:07:55.644261$GBGSV,2,2,06,28,43,287,46,33,59,304,48,,,,,,,,*68
###2023-11-09 13:07:55.645759$GNVTG,264.79,T,,M,5.85,N,10.84,K,A*18
###2023-11-09 13:07:55.728123$GNGGA,130755.90,3611.0474574,N,07544.9766662,W,1,24,0.6,1.055,M,-39.961,M,0.0,*60
###2023-11-09 13:07:55.730707$GPGSV,2,1,07,05,21,090,42,10,18,292,43,13,24,045,43,15,62,037,46*76
###2023-11-09 13:07:55.732964$GPGSV,2,2,07,18,77,281,46,23,50,315,45,24,49,136,45,,,,*42
###2023-11-09 13:07:55.735541$GLGSV,2,1,05,70,50,017,36,71,48,288,48,80,17,091,44,85,58,203,47*62
###2023-11-09 13:07:55.737161$GLGSV,2,2,05,86,52,309,48,,,,,,,,,,,,*5F
###2023-11-09 13:07:55.739734$GAGSV,1,1,04,07,72,258,44,08,49,042,45,13,64,160,45,26,56,310,45*61
###2023-11-09 13:07:55.742324$GBGSV,2,1,06,11,23,180,41,14,65,008,46,24,20,132,44,26,23,081,43*60
###2023-11-09 13:07:55.744265$GBGSV,2,2,06,28,43,287,45,33,59,304,48,,,,,,,,*6B
###2023-11-09 13:07:55.745774$GNVTG,263.09,T,,M,5.73,N,10.62,K,A*19
###2023-11-09 13:07:55.831103$GNGGA,130756.00,3611.0474356,N,07544.9768584,W,1,24,0.6,1.063,M,-39.961,M,0.0,*6C
###2023-11-09 13:07:55.833691$GPGSV,2,1,07,05,21,090,42,10,18,292,43,13,24,045,42,15,62,037,46*77
###2023-11-09 13:07:55.835940$GPGSV,2,2,07,18,77,281,45,23,50,315,45,24,49,136,45,,,,*41
###2023-11-09 13:07:55.838524$GLGSV,2,1,05,70,50,017,36,71,48,288,47,80,17,091,43,85,58,203,46*6B
###2023-11-09 13:07:55.840126$GLGSV,2,2,05,86,52,309,47,,,,,,,,,,,,*50
###2023-11-09 13:07:55.842682$GAGSV,1,1,04,07,72,258,44,08,49,042,46,13,64,160,45,26,56,310,45*62
###2023-11-09 13:07:55.845255$GBGSV,2,1,06,11,23,180,40,14,65,008,46,24,20,132,44,26,23,081,43*61
###2023-11-09 13:07:55.847199$GBGSV,2,2,06,28,43,287,46,33,59,304,48,,,,,,,,*68
###2023-11-09 13:07:55.848695$GNVTG,260.76,T,,M,5.60,N,10.37,K,A*10
###2023-11-09 13:07:55.937144$GNGGA,130756.10,3611.0474056,N,07544.9770464,W,1,24,0.6,1.078,M,-39.961,M,0.0,*62
###2023-11-09 13:07:55.939738$GPGSV,2,1,07,05,21,090,42,10,18,292,43,13,24,045,43,15,62,037,46*76
###2023-11-09 13:07:55.941999$GPGSV,2,2,07,18,77,281,45,23,50,315,44,24,49,136,45,,,,*40
###2023-11-09 13:07:55.944574$GLGSV,2,1,05,70,50,017,36,71,48,290,47,80,17,091,43,85,58,203,46*62
###2023-11-09 13:07:55.946179$GLGSV,2,2,05,86,52,309,47,,,,,,,,,,,,*50
###2023-11-09 13:07:55.949061$GAGSV,1,1,04,07,72,258,44,08,49,042,45,13,64,160,44,26,56,310,45*60
###2023-11-09 13:07:55.951665$GBGSV,2,1,06,11,23,180,40,14,65,008,46,24,20,132,44,26,23,081,43*61
###2023-11-09 13:07:55.953611$GBGSV,2,2,06,28,43,287,46,33,59,304,48,,,,,,,,*68
###2023-11-09 13:07:55.955123$GNVTG,256.66,T,,M,5.58,N,10.33,K,A*1B
###2023-11-09 13:07:56.031117$GNGGA,130756.20,3611.0473687,N,07544.9772313,W,1,24,0.6,1.097,M,-39.961,M,0.0,*68
###2023-11-09 13:07:56.033712$GPGSV,2,1,07,05,21,090,42,10,18,292,43,13,24,045,43,15,62,037,46*76
###2023-11-09 13:07:56.035973$GPGSV,2,2,07,18,77,281,45,23,50,315,44,24,49,136,45,,,,*40
###2023-11-09 13:07:56.038570$GLGSV,2,1,05,70,50,017,36,71,48,290,48,80,17,091,43,85,58,203,47*6C
###2023-11-09 13:07:56.040182$GLGSV,2,2,05,86,52,309,47,,,,,,,,,,,,*50
###2023-11-09 13:07:56.042747$GAGSV,1,1,04,07,72,258,44,08,49,042,45,13,64,160,44,26,56,310,45*60
