###2023-11-09 13:08:56.047492$GBGSV,2,1,06,11,23,180,42,14,65,008,44,24,20,132,44,26,23,081,43*61
###2023-11-09 13:08:56.049452$GBGSV,2,2,06,28,43,287,47,33,59,304,47,,,,,,,,*66
###2023-11-09 13:08:56.050926$GNVTG,66.99,T,,M,5.79,N,10.73,K,A*2D
###2023-11-09 13:08:56.132991$GNGGA,130856.30,3611.0215073,N,07544.9857526,W,1,24,0.6,0.747,M,-39.962,M,0.0,*6D
###2023-11-09 13:08:56.135586$GPGSV,2,1,07,05,20,090,43,10,19,293,43,13,24,045,41,15,61,037,45*74
###2023-11-09 13:08:56.137856$GPGSV,2,2,07,18,78,277,47,23,50,316,46,24,50,135,45,,,,*4E
###2023-11-09 13:08:56.140433$GLGSV,2,1,05,70,50,017,35,71,48,290,48,80,18,090,45,85,57,203,48*67
###2023-11-09 13:08:56.142034$GLGSV,2,2,05,86,53,308,48,,,,,,,,,,,,*5F
###2023-11-09 13:08:56.144587$GAGSV,1,1,04,07,72,258,46,08,48,043,44,13,64,160,45,26,57,310,45*63
###2023-11-09 13:08:56.147168$GBGSV,2,1,06,11,23,180,43,14,65,008,44,24,20,132,45,26,23,081,43*61
###2023-11-09 13:08:56.149097$GBGSV,2,2,06,28,43,287,47,33,59,304,47,,,,,,,,*66
###2023-11-09 13:08:56.150556$GNVTG,65.06,T,,M,5.58,N,10.33,K,A*2F
###2023-11-09 13:08:56.229780$GNGGA,130856.40,3611.0215762,N,07544.9855855,W,1,24,0.6,0.798,M,-39.962,M,0.0,*64
###2023-11-09 13:08:56.232391$GPGSV,2,1,07,05,20,090,43,10,19,293,43,13,24,045,41,15,61,037,45*74
###2023-11-09 13:08:56.234648$GPGSV,2,2,07,18,78,277,46,23,50,316,46,24,50,135,45,,,,*4F
###2023-11-09 13:08:56.237247$GLGSV,2,1,05,70,50,017,35,71,48,290,47,80,18,090,45,85,57,203,49*69
###2023-11-09 13:08:56.238859$GLGSV,2,2,05,86,53,308,48,,,,,,,,,,,,*5F
###2023-11-09 13:08:56.241425$GAGSV,1,1,04,07,72,258,46,08,48,043,44,13,64,160,45,26,57,310,45*63
###2023-11-09 13:08:56.243999$GBGSV,2,1,06,11,23,180,44,14,65,008,44,24,20,132,45,26,23,081,43*66
###2023-11-09 13:08:56.245944$GBGSV,2,2,06,28,43,287,47,33,59,304,47,,,,,,,,*66
###2023-11-09 13:08:56.247399$GNVTG,61.47,T,,M,5.37,N,9.94,K,A*12
###2023-11-09 13:08:56.330502$GNGGA,130856.50,3611.0216522,N,07544.9854293,W,1,24,0.6,0.867,M,-39.962,M,0.0,*6E
###2023-11-09 13:08:56.333111$GPGSV,2,1,07,05,20,090,43,10,19,293,43,13,24,045,41,15,61,037,45*74
###2023-11-09 13:08:56.335371$GPGSV,2,2,07,18,78,277,46,23,50,316,46,24,50,135,45,,,,*4F
###2023-11-09 13:08:56.337970$GLGSV,2,1,05,70,50,017,35,71,48,290,47,80,18,090,45,85,57,203,49*69
###2023-11-09 13:08:56.339592$GLGSV,2,2,05,86,53,308,48,,,,,,,,,,,,*5F
###2023-11-09 13:08:56.342156$GAGSV,1,1,04,07,72,258,46,08,48,043,44,13,64,160,45,26,57,310,45*63
###2023-11-09 13:08:56.344728$GBGSV,2,1,06,11,23,180,44,14,65,008,44,24,20,132,45,26,23,081,43*66
###2023-11-09 13:08:56.346659$GBGSV,2,2,06,28,43,287,47,33,59,304,47,,,,,,,,*66
###2023-11-09 13:08:56.348115$GNVTG,57.12,T,,M,5.29,N,9.79,K,A*1B
###2023-11-09 13:08:56.429554$GNGGA,130856.60,3611.0217330,N,07544.9852803,W,1,24,0.6,0.942,M,-39.962,M,0.0,*6A
###2023-11-09 13:08:56.432158$GPGSV,2,1,07,05,20,090,43,10,19,293,43,13,24,045,41,15,61,037,45*74
###2023-11-09 13:08:56.434416$GPGSV,2,2,07,18,78,277,46,23,50,316,46,24,50,135,45,,,,*4F
###2023-11-09 13:08:56.437015$GLGSV,2,1,05,70,50,017,35,71,48,290,48,80,18,090,45,85,57,203,48*67
###2023-11-09 13:08:56.438623$GLGSV,2,2,05,86,53,308,48,,,,,,,,,,,,*5F
###2023-11-09 13:08:56.441184$GAGSV,1,1,04,07,72,258,46,08,48,043,44,13,64,160,45,26,57,310,45*63
###2023-11-09 13:08:56.443750$GBGSV,2,1,06,11,23,180,42,14,65,008,44,24,20,132,45,26,23,081,43*60
###2023-11-09 13:08:56.445686$GBGSV,2,2,06,28,43,287,47,33,59,304,47,,,,,,,,*66
###2023-11-09 13:08:56.447124$GNVTG,55.94,T,,M,5.19,N,9.61,K,A*1D
###2023-11-09 13:08:56.529932$GNGGA,130856.70,3611.0218124,N,07544.9851323,W,1,24,0.6,0.999,M,-39.962,M,0.0,*6F
###2023-11-09 13:08:56.532570$GPGSV,2,1,07,05,20,090,43,10,19,293,43,13,24,045,41,15,61,037,45*74
###2023-11-09 13:08:56.534849$GPGSV,2,2,07,18,78,277,46,23,50,316,46,24,50,135,45,,,,*4F
###2023-11-09 13:08:56.537469$GLGSV,2,1,05,70,50,017,35,71,48,290,48,80,18,090,45,85,57,203,48*67
###2023-11-09 13:08:56.539090$GLGSV,2,2,05,86,53,308,48,,,,,,,,,,,,*5F
###2023-11-09 13:08:56.541676$GAGSV,1,1,04,07,72,258,46,08,48,043,44,13,64,160,45,26,57,310,45*63
###2023-11-09 13:08:56.544274$GBGSV,2,1,06,11,23,180,41,14,65,008,44,24,20,132,44,26,23,081,42*63
###2023-11-09 13:08:56.546223$GBGSV,2,2,06,28,43,287,47,33,59,304,48,,,,,,,,*69
###2023-11-09 13:08:56.547682$GNVTG,57.75,T,,M,5.17,N,9.58,K,A*14
###2023-11-09 13:08:56.630751$GNGGA,130856.80,3611.0218841,N,07544.9849801,W,1,24,0.6,1.042,M,-39.962,M,0.0,*66
###2023-11-09 13:08:56.633361$GPGSV,2,1,07,05,20,090,43,10,19,293,43,13,24,045,41,15,61,037,45*74
###2023-11-09 13:08:56.635616$GPGSV,2,2,07,18,78,277,46,23,50,316,46,24,50,135,45,,,,*4F
###2023-11-09 13:08:56.638213$GLGSV,2,1,05,70,50,017,35,71,48,290,48,80,18,090,44,85,57,203,48*66
###2023-11-09 13:08:56.639824$GLGSV,2,2,05,86,53,308,48,,,,,,,,,,,,*5F
###2023-11-09 13:08:56.642409$GAGSV,1,1,04,07,72,258,46,08,48,043,44,13,64,160,45,26,57,310,45*63
###2023-11-09 13:08:56.644984$GBGSV,2,1,06,11,23,180,41,14,65,008,44,24,20,132,44,26,23,081,42*63
###2023-11-09 13:08:56.646933$GBGSV,2,2,06,28,43,287,47,33,59,304,48,,,,,,,,*69
###2023-11-09 13:08:56.648365$GNVTG,62.51,T,,M,5.11,N,9.47,K,A*1C
###2023-11-09 13:08:56.729669$GNGGA,130856.90,3611.0219444,N,07544.9848254,W,1,24,0.6,1.065,M,-39.962,M,0.0,*61
###2023-11-09 13:08:56.732276$GPGSV,2,1,07,05,20,090,43,10,19,293,44,13,24,045,41,15,61,037,45*73
###2023-11-09 13:08:56.734533$GPGSV,2,2,07,18,78,277,46,23,50,316,46,24,50,135,45,,,,*4F
###2023-11-09 13:08:56.737118$GLGSV,2,1,05,70,50,017,35,71,48,290,48,80,18,090,44,85,57,203,48*66
###2023-11-09 13:08:56.738731$GLGSV,2,2,05,86,53,308,48,,,,,,,,,,,,*5F
###2023-11-09 13:08:56.741297$GAGSV,1,1,04,07,72,258,46,08,48,043,44,13,64,160,45,26,57,310,45*63
###2023-11-09 13:08:56.743872$GBGSV,2,1,06,11,23,180,42,14,65,008,44,24,20,132,44,26,23,081,42*60
###2023-11-09 13:08:56.745794$GBGSV,2,2,06,28,43,287,47,33,59,304,48,,,,,,,,*69
###2023-11-09 13:08:56.747231$GNVTG,66.96,T,,M,4.96,N,9.18,K,A*17
###2023-11-09 13:08:56.831745$GNGGA,130857.00,3611.0219968,N,07544.9846705,W,1,24,0.6,1.085,M,-39.962,M,0.0,*6B
###2023-11-09 13:08:56.834356$GPGSV,2,1,07,05,20,090,43,10,19,293,44,13,24,045,41,15,61,037,45*73
###2023-11-09 13:08:56.836622$GPGSV,2,2,07,18,78,277,46,23,50,316,45,24,50,135,45,,,,*4C
###2023-11-09 13:08:56.839212$GLGSV,2,1,05,70,50,017,35,71,48,290,48,80,18,090,44,85,57,203,49*67
###2023-11-09 13:08:56.840822$GLGSV,2,2,05,86,53,308,47,,,,,,,,,,,,*50
###2023-11-09 13:08:56.843392$GAGSV,1,1,04,07,72,258,46,08,48,043,44,13,64,160,45,26,57,310,44*62
###2023-11-09 13:08:56.845981$GBGSV,2,1,06,11,23,180,43,14,65,008,44,24,20,132,45,26,23,081,42*60
###2023-11-09 13:08:56.847936$GBGSV,2,2,06,28,43,287,47,33,59,304,46,,,,,,,,*67
###2023-11-09 13:08:56.849378$GNVTG,68.33,T,,M,4.86,N,9.00,K,A*1E
###2023-11-09 13:08:56.930500$GNGGA,130857.10,3611.0220482,N,07544.9845189,W,1,24,0.6,1.101,M,-39.962,M,0.0,*65
###2023-11-09 13:08:56.933083$GPGSV,2,1,07,05,20,090,43,10,19,293,44,13,24,045,40,15,61,037,45*72
###2023-11-09 13:08:56.935332$GPGSV,2,2,07,18,78,277,46,23,50,316,45,24,50,135,45,,,,*4C
###2023-11-09 13:08:56.937924$GLGSV,2,1,05,70,50,017,35,71,48,290,48,80,18,090,44,85,57,203,49*67
###2023-11-09 13:08:56.939544$GLGSV,2,2,05,86,53,308,46,,,,,,,,,,,,*51
###2023-11-09 13:08:56.942111$GAGSV,1,1,04,07,72,258,46,08,48,043,44,13,64,160,45,26,57,310,44*62
###2023-11-09 13:08:56.944695$GBGSV,2,1,06,11,23,180,43,14,65,008,44,24,20,132,45,26,23,081,42*60
###2023-11-09 13:08:56.946634$GBGSV,2,2,06,28,43,287,46,33,59,304,46,,,,,,,,*66
###2023-11-09 13:08:56.948077$GNVTG,66.91,T,,M,4.76,N,8.82,K,A*1C
###2023-11-09 13:08:57.033107$GNGGA,130857.20,3611.0221067,N,07544.9843707,W,1,24,0.6,1.115,M,-39.962,M,0.0,*6B
###2023-11-09 13:08:57.035685$GPGSV,2,1,07,05,20,090,43,10,19,293,43,13,24,045,40,15,61,037,44*74
###2023-11-09 13:08:57.037952$GPGSV,2,2,07,18,78,277,46,23,50,316,44,24,50,135,45,,,,*4D
###2023-11-09 13:08:57.040525$GLGSV,2,1,05,70,50,017,35,71,48,290,48,80,18,090,45,85,57,203,49*66
###2023-11-09 13:08:57.042129$GLGSV,2,2,05,86,53,308,46,,,,,,,,,,,,*51
###2023-11-09 13:08:57.044690$GAGSV,1,1,04,07,72,258,45,08,48,043,44,13,64,160,45,26,57,310,44*61
###2023-11-09 13:08:57.047275$GBGSV,2,1,06,11,23,180,44,14,65,008,44,24,20,132,45,26,23,081,42*67
###2023-11-09 13:08:57.049504$GBGSV,2,2,06,28,43,287,46,33,59,304,46,,,,,,,,*66
###2023-11-09 13:08:57.050942$GNVTG,61.77,T,,M,4.88,N,9.04,K,A*1D
###2023-11-09 13:08:57.129641$GNGGA,130857.30,3611.0221747,N,07544.9842246,W,1,24,0.6,1.115,M,-39.962,M,0.0,*6E
###2023-11-09 13:08:57.132252$GPGSV,2,1,07,05,20,090,43,10,19,293,43,13,24,045,40,15,61,037,44*74
###2023-11-09 13:08:57.134515$GPGSV,2,2,07,18,78,277,46,23,50,316,44,24,50,135,45,,,,*4D
###2023-11-09 13:08:57.137112$GLGSV,2,1,05,70,50,017,35,71,48,290,48,80,18,090,45,85,57,203,49*66
###2023-11-09 13:08:57.138728$GLGSV,2,2,05,86,53,308,46,,,,,,,,,,,,*51
###2023-11-09 13:08:57.141302$GAGSV,1,1,04,07,72,258,45,08,48,043,44,13,64,160,45,26,57,310,44*61
###2023-11-09 13:08:57.143878$GBGSV,2,1,06,11,23,180,43,14,65,008,44,24,20,132,43,26,23,081,42*66
