###2023-11-09 13:09:55.234776$GPGSV,2,2,07,18,78,277,47,23,50,316,45,24,50,134,46,,,,*4F
###2023-11-09 13:09:55.237409$GLGSV,2,1,05,70,49,019,36,71,48,291,47,80,18,090,44,85,57,203,48*6D
###2023-11-09 13:09:55.239024$GLGSV,2,2,05,86,53,308,48,,,,,,,,,,,,*5F
###2023-11-09 13:09:55.241590$GAGSV,1,1,04,07,73,259,45,08,48,043,44,13,63,161,45,26,57,310,45*66
###2023-11-09 13:09:55.244171$GBGSV,2,1,06,11,22,180,42,14,65,009,44,24,21,132,44,26,23,080,43*61
###2023-11-09 13:09:55.246110$GBGSV,2,2,06,28,43,286,47,33,59,305,47,,,,,,,,*66
###2023-11-09 13:09:55.247557$GNVTG,49.85,T,,M,5.19,N,9.61,K,A*10
###2023-11-09 13:09:55.331384$GNGGA,130955.50,3611.0445852,N,07544.9070884,W,1,24,0.6,0.622,M,-39.961,M,0.0,*68
###2023-11-09 13:09:55.333997$GPGSV,2,1,07,05,20,090,42,10,19,293,41,13,24,045,40,15,61,037,45*76
###2023-11-09 13:09:55.336270$GPGSV,2,2,07,18,78,277,47,23,50,316,45,24,50,134,46,,,,*4F
###2023-11-09 13:09:55.338867$GLGSV,2,1,05,70,49,019,36,71,48,291,47,80,18,090,44,85,57,203,49*6C
###2023-11-09 13:09:55.340481$GLGSV,2,2,05,86,53,308,48,,,,,,,,,,,,*5F
###2023-11-09 13:09:55.343060$GAGSV,1,1,04,07,73,259,45,08,48,043,44,13,63,161,45,26,57,310,45*66
###2023-11-09 13:09:55.345647$GBGSV,2,1,06,11,22,180,43,14,65,009,44,24,21,132,44,26,23,080,43*60
###2023-11-09 13:09:55.347603$GBGSV,2,2,06,28,43,286,47,33,59,305,47,,,,,,,,*66
###2023-11-09 13:09:55.349044$GNVTG,47.12,T,,M,5.17,N,9.58,K,A*14
###2023-11-09 13:09:55.435731$GNGGA,130955.60,3611.0446826,N,07544.9069600,W,1,24,0.6,0.622,M,-39.961,M,0.0,*61
###2023-11-09 13:09:55.438338$GPGSV,2,1,07,05,20,090,42,10,19,293,41,13,24,045,40,15,61,037,45*76
###2023-11-09 13:09:55.440600$GPGSV,2,2,07,18,78,277,47,23,50,316,45,24,50,134,46,,,,*4F
###2023-11-09 13:09:55.443174$GLGSV,2,1,05,70,49,019,36,71,48,291,47,80,18,090,44,85,57,203,48*6D
###2023-11-09 13:09:55.444791$GLGSV,2,2,05,86,53,308,48,,,,,,,,,,,,*5F
###2023-11-09 13:09:55.447377$GAGSV,1,1,04,07,73,259,45,08,48,043,44,13,63,161,46,26,57,310,45*65
###2023-11-09 13:09:55.449963$GBGSV,2,1,06,11,22,180,43,14,65,009,44,24,21,132,44,26,23,080,43*60
###2023-11-09 13:09:55.451901$GBGSV,2,2,06,28,43,286,47,33,59,305,47,,,,,,,,*66
###2023-11-09 13:09:55.453336$GNVTG,46.86,T,,M,5.13,N,9.50,K,A*14
###2023-11-09 13:09:55.530090$GNGGA,130955.70,3611.0447796,N,07544.9068315,W,1,24,0.6,0.625,M,-39.961,M,0.0,*62
###2023-11-09 13:09:55.532663$GPGSV,2,1,07,05,20,090,42,10,19,293,42,13,24,045,40,15,61,037,46*76
###2023-11-09 13:09:55.534915$GPGSV,2,2,07,18,78,277,47,23,50,316,45,24,50,134,46,,,,*4F
###2023-11-09 13:09:55.537508$GLGSV,2,1,05,70,49,019,36,71,48,291,47,80,18,090,45,85,57,203,49*6D
###2023-11-09 13:09:55.539117$GLGSV,2,2,05,86,53,308,48,,,,,,,,,,,,*5F
###2023-11-09 13:09:55.541678$GAGSV,1,1,04,07,73,259,45,08,48,043,44,13,63,161,46,26,57,310,45*65
###2023-11-09 13:09:55.544246$GBGSV,2,1,06,11,22,180,43,14,65,009,44,24,21,132,44,26,23,080,43*60
###2023-11-09 13:09:55.546169$GBGSV,2,2,06,28,43,286,47,33,59,305,47,,,,,,,,*66
###2023-11-09 13:09:55.547605$GNVTG,47.59,T,,M,5.15,N,9.54,K,A*15
###2023-11-09 13:09:55.630124$GNGGA,130955.80,3611.0448732,N,07544.9066996,W,1,24,0.6,0.628,M,-39.961,M,0.0,*6E
###2023-11-09 13:09:55.632739$GPGSV,2,1,07,05,20,090,42,10,19,293,42,13,24,045,40,15,61,037,46*76
###2023-11-09 13:09:55.635006$GPGSV,2,2,07,18,78,277,47,23,50,316,45,24,50,134,46,,,,*4F
###2023-11-09 13:09:55.637641$GLGSV,2,1,05,70,49,019,36,71,48,291,47,80,18,090,45,85,57,203,49*6D
###2023-11-09 13:09:55.639257$GLGSV,2,2,05,86,53,308,48,,,,,,,,,,,,*5F
###2023-11-09 13:09:55.641831$GAGSV,1,1,04,07,73,259,46,08,48,043,44,13,63,161,46,26,57,310,45*66
###2023-11-09 13:09:55.644418$GBGSV,2,1,06,11,22,180,43,14,65,009,44,24,21,132,43,26,23,080,43*67
###2023-11-09 13:09:55.646365$GBGSV,2,2,06,28,43,286,47,33,59,305,47,,,,,,,,*66
###2023-11-09 13:09:55.647818$GNVTG,50.28,T,,M,5.11,N,9.47,K,A*13
###2023-11-09 13:09:55.740787$GNGGA,130955.90,3611.0449636,N,07544.9065630,W,1,24,0.6,0.616,M,-39.961,M,0.0,*66
###2023-11-09 13:09:55.743411$GPGSV,2,1,07,05,20,090,42,10,19,293,42,13,24,045,40,15,61,037,46*76
###2023-11-09 13:09:55.745684$GPGSV,2,2,07,18,78,277,47,23,50,316,46,24,50,134,46,,,,*4C
###2023-11-09 13:09:55.748296$GLGSV,2,1,05,70,49,019,35,71,48,291,47,80,18,090,45,85,57,203,49*6E
###2023-11-09 13:09:55.749924$GLGSV,2,2,05,86,53,308,48,,,,,,,,,,,,*5F
###2023-11-09 13:09:55.752521$GAGSV,1,1,04,07,73,259,46,08,48,043,44,13,63,161,45,26,57,310,45*65
###2023-11-09 13:09:55.755133$GBGSV,2,1,06,11,22,180,42,14,65,009,44,24,21,132,43,26,23,080,43*66
###2023-11-09 13:09:55.757099$GBGSV,2,2,06,28,43,286,47,33,59,305,48,,,,,,,,*69
###2023-11-09 13:09:55.758544$GNVTG,51.67,T,,M,5.21,N,9.65,K,A*1A
###2023-11-09 13:09:55.833259$GNGGA,130956.00,3611.0450518,N,07544.9064196,W,1,24,0.6,0.592,M,-39.961,M,0.0,*6E
###2023-11-09 13:09:55.835872$GPGSV,2,1,07,05,20,090,42,10,19,293,42,13,24,045,40,15,61,037,46*76
###2023-11-09 13:09:55.838153$GPGSV,2,2,07,18,78,277,47,23,50,316,45,24,50,134,46,,,,*4F
###2023-11-09 13:09:55.840749$GLGSV,2,1,05,70,49,019,36,71,48,291,47,80,18,090,45,85,57,203,49*6D
###2023-11-09 13:09:55.842366$GLGSV,2,2,05,86,53,308,48,,,,,,,,,,,,*5F
###2023-11-09 13:09:55.844943$GAGSV,1,1,04,07,73,259,46,08,48,043,44,13,63,161,45,26,57,310,45*65
###2023-11-09 13:09:55.847543$GBGSV,2,1,06,11,22,180,42,14,65,009,44,24,21,132,43,26,23,080,43*66
###2023-11-09 13:09:55.849496$GBGSV,2,2,06,28,43,286,47,33,59,305,48,,,,,,,,*69
###2023-11-09 13:09:55.850928$GNVTG,54.08,T,,M,5.33,N,9.86,K,A*18
###2023-11-09 13:09:55.938040$GNGGA,130956.10,3611.0451359,N,07544.9062718,W,1,24,0.6,0.555,M,-39.961,M,0.0,*60
###2023-11-09 13:09:55.940681$GPGSV,2,1,07,05,20,090,42,10,19,293,42,13,24,045,40,15,61,037,46*76
###2023-11-09 13:09:55.942970$GPGSV,2,2,07,18,78,277,47,23,50,316,45,24,50,134,46,,,,*4F
###2023-11-09 13:09:55.945571$GLGSV,2,1,05,70,49,019,36,71,48,291,47,80,18,090,45,85,57,203,49*6D
###2023-11-09 13:09:55.947206$GLGSV,2,2,05,86,53,308,48,,,,,,,,,,,,*5F
###2023-11-09 13:09:55.949780$GAGSV,1,1,04,07,73,259,46,08,48,043,44,13,63,161,45,26,57,310,45*65
###2023-11-09 13:09:55.952364$GBGSV,2,1,06,11,22,180,42,14,65,009,44,24,21,132,44,26,23,080,43*61
###2023-11-09 13:09:55.954316$GBGSV,2,2,06,28,43,286,47,33,59,305,48,,,,,,,,*69
###2023-11-09 13:09:55.955760$GNVTG,56.15,T,,M,5.25,N,9.72,K,A*1A
###2023-11-09 13:09:56.033020$GNGGA,130956.20,3611.0452159,N,07544.9061245,W,1,24,0.6,0.524,M,-39.961,M,0.0,*6A
###2023-11-09 13:09:56.035627$GPGSV,2,1,07,05,20,090,43,10,19,293,42,13,24,045,40,15,61,037,46*77
###2023-11-09 13:09:56.037920$GPGSV,2,2,07,18,78,277,46,23,50,316,45,24,50,134,46,,,,*4E
###2023-11-09 13:09:56.040518$GLGSV,2,1,05,70,49,019,35,71,48,291,47,80,18,090,45,85,57,203,49*6E
###2023-11-09 13:09:56.042142$GLGSV,2,2,05,86,53,308,48,,,,,,,,,,,,*5F
###2023-11-09 13:09:56.044739$GAGSV,1,1,04,07,73,259,45,08,48,043,44,13,63,161,45,26,57,310,45*66
###2023-11-09 13:09:56.047352$GBGSV,2,1,06,11,22,180,43,14,65,009,44,24,21,132,45,26,23,080,44*66
###2023-11-09 13:09:56.049297$GBGSV,2,2,06,28,43,286,46,33,59,305,48,,,,,,,,*68
###2023-11-09 13:09:56.050741$GNVTG,56.63,T,,M,5.13,N,9.50,K,A*1E
###2023-11-09 13:09:56.134764$GNGGA,130956.30,3611.0452964,N,07544.9059811,W,1,24,0.6,0.510,M,-39.961,M,0.0,*6A
###2023-11-09 13:09:56.137412$GPGSV,2,1,07,05,20,090,42,10,19,293,41,13,24,045,40,15,61,037,46*75
###2023-11-09 13:09:56.139682$GPGSV,2,2,07,18,78,277,46,23,50,316,45,24,50,134,45,,,,*4D
###2023-11-09 13:09:56.142267$GLGSV,2,1,05,70,49,019,35,71,48,291,47,80,18,090,45,85,57,203,49*6E
###2023-11-09 13:09:56.143886$GLGSV,2,2,05,86,53,308,48,,,,,,,,,,,,*5F
###2023-11-09 13:09:56.146460$GAGSV,1,1,04,07,73,259,45,08,48,043,44,13,63,161,46,26,57,310,45*65
###2023-11-09 13:09:56.149055$GBGSV,2,1,06,11,22,180,43,14,65,009,44,24,21,132,45,26,23,080,44*66
###2023-11-09 13:09:56.150986$GBGSV,2,2,06,28,43,286,46,33,59,305,48,,,,,,,,*68
###2023-11-09 13:09:56.152406$GNVTG,54.36,T,,M,5.07,N,9.40,K,A*18
###2023-11-09 13:09:56.231140$GNGGA,130956.40,3611.0453818,N,07544.9058409,W,1,24,0.6,0.520,M,-39.961,M,0.0,*61
###2023-11-09 13:09:56.233757$GPGSV,2,1,07,05,20,090,42,10,19,293,42,13,24,045,40,15,61,037,46*76
###2023-11-09 13:09:56.236023$GPGSV,2,2,07,18,78,277,46,23,50,316,45,24,50,134,45,,,,*4D
###2023-11-09 13:09:56.238939$GLGSV,2,1,05,70,49,019,35,71,48,291,47,80,18,090,45,85,57,203,49*6E
###2023-11-09 13:09:56.240566$GLGSV,2,2,05,86,53,308,48,,,,,,,,,,,,*5F
###2023-11-09 13:09:56.243148$GAGSV,1,1,04,07,73,259,45,08,48,043,44,13,63,161,46,26,57,310,45*65
###2023-11-09 13:09:56.245745$GBGSV,2,1,06,11,22,180,43,14,65,009,44,24,21,132,45,26,23,080,44*66
###2023-11-09 13:09:56.247702$GBGSV,2,2,06,28,43,286,46,33,59,305,48,,,,,,,,*68
###2023-11-09 13:09:56.249142$GNVTG,52.06,T,,M,5.17,N,9.58,K,A*15
###2023-11-09 13:09:56.331155$GNGGA,130956.50,3611.0454727,N,07544.9057018,W,1,24,0.6,0.527,M,-39.961,M,0.0,*68
###2023-11-09 13:09:56.333770$GPGSV,2,1,07,05,20,090,42,10,19,293,42,13,24,045,40,15,61,037,46*76
###2023-11-09 13:09:56.336035$GPGSV,2,2,07,18,78,277,47,23,50,316,45,24,50,134,45,,,,*4C
