###2023-11-09 13:10:46.447586$GNVTG,323.89,T,,M,4.20,N,7.78,K,A*2E
###2023-11-09 13:10:46.529872$GNGGA,131046.70,3611.0713487,N,07544.8904099,W,1,24,0.6,0.563,M,-39.960,M,0.0,*6C
###2023-11-09 13:10:46.532464$GPGSV,2,1,07,05,20,091,43,10,19,294,42,13,23,045,43,15,60,038,46*7B
###2023-11-09 13:10:46.534717$GPGSV,2,2,07,18,78,272,46,23,51,317,46,24,51,133,46,,,,*4E
###2023-11-09 13:10:46.537292$GLGSV,2,1,05,70,49,019,35,71,48,291,48,80,19,089,46,85,56,202,48*6A
###2023-11-09 13:10:46.538891$GLGSV,2,2,05,86,54,306,48,,,,,,,,,,,,*56
###2023-11-09 13:10:46.541438$GAGSV,1,1,04,07,73,259,45,08,48,043,45,13,63,161,44,26,57,310,45*66
###2023-11-09 13:10:46.544000$GBGSV,2,1,06,11,22,180,42,14,65,009,46,24,21,132,44,26,23,080,45*65
###2023-11-09 13:10:46.545937$GBGSV,2,2,06,28,43,286,47,33,59,305,48,,,,,,,,*69
###2023-11-09 13:10:46.547425$GNVTG,321.47,T,,M,4.30,N,7.96,K,A*2F
###2023-11-09 13:10:46.629881$GNGGA,131046.80,3611.0714407,N,07544.8905038,W,1,24,0.6,0.575,M,-39.960,M,0.0,*61
###2023-11-09 13:10:46.632490$GPGSV,2,1,07,05,20,091,43,10,19,294,42,13,23,045,43,15,60,038,46*7B
###2023-11-09 13:10:46.634754$GPGSV,2,2,07,18,78,272,46,23,51,317,46,24,51,133,46,,,,*4E
###2023-11-09 13:10:46.637347$GLGSV,2,1,05,70,49,019,35,71,48,291,48,80,19,089,46,85,56,202,48*6A
###2023-11-09 13:10:46.638959$GLGSV,2,2,05,86,54,306,48,,,,,,,,,,,,*56
###2023-11-09 13:10:46.641532$GAGSV,1,1,04,07,73,259,45,08,48,043,45,13,63,161,44,26,57,310,45*66
###2023-11-09 13:10:46.644122$GBGSV,2,1,06,11,22,180,42,14,65,009,46,24,21,132,44,26,23,080,45*65
###2023-11-09 13:10:46.646067$GBGSV,2,2,06,28,43,286,47,33,59,305,48,,,,,,,,*69
###2023-11-09 13:10:46.647553$GNVTG,319.82,T,,M,4.26,N,7.88,K,A*25
###2023-11-09 13:10:46.729875$GNGGA,131046.90,3611.0715335,N,07544.8905975,W,1,24,0.6,0.593,M,-39.960,M,0.0,*6F
###2023-11-09 13:10:46.732485$GPGSV,2,1,07,05,20,091,44,10,19,294,42,13,23,045,43,15,60,038,46*7C
###2023-11-09 13:10:46.734778$GPGSV,2,2,07,18,78,272,46,23,51,317,46,24,51,133,46,,,,*4E
###2023-11-09 13:10:46.737410$GLGSV,2,1,05,70,49,019,35,71,48,291,49,80,19,089,46,85,56,202,49*6A
###2023-11-09 13:10:46.739025$GLGSV,2,2,05,86,54,306,48,,,,,,,,,,,,*56
###2023-11-09 13:10:46.741604$GAGSV,1,1,04,07,73,259,45,08,48,043,45,13,63,161,43,26,57,310,45*61
###2023-11-09 13:10:46.744176$GBGSV,2,1,06,11,22,180,42,14,65,009,46,24,21,132,45,26,23,080,45*64
###2023-11-09 13:10:46.746122$GBGSV,2,2,06,28,43,286,47,33,59,305,48,,,,,,,,*69
###2023-11-09 13:10:46.747616$GNVTG,322.00,T,,M,4.35,N,8.06,K,A*2C
###2023-11-09 13:10:46.833586$GNGGA,131047.00,3611.0716290,N,07544.8906897,W,1,24,0.6,0.615,M,-39.960,M,0.0,*69
###2023-11-09 13:10:46.836176$GPGSV,2,1,07,05,20,091,44,10,19,294,42,13,23,045,43,15,60,038,46*7C
###2023-11-09 13:10:46.838446$GPGSV,2,2,07,18,78,272,46,23,51,317,45,24,51,133,46,,,,*4D
###2023-11-09 13:10:46.841017$GLGSV,2,1,05,70,49,019,35,71,48,291,48,80,19,089,46,85,56,202,49*6B
###2023-11-09 13:10:46.842622$GLGSV,2,2,05,86,54,306,48,,,,,,,,,,,,*56
###2023-11-09 13:10:46.845187$GAGSV,1,1,04,07,73,259,45,08,48,043,45,13,63,161,44,26,57,310,45*66
###2023-11-09 13:10:46.847766$GBGSV,2,1,06,11,22,180,42,14,65,009,46,24,21,132,45,26,23,080,45*64
###2023-11-09 13:10:46.849705$GBGSV,2,2,06,28,43,286,46,33,59,305,47,,,,,,,,*67
###2023-11-09 13:10:46.851172$GNVTG,322.21,T,,M,4.35,N,8.06,K,A*2F
###2023-11-09 13:10:46.931888$GNGGA,131047.10,3611.0717251,N,07544.8907828,W,1,24,0.6,0.641,M,-39.960,M,0.0,*60
###2023-11-09 13:10:46.934481$GPGSV,2,1,07,05,20,091,44,10,19,294,42,13,23,045,43,15,60,038,46*7C
###2023-11-09 13:10:46.936738$GPGSV,2,2,07,18,78,272,46,23,51,317,45,24,51,133,47,,,,*4C
###2023-11-09 13:10:46.939340$GLGSV,2,1,05,70,49,019,35,71,48,291,48,80,19,089,47,85,56,202,49*6A
###2023-11-09 13:10:46.940953$GLGSV,2,2,05,86,54,306,48,,,,,,,,,,,,*56
###2023-11-09 13:10:46.943525$GAGSV,1,1,04,07,73,259,45,08,48,043,45,13,63,161,44,26,57,310,45*66
###2023-11-09 13:10:46.946121$GBGSV,2,1,06,11,22,180,42,14,65,009,46,24,21,132,45,26,23,080,45*64
###2023-11-09 13:10:46.948076$GBGSV,2,2,06,28,43,286,46,33,59,305,47,,,,,,,,*67
###2023-11-09 13:10:46.949555$GNVTG,322.06,T,,M,4.39,N,8.14,K,A*25
###2023-11-09 13:10:47.034486$GNGGA,131047.20,3611.0718196,N,07544.8908799,W,1,24,0.6,0.672,M,-39.960,M,0.0,*6E
###2023-11-09 13:10:47.037097$GPGSV,2,1,07,05,20,091,44,10,19,294,42,13,23,045,43,15,60,038,46*7C
###2023-11-09 13:10:47.039356$GPGSV,2,2,07,18,78,272,46,23,51,317,45,24,51,133,47,,,,*4C
###2023-11-09 13:10:47.041922$GLGSV,2,1,05,70,49,019,35,71,48,291,48,80,19,089,47,85,56,202,49*6A
###2023-11-09 13:10:47.043524$GLGSV,2,2,05,86,54,306,48,,,,,,,,,,,,*56
###2023-11-09 13:10:47.046094$GAGSV,1,1,04,07,73,259,45,08,48,043,45,13,63,161,44,26,57,310,45*66
###2023-11-09 13:10:47.048686$GBGSV,2,1,06,11,22,180,42,14,65,009,46,24,21,132,45,26,23,080,45*64
###2023-11-09 13:10:47.050619$GBGSV,2,2,06,28,43,286,46,33,59,305,47,,,,,,,,*67
###2023-11-09 13:10:47.052090$GNVTG,318.78,T,,M,4.43,N,8.21,K,A*2E
###2023-11-09 13:10:47.130710$GNGGA,131047.30,3611.0719125,N,07544.8909820,W,1,24,0.6,0.699,M,-39.960,M,0.0,*6F
###2023-11-09 13:10:47.133282$GPGSV,2,1,07,05,20,091,44,10,19,294,42,13,23,045,42,15,60,038,46*7D
###2023-11-09 13:10:47.135535$GPGSV,2,2,07,18,78,272,45,23,51,317,45,24,51,133,47,,,,*4F
###2023-11-09 13:10:47.138122$GLGSV,2,1,05,70,49,019,35,71,48,291,48,80,19,089,47,85,56,202,49*6A
###2023-11-09 13:10:47.139724$GLGSV,2,2,05,86,54,306,48,,,,,,,,,,,,*56
###2023-11-09 13:10:47.142275$GAGSV,1,1,04,07,73,259,45,08,48,043,45,13,63,161,45,26,57,310,45*67
###2023-11-09 13:10:47.144841$GBGSV,2,1,06,11,22,180,42,14,65,009,46,24,21,132,45,26,23,080,45*64
###2023-11-09 13:10:47.146765$GBGSV,2,2,06,28,43,286,46,33,59,305,48,,,,,,,,*68
###2023-11-09 13:10:47.148237$GNVTG,317.82,T,,M,4.51,N,8.35,K,A*22
###2023-11-09 13:10:47.229899$GNGGA,131047.40,3611.0720045,N,07544.8910881,W,1,24,0.6,0.697,M,-39.960,M,0.0,*68
###2023-11-09 13:10:47.232494$GPGSV,2,1,07,05,20,091,44,10,19,294,42,13,23,045,42,15,60,038,46*7D
###2023-11-09 13:10:47.234749$GPGSV,2,2,07,18,78,272,46,23,51,317,45,24,51,133,46,,,,*4D
###2023-11-09 13:10:47.237342$GLGSV,2,1,05,70,49,019,36,71,48,291,48,80,19,089,47,85,56,202,50*61
###2023-11-09 13:10:47.238957$GLGSV,2,2,05,86,54,306,48,,,,,,,,,,,,*56
###2023-11-09 13:10:47.241541$GAGSV,1,1,04,07,73,259,45,08,48,043,45,13,63,161,45,26,57,310,45*67
###2023-11-09 13:10:47.244117$GBGSV,2,1,06,11,22,180,42,14,65,009,46,24,21,132,44,26,23,080,44*64
###2023-11-09 13:10:47.246045$GBGSV,2,2,06,28,43,286,46,33,59,305,48,,,,,,,,*68
###2023-11-09 13:10:47.247519$GNVTG,316.56,T,,M,4.49,N,8.32,K,A*24
###2023-11-09 13:10:47.330724$GNGGA,131047.50,3611.0720951,N,07544.8911974,W,1,24,0.6,0.682,M,-39.960,M,0.0,*6B
###2023-11-09 13:10:47.333303$GPGSV,2,1,07,05,20,091,43,10,19,294,42,13,23,045,42,15,60,038,46*7A
###2023-11-09 13:10:47.335548$GPGSV,2,2,07,18,78,272,46,23,51,317,45,24,51,133,46,,,,*4D
###2023-11-09 13:10:47.338149$GLGSV,2,1,05,70,49,019,36,71,48,291,48,80,19,089,46,85,56,202,49*68
###2023-11-09 13:10:47.339754$GLGSV,2,2,05,86,54,306,48,,,,,,,,,,,,*56
###2023-11-09 13:10:47.342322$GAGSV,1,1,04,07,73,259,46,08,48,043,45,13,63,161,45,26,57,310,45*64
###2023-11-09 13:10:47.344892$GBGSV,2,1,06,11,22,180,42,14,65,009,45,24,21,132,44,26,23,080,44*67
###2023-11-09 13:10:47.346824$GBGSV,2,2,06,28,43,286,46,33,59,305,47,,,,,,,,*67
###2023-11-09 13:10:47.348300$GNVTG,315.02,T,,M,4.59,N,8.50,K,A*23
###2023-11-09 13:10:47.430591$GNGGA,131047.60,3611.0721854,N,07544.8913092,W,1,24,0.6,0.664,M,-39.960,M,0.0,*66
###2023-11-09 13:10:47.433166$GPGSV,2,1,07,05,20,091,44,10,19,294,42,13,23,045,42,15,60,038,46*7D
###2023-11-09 13:10:47.435400$GPGSV,2,2,07,18,78,272,46,23,51,317,45,24,51,133,46,,,,*4D
###2023-11-09 13:10:47.437977$GLGSV,2,1,05,70,49,019,35,71,48,291,48,80,19,089,46,85,56,202,48*6A
###2023-11-09 13:10:47.439573$GLGSV,2,2,05,86,54,306,48,,,,,,,,,,,,*56
###2023-11-09 13:10:47.442125$GAGSV,1,1,04,07,73,259,46,08,48,043,45,13,63,161,45,26,57,310,45*64
###2023-11-09 13:10:47.444680$GBGSV,2,1,06,11,22,180,42,14,65,009,45,24,21,132,45,26,23,080,44*66
###2023-11-09 13:10:47.446602$GBGSV,2,2,06,28,43,286,47,33,59,305,47,,,,,,,,*66
###2023-11-09 13:10:47.448373$GNVTG,314.94,T,,M,4.59,N,8.50,K,A*2D
###2023-11-09 13:10:47.530742$GNGGA,131047.70,3611.0722784,N,07544.8914171,W,1,24,0.6,0.651,M,-39.960,M,0.0,*6B
###2023-11-09 13:10:47.533353$GPGSV,2,1,07,05,20,091,44,10,19,294,42,13,23,045,42,15,60,038,46*7D
###2023-11-09 13:10:47.535615$GPGSV,2,2,07,18,78,272,46,23,51,317,45,24,51,133,46,,,,*4D
###2023-11-09 13:10:47.538226$GLGSV,2,1,05,70,49,019,35,71,48,291,48,80,19,089,45,85,56,202,49*68
###2023-11-09 13:10:47.539858$GLGSV,2,2,05,86,54,306,48,,,,,,,,,,,,*56
###2023-11-09 13:10:47.542426$GAGSV,1,1,04,07,73,259,45,08,48,043,45,13,63,161,45,26,57,310,45*67
###2023-11-09 13:10:47.545009$GBGSV,2,1,06,11,22,180,42,14,65,009,45,24,21,132,45,26,23,080,44*66
###2023-11-09 13:10:47.546958$GBGSV,2,2,06,28,43,286,46,33,59,305,47,,,,,,,,*67
###2023-11-09 13:10:47.548431$GNVTG,318.71,T,,M,4.57,N,8.46,K,A*23
