###2023-11-09 13:10:09.746345$GNVTG,88.21,T,,M,3.79,N,7.02,K,A*18
###2023-11-09 13:10:09.833613$GNGGA,131010.00,3611.0498990,N,07544.8886094,W,1,24,0.6,0.641,M,-39.961,M,0.0,*67
###2023-11-09 13:10:09.836215$GPGSV,2,1,07,05,20,090,39,10,19,293,44,13,24,045,40,15,61,037,45*7F
###2023-11-09 13:10:09.838515$GPGSV,2,2,07,18,78,277,46,23,50,316,45,24,50,134,46,,,,*4E
###2023-11-09 13:10:09.841094$GLGSV,2,1,05,70,49,019,35,71,48,291,48,80,19,089,42,85,56,202,48*6E
###2023-11-09 13:10:09.842721$GLGSV,2,2,05,86,54,306,48,,,,,,,,,,,,*56
###2023-11-09 13:10:09.845304$GAGSV,1,1,04,07,73,259,45,08,48,043,44,13,63,161,45,26,57,310,45*66
###2023-11-09 13:10:09.847901$GBGSV,2,1,06,11,22,180,42,14,65,009,45,24,21,132,43,26,23,080,42*66
###2023-11-09 13:10:09.849847$GBGSV,2,2,06,28,43,286,47,33,59,305,47,,,,,,,,*66
###2023-11-09 13:10:09.851275$GNVTG,82.89,T,,M,3.87,N,7.16,K,A*14
###2023-11-09 13:10:09.930721$GNGGA,131010.10,3611.0499101,N,07544.8884801,W,1,24,0.6,0.611,M,-39.961,M,0.0,*64
###2023-11-09 13:10:09.933298$GPGSV,2,1,07,05,20,090,40,10,19,293,44,13,24,045,40,15,61,037,46*72
###2023-11-09 13:10:09.935531$GPGSV,2,2,07,18,78,277,46,23,50,316,45,24,50,134,46,,,,*4E
###2023-11-09 13:10:09.938123$GLGSV,2,1,05,70,49,019,35,71,48,291,48,80,19,089,42,85,56,202,48*6E
###2023-11-09 13:10:09.939731$GLGSV,2,2,05,86,54,306,48,,,,,,,,,,,,*56
###2023-11-09 13:10:09.942285$GAGSV,1,1,04,07,73,259,45,08,48,043,44,13,63,161,45,26,57,310,45*66
###2023-11-09 13:10:09.944862$GBGSV,2,1,06,11,22,180,42,14,65,009,45,24,21,132,43,26,23,080,42*66
###2023-11-09 13:10:09.946794$GBGSV,2,2,06,28,43,286,47,33,59,305,47,,,,,,,,*66
###2023-11-09 13:10:09.948229$GNVTG,85.74,T,,M,3.79,N,7.02,K,A*15
###2023-11-09 13:10:10.029391$GNGGA,131010.20,3611.0499154,N,07544.8883524,W,1,24,0.6,0.577,M,-39.961,M,0.0,*69
###2023-11-09 13:10:10.031983$GPGSV,2,1,07,05,20,090,40,10,19,293,44,13,24,045,42,15,61,037,46*70
###2023-11-09 13:10:10.034229$GPGSV,2,2,07,18,78,277,46,23,50,316,45,24,50,134,46,,,,*4E
###2023-11-09 13:10:10.036806$GLGSV,2,1,05,70,49,019,35,71,48,291,48,80,19,089,42,85,56,202,48*6E
###2023-11-09 13:10:10.038426$GLGSV,2,2,05,86,54,306,48,,,,,,,,,,,,*56
###2023-11-09 13:10:10.041000$GAGSV,1,1,04,07,73,259,45,08,48,043,44,13,63,161,45,26,57,310,45*66
###2023-11-09 13:10:10.043575$GBGSV,2,1,06,11,22,180,42,14,65,009,45,24,21,132,43,26,23,080,43*67
###2023-11-09 13:10:10.045507$GBGSV,2,2,06,28,43,286,47,33,59,305,47,,,,,,,,*66
###2023-11-09 13:10:10.046946$GNVTG,88.70,T,,M,3.73,N,6.91,K,A*1D
###2023-11-09 13:10:10.127731$GNGGA,131010.30,3611.0499125,N,07544.8882250,W,1,24,0.6,0.540,M,-39.961,M,0.0,*6F
###2023-11-09 13:10:10.130326$GPGSV,2,1,07,05,20,090,41,10,19,293,45,13,24,045,42,15,61,037,46*70
###2023-11-09 13:10:10.132572$GPGSV,2,2,07,18,78,277,46,23,50,316,45,24,50,134,46,,,,*4E
###2023-11-09 13:10:10.135135$GLGSV,2,1,05,70,49,019,35,71,48,291,49,80,19,089,43,85,56,202,48*6E
###2023-11-09 13:10:10.136739$GLGSV,2,2,05,86,54,306,48,,,,,,,,,,,,*56
###2023-11-09 13:10:10.139318$GAGSV,1,1,04,07,73,259,45,08,48,043,44,13,63,161,45,26,57,310,45*66
###2023-11-09 13:10:10.141905$GBGSV,2,1,06,11,22,180,42,14,65,009,46,24,21,132,43,26,23,080,43*64
###2023-11-09 13:10:10.143842$GBGSV,2,2,06,28,43,286,48,33,59,305,48,,,,,,,,*66
###2023-11-09 13:10:10.145272$GNVTG,95.23,T,,M,3.75,N,6.95,K,A*15
###2023-11-09 13:10:10.228494$GNGGA,131010.40,3611.0498990,N,07544.8880969,W,1,24,0.6,0.525,M,-39.961,M,0.0,*6F
###2023-11-09 13:10:10.231067$GPGSV,2,1,07,05,20,090,41,10,19,293,45,13,24,045,42,15,61,037,46*70
###2023-11-09 13:10:10.233315$GPGSV,2,2,07,18,78,277,46,23,50,316,45,24,50,134,46,,,,*4E
###2023-11-09 13:10:10.235881$GLGSV,2,1,05,70,49,019,35,71,48,291,49,80,19,089,43,85,56,202,48*6E
###2023-11-09 13:10:10.237532$GLGSV,2,2,05,86,54,306,48,,,,,,,,,,,,*56
###2023-11-09 13:10:10.240105$GAGSV,1,1,04,07,73,259,45,08,48,043,44,13,63,161,45,26,57,310,45*66
###2023-11-09 13:10:10.242686$GBGSV,2,1,06,11,22,180,42,14,65,009,46,24,21,132,44,26,23,080,43*63
###2023-11-09 13:10:10.244623$GBGSV,2,2,06,28,43,286,49,33,59,305,48,,,,,,,,*67
###2023-11-09 13:10:10.246082$GNVTG,100.08,T,,M,3.83,N,7.09,K,A*2C
###2023-11-09 13:10:10.327390$GNGGA,131010.50,3611.0498822,N,07544.8879693,W,1,24,0.6,0.521,M,-39.961,M,0.0,*6E
###2023-11-09 13:10:10.329999$GPGSV,2,1,07,05,20,090,40,10,19,293,45,13,24,045,41,15,61,037,45*71
###2023-11-09 13:10:10.332254$GPGSV,2,2,07,18,78,277,46,23,50,316,45,24,50,134,46,,,,*4E
###2023-11-09 13:10:10.334830$GLGSV,2,1,05,70,49,019,35,71,48,291,49,80,19,089,42,85,56,202,48*6F
###2023-11-09 13:10:10.336441$GLGSV,2,2,05,86,54,306,47,,,,,,,,,,,,*59
###2023-11-09 13:10:10.339033$GAGSV,1,1,04,07,73,259,45,08,48,043,44,13,63,161,45,26,57,310,45*66
###2023-11-09 13:10:10.341619$GBGSV,2,1,06,11,22,180,43,14,65,009,46,24,21,132,45,26,23,080,43*63
###2023-11-09 13:10:10.343553$GBGSV,2,2,06,28,43,286,49,33,59,305,48,,,,,,,,*67
###2023-11-09 13:10:10.344977$GNVTG,99.02,T,,M,3.75,N,6.95,K,A*1A
###2023-11-09 13:10:10.427894$GNGGA,131010.60,3611.0498700,N,07544.8878431,W,1,24,0.6,0.519,M,-39.961,M,0.0,*62
###2023-11-09 13:10:10.430481$GPGSV,2,1,07,05,20,090,39,10,19,293,45,13,24,045,41,15,61,037,45*7F
###2023-11-09 13:10:10.432721$GPGSV,2,2,07,18,78,277,46,23,50,316,45,24,50,134,46,,,,*4E
###2023-11-09 13:10:10.435293$GLGSV,2,1,05,70,49,019,35,71,48,291,49,80,19,089,42,85,56,202,48*6F
###2023-11-09 13:10:10.436892$GLGSV,2,2,05,86,54,306,47,,,,,,,,,,,,*59
###2023-11-09 13:10:10.439491$GAGSV,1,1,04,07,73,259,45,08,48,043,44,13,63,161,44,26,57,310,45*67
###2023-11-09 13:10:10.442076$GBGSV,2,1,06,11,22,180,43,14,65,009,46,24,21,132,45,26,23,080,42*62
###2023-11-09 13:10:10.444010$GBGSV,2,2,06,28,43,286,48,33,59,305,48,,,,,,,,*66
###2023-11-09 13:10:10.445450$GNVTG,95.45,T,,M,3.73,N,6.91,K,A*17
###2023-11-09 13:10:10.527487$GNGGA,131010.70,3611.0498655,N,07544.8877155,W,1,24,0.6,0.536,M,-39.961,M,0.0,*67
###2023-11-09 13:10:10.530056$GPGSV,2,1,07,05,20,090,39,10,19,293,44,13,24,045,41,15,61,037,45*7E
###2023-11-09 13:10:10.532292$GPGSV,2,2,07,18,78,277,46,23,50,316,44,24,50,134,46,,,,*4F
###2023-11-09 13:10:10.534851$GLGSV,2,1,05,70,49,019,35,71,48,291,49,80,19,089,42,85,56,202,49*6E
###2023-11-09 13:10:10.536450$GLGSV,2,2,05,86,54,306,47,,,,,,,,,,,,*59
###2023-11-09 13:10:10.539031$GAGSV,1,1,04,07,73,259,45,08,48,043,44,13,63,161,45,26,57,310,45*66
###2023-11-09 13:10:10.541597$GBGSV,2,1,06,11,22,180,44,14,65,009,46,24,21,132,45,26,23,080,42*65
###2023-11-09 13:10:10.543530$GBGSV,2,2,06,28,43,286,49,33,59,305,48,,,,,,,,*67
###2023-11-09 13:10:10.544954$GNVTG,90.13,T,,M,3.79,N,7.02,K,A*10
###2023-11-09 13:10:10.627376$GNGGA,131010.80,3611.0498689,N,07544.8875854,W,1,24,0.6,0.559,M,-39.961,M,0.0,*6A
###2023-11-09 13:10:10.629963$GPGSV,2,1,07,05,20,090,39,10,19,293,44,13,24,045,41,15,61,037,45*7E
###2023-11-09 13:10:10.632214$GPGSV,2,2,07,18,78,277,46,23,50,316,44,24,50,134,46,,,,*4F
###2023-11-09 13:10:10.634781$GLGSV,2,1,05,70,49,019,35,71,48,291,48,80,19,089,42,85,56,202,48*6E
###2023-11-09 13:10:10.636388$GLGSV,2,2,05,86,54,306,47,,,,,,,,,,,,*59
###2023-11-09 13:10:10.638982$GAGSV,1,1,04,07,73,259,45,08,48,043,44,13,63,161,44,26,57,310,45*67
###2023-11-09 13:10:10.641561$GBGSV,2,1,06,11,22,180,44,14,65,009,46,24,21,132,45,26,23,080,42*65
###2023-11-09 13:10:10.643494$GBGSV,2,2,06,28,43,286,49,33,59,305,48,,,,,,,,*67
###2023-11-09 13:10:10.644922$GNVTG,87.02,T,,M,3.85,N,7.13,K,A*15
###2023-11-09 13:10:10.727997$GNGGA,131010.90,3611.0498746,N,07544.8874555,W,1,24,0.6,0.577,M,-39.961,M,0.0,*68
###2023-11-09 13:10:10.730589$GPGSV,2,1,07,05,20,090,39,10,19,293,44,13,24,045,42,15,61,037,45*7D
###2023-11-09 13:10:10.732842$GPGSV,2,2,07,18,78,277,46,23,50,316,44,24,50,134,46,,,,*4F
###2023-11-09 13:10:10.735413$GLGSV,2,1,05,70,49,019,35,71,48,291,48,80,19,089,42,85,56,202,48*6E
###2023-11-09 13:10:10.737026$GLGSV,2,2,05,86,54,306,47,,,,,,,,,,,,*59
###2023-11-09 13:10:10.739610$GAGSV,1,1,04,07,73,259,45,08,48,043,44,13,63,161,44,26,57,310,44*66
###2023-11-09 13:10:10.742188$GBGSV,2,1,06,11,22,180,43,14,65,009,46,24,21,132,45,26,23,080,42*62
###2023-11-09 13:10:10.744119$GBGSV,2,2,06,28,43,286,49,33,59,305,48,,,,,,,,*67
###2023-11-09 13:10:10.745537$GNVTG,87.72,T,,M,3.77,N,6.98,K,A*1D
###2023-11-09 13:10:10.832475$GNGGA,131011.00,3611.0498765,N,07544.8873270,W,1,24,0.6,0.587,M,-39.961,M,0.0,*69
###2023-11-09 13:10:10.835063$GPGSV,2,1,07,05,20,090,41,10,19,293,44,13,24,045,42,15,61,037,45*72
###2023-11-09 13:10:10.837333$GPGSV,2,2,07,18,78,277,47,23,50,316,45,24,50,134,46,,,,*4F
###2023-11-09 13:10:10.839893$GLGSV,2,1,05,70,49,019,35,71,48,291,48,80,19,089,43,85,56,202,48*6F
###2023-11-09 13:10:10.841497$GLGSV,2,2,05,86,54,306,48,,,,,,,,,,,,*56
###2023-11-09 13:10:10.844049$GAGSV,1,1,04,07,73,259,45,08,48,043,44,13,63,161,44,26,57,310,44*66
###2023-11-09 13:10:10.846609$GBGSV,2,1,06,11,22,180,41,14,65,009,46,24,21,132,44,26,23,080,43*60
###2023-11-09 13:10:10.848544$GBGSV,2,2,06,28,43,286,48,33,59,305,48,,,,,,,,*66
###2023-11-09 13:10:10.849967$GNVTG,90.80,T,,M,3.75,N,6.95,K,A*19
