###2023-11-09 13:06:03.346014$GBGSV,2,1,06,11,24,180,41,14,65,006,45,24,19,133,42,26,23,082,42*65
###2023-11-09 13:06:03.347996$GBGSV,2,2,06,28,43,289,46,33,58,302,48,,,,,,,,*61
###2023-11-09 13:06:03.349463$GNVTG,277.69,T,,M,0.72,N,1.33,K,A*2A
###2023-11-09 13:06:03.431631$GNGGA,130603.60,3611.0384146,N,07544.9844453,W,1,24,0.6,1.194,M,-39.962,M,0.0,*60
###2023-11-09 13:06:03.434263$GPGSV,2,1,07,05,21,089,42,10,17,292,43,13,25,045,42,15,62,036,47*71
###2023-11-09 13:06:03.436535$GPGSV,2,2,07,18,77,285,46,23,49,314,46,24,49,137,45,,,,*4D
###2023-11-09 13:06:03.439175$GLGSV,2,1,05,70,50,016,35,71,48,288,49,80,17,092,44,85,59,204,48*6B
###2023-11-09 13:06:03.440789$GLGSV,2,2,05,86,52,311,48,,,,,,,,,,,,*56
###2023-11-09 13:06:03.443359$GAGSV,1,1,04,07,72,255,45,08,49,042,45,13,64,160,45,26,56,311,46*6F
###2023-11-09 13:06:03.445942$GBGSV,2,1,06,11,24,180,41,14,65,006,45,24,19,133,42,26,23,082,43*64
###2023-11-09 13:06:03.447901$GBGSV,2,2,06,28,43,289,46,33,58,302,48,,,,,,,,*61
###2023-11-09 13:06:03.449367$GNVTG,277.69,T,,M,0.62,N,1.15,K,A*2F
###2023-11-09 13:06:03.533251$GNGGA,130603.70,3611.0384285,N,07544.9844518,W,1,24,0.6,1.129,M,-39.962,M,0.0,*65
###2023-11-09 13:06:03.535854$GPGSV,2,1,07,05,21,089,42,10,17,292,44,13,25,045,42,15,62,036,47*76
###2023-11-09 13:06:03.538130$GPGSV,2,2,07,18,77,285,46,23,49,314,46,24,49,137,45,,,,*4D
###2023-11-09 13:06:03.540703$GLGSV,2,1,05,70,50,016,35,71,48,288,49,80,17,092,44,85,59,204,48*6B
###2023-11-09 13:06:03.542316$GLGSV,2,2,05,86,52,311,48,,,,,,,,,,,,*56
###2023-11-09 13:06:03.544885$GAGSV,1,1,04,07,72,255,45,08,49,042,45,13,64,160,45,26,56,311,46*6F
###2023-11-09 13:06:03.547478$GBGSV,2,1,06,11,24,180,41,14,65,006,45,24,19,133,42,26,23,082,44*63
###2023-11-09 13:06:03.549415$GBGSV,2,2,06,28,43,289,46,33,58,302,48,,,,,,,,*61
###2023-11-09 13:06:03.550883$GNVTG,277.69,T,,M,0.51,N,0.94,K,A*27
###2023-11-09 13:06:03.632103$GNGGA,130603.80,3611.0384413,N,07544.9844556,W,1,24,0.6,1.066,M,-39.962,M,0.0,*63
###2023-11-09 13:06:03.634693$GPGSV,2,1,07,05,21,089,42,10,17,292,43,13,25,045,42,15,62,036,47*71
###2023-11-09 13:06:03.636964$GPGSV,2,2,07,18,77,285,46,23,49,314,45,24,49,137,45,,,,*4E
###2023-11-09 13:06:03.639541$GLGSV,2,1,05,70,50,016,35,71,48,288,49,80,17,092,45,85,59,204,48*6A
###2023-11-09 13:06:03.641141$GLGSV,2,2,05,86,52,311,48,,,,,,,,,,,,*56
###2023-11-09 13:06:03.643693$GAGSV,1,1,04,07,72,255,45,08,49,042,45,13,64,160,45,26,56,311,45*6C
###2023-11-09 13:06:03.646262$GBGSV,2,1,06,11,24,180,41,14,65,006,45,24,19,133,42,26,23,082,44*63
###2023-11-09 13:06:03.648200$GBGSV,2,2,06,28,43,289,46,33,58,302,48,,,,,,,,*61
###2023-11-09 13:06:03.649667$GNVTG,277.69,T,,M,0.49,N,0.90,K,A*2A
###2023-11-09 13:06:03.731001$GNGGA,130603.90,3611.0384527,N,07544.9844563,W,1,23,0.6,1.004,M,-39.962,M,0.0,*61
###2023-11-09 13:06:03.733608$GPGSV,2,1,07,05,21,089,42,10,17,292,43,13,25,045,42,15,62,036,47*71
###2023-11-09 13:06:03.735867$GPGSV,2,2,07,18,77,285,46,23,49,314,45,24,49,137,46,,,,*4D
###2023-11-09 13:06:03.738588$GLGSV,1,1,04,71,48,288,49,80,17,092,44,85,59,204,48,86,52,311,48*6C
###2023-11-09 13:06:03.741178$GAGSV,1,1,04,07,72,255,45,08,49,042,45,13,64,160,44,26,56,311,45*6D
###2023-11-09 13:06:03.743766$GBGSV,2,1,06,11,24,180,41,14,65,006,45,24,19,133,42,26,23,082,44*63
###2023-11-09 13:06:03.745703$GBGSV,2,2,06,28,43,289,46,33,58,302,48,,,,,,,,*61
###2023-11-09 13:06:03.747185$GNVTG,277.69,T,,M,0.39,N,0.72,K,A*21
###2023-11-09 13:06:03.838756$GNGGA,130604.00,3611.0384626,N,07544.9844526,W,1,24,0.6,0.949,M,-39.962,M,0.0,*6A
###2023-11-09 13:06:03.841345$GPGSV,2,1,07,05,21,089,42,10,17,292,43,13,25,045,42,15,62,036,47*71
###2023-11-09 13:06:03.843590$GPGSV,2,2,07,18,77,285,46,23,49,314,45,24,49,137,46,,,,*4D
###2023-11-09 13:06:03.846159$GLGSV,2,1,05,70,50,016,35,71,48,288,49,80,17,092,44,85,59,204,48*6B
###2023-11-09 13:06:03.847783$GLGSV,2,2,05,86,52,311,48,,,,,,,,,,,,*56
###2023-11-09 13:06:03.850348$GAGSV,1,1,04,07,72,255,45,08,49,042,45,13,64,160,44,26,56,311,45*6D
###2023-11-09 13:06:03.852933$GBGSV,2,1,06,11,24,180,41,14,65,006,45,24,19,133,42,26,23,082,42*65
###2023-11-09 13:06:03.854875$GBGSV,2,2,06,28,43,289,46,33,58,302,48,,,,,,,,*61
###2023-11-09 13:06:03.856347$GNVTG,277.69,T,,M,0.41,N,0.76,K,A*2A
###2023-11-09 13:06:03.936109$GNGGA,130604.10,3611.0384737,N,07544.9844419,W,1,24,0.6,0.902,M,-39.962,M,0.0,*68
###2023-11-09 13:06:03.938696$GPGSV,2,1,07,05,21,089,41,10,17,292,43,13,25,045,41,15,62,036,47*71
###2023-11-09 13:06:03.940940$GPGSV,2,2,07,18,77,285,46,23,49,314,46,24,49,137,46,,,,*4E
###2023-11-09 13:06:03.943497$GLGSV,2,1,05,70,50,016,35,71,48,288,49,80,17,092,43,85,59,204,49*6D
###2023-11-09 13:06:03.945105$GLGSV,2,2,05,86,52,311,48,,,,,,,,,,,,*56
###2023-11-09 13:06:03.947683$GAGSV,1,1,04,07,72,255,45,08,49,042,45,13,64,160,44,26,56,311,45*6D
###2023-11-09 13:06:03.950268$GBGSV,2,1,06,11,24,180,41,14,65,006,45,24,19,133,41,26,23,082,41*65
###2023-11-09 13:06:03.952229$GBGSV,2,2,06,28,43,289,46,33,58,302,48,,,,,,,,*61
###2023-11-09 13:06:03.953702$GNVTG,277.69,T,,M,0.64,N,1.19,K,A*25
###2023-11-09 13:06:04.033358$GNGGA,130604.20,3611.0384868,N,07544.9844216,W,1,24,0.6,0.866,M,-39.962,M,0.0,*64
###2023-11-09 13:06:04.035946$GPGSV,2,1,07,05,21,089,41,10,17,292,44,13,25,045,41,15,62,036,47*76
###2023-11-09 13:06:04.038219$GPGSV,2,2,07,18,77,285,46,23,49,314,46,24,49,137,46,,,,*4E
###2023-11-09 13:06:04.040798$GLGSV,2,1,05,70,50,016,35,71,48,288,49,80,17,092,43,85,59,204,49*6D
###2023-11-09 13:06:04.042401$GLGSV,2,2,05,86,52,311,48,,,,,,,,,,,,*56
###2023-11-09 13:06:04.044976$GAGSV,1,1,04,07,72,255,45,08,49,042,45,13,64,160,44,26,56,311,45*6D
###2023-11-09 13:06:04.047558$GBGSV,2,1,06,11,24,180,41,14,65,006,45,24,19,133,41,26,23,082,41*65
###2023-11-09 13:06:04.049496$GBGSV,2,2,06,28,43,289,46,33,58,302,48,,,,,,,,*61
###2023-11-09 13:06:04.050960$GNVTG,277.69,T,,M,0.89,N,1.66,K,A*2E
###2023-11-09 13:06:04.133482$GNGGA,130604.30,3611.0385009,N,07544.9843914,W,1,24,0.6,0.843,M,-39.962,M,0.0,*62
###2023-11-09 13:06:04.136076$GPGSV,2,1,07,05,21,089,41,10,17,292,44,13,25,045,41,15,62,036,47*76
###2023-11-09 13:06:04.138356$GPGSV,2,2,07,18,77,285,46,23,49,314,46,24,49,137,46,,,,*4E
###2023-11-09 13:06:04.140931$GLGSV,2,1,05,70,50,016,35,71,48,288,49,80,17,092,44,85,59,204,48*6B
###2023-11-09 13:06:04.142535$GLGSV,2,2,05,86,52,311,48,,,,,,,,,,,,*56
###2023-11-09 13:06:04.145112$GAGSV,1,1,04,07,72,255,45,08,49,042,45,13,64,160,45,26,56,311,45*6C
###2023-11-09 13:06:04.147702$GBGSV,2,1,06,11,24,180,40,14,65,006,45,24,19,133,41,26,23,082,41*64
###2023-11-09 13:06:04.149638$GBGSV,2,2,06,28,43,289,46,33,58,302,48,,,,,,,,*61
###2023-11-09 13:06:04.151059$GNVTG,63.04,T,,M,1.15,N,2.12,K,A*16
###2023-11-09 13:06:04.231971$GNGGA,130604.40,3611.0385146,N,07544.9843548,W,1,24,0.6,0.825,M,-39.962,M,0.0,*6A
###2023-11-09 13:06:04.234548$GPGSV,2,1,07,05,21,089,42,10,17,292,44,13,25,045,41,15,62,036,47*75
###2023-11-09 13:06:04.236783$GPGSV,2,2,07,18,77,285,46,23,49,314,46,24,49,137,45,,,,*4D
###2023-11-09 13:06:04.239362$GLGSV,2,1,05,70,50,016,35,71,48,288,49,80,17,092,45,85,59,204,47*65
###2023-11-09 13:06:04.240963$GLGSV,2,2,05,86,52,311,48,,,,,,,,,,,,*56
###2023-11-09 13:06:04.243521$GAGSV,1,1,04,07,72,255,45,08,49,042,45,13,64,160,45,26,56,311,45*6C
###2023-11-09 13:06:04.246091$GBGSV,2,1,06,11,24,180,40,14,65,006,45,24,19,133,41,26,23,082,42*67
###2023-11-09 13:06:04.248034$GBGSV,2,2,06,28,43,289,46,33,58,302,48,,,,,,,,*61
###2023-11-09 13:06:04.249462$GNVTG,66.69,T,,M,1.22,N,2.27,K,A*1A
###2023-11-09 13:06:04.331116$GNGGA,130604.50,3611.0385266,N,07544.9843180,W,1,24,0.6,0.814,M,-39.962,M,0.0,*68
###2023-11-09 13:06:04.333712$GPGSV,2,1,07,05,21,089,42,10,17,292,44,13,25,045,41,15,62,036,47*75
###2023-11-09 13:06:04.335985$GPGSV,2,2,07,18,77,285,47,23,49,314,46,24,49,137,45,,,,*4C
###2023-11-09 13:06:04.338574$GLGSV,2,1,05,70,50,016,35,71,48,288,49,80,17,092,45,85,59,204,48*6A
###2023-11-09 13:06:04.340183$GLGSV,2,2,05,86,52,311,47,,,,,,,,,,,,*59
###2023-11-09 13:06:04.342751$GAGSV,1,1,04,07,72,255,45,08,49,042,45,13,64,160,45,26,56,311,45*6C
###2023-11-09 13:06:04.345327$GBGSV,2,1,06,11,24,180,40,14,65,006,45,24,19,133,41,26,23,082,43*66
###2023-11-09 13:06:04.347581$GBGSV,2,2,06,28,43,289,47,33,58,302,48,,,,,,,,*60
###2023-11-09 13:06:04.349026$GNVTG,68.85,T,,M,1.11,N,2.05,K,A*16
###2023-11-09 13:06:04.432985$GNGGA,130604.60,3611.0385355,N,07544.9842844,W,1,24,0.6,0.807,M,-39.962,M,0.0,*68
###2023-11-09 13:06:04.435577$GPGSV,2,1,07,05,21,089,42,10,17,292,44,13,25,045,41,15,62,036,47*75
###2023-11-09 13:06:04.437860$GPGSV,2,2,07,18,77,285,46,23,49,314,46,24,49,137,45,,,,*4D
###2023-11-09 13:06:04.440451$GLGSV,2,1,05,70,50,016,35,71,48,288,49,80,17,092,45,85,59,204,48*6A
###2023-11-09 13:06:04.442065$GLGSV,2,2,05,86,52,311,48,,,,,,,,,,,,*56
###2023-11-09 13:06:04.444636$GAGSV,1,1,04,07,72,255,45,08,49,042,45,13,64,160,45,26,56,311,45*6C
###2023-11-09 13:06:04.447241$GBGSV,2,1,06,11,24,180,40,14,65,006,45,24,19,133,42,26,23,082,43*65
###2023-11-09 13:06:04.449189$GBGSV,2,2,06,28,43,289,47,33,58,302,48,,,,,,,,*60
