###2023-11-09 13:08:23.846216$GLGSV,2,2,05,86,53,308,47,,,,,,,,,,,,*50
###2023-11-09 13:08:23.848843$GAGSV,1,1,04,07,72,258,45,08,48,043,45,13,64,160,45,26,57,310,45*61
###2023-11-09 13:08:23.851435$GBGSV,2,1,06,11,23,180,41,14,65,008,45,24,20,132,45,26,23,081,44*65
###2023-11-09 13:08:23.853381$GBGSV,2,2,06,28,43,287,47,33,59,304,47,,,,,,,,*66
###2023-11-09 13:08:23.854853$GNVTG,221.46,T,,M,3.71,N,6.88,K,A*23
###2023-11-09 13:08:23.938751$GNGGA,130824.10,3611.0345179,N,07545.0165050,W,1,24,0.6,0.705,M,-39.962,M,0.0,*67
###2023-11-09 13:08:23.941349$GPGSV,2,1,07,05,20,090,44,10,19,293,45,13,24,045,42,15,62,037,46*76
###2023-11-09 13:08:23.943609$GPGSV,2,2,07,18,77,281,46,23,50,315,46,24,49,136,46,,,,*42
###2023-11-09 13:08:23.946212$GLGSV,2,1,05,70,50,017,36,71,48,290,47,80,18,090,46,85,57,203,48*68
###2023-11-09 13:08:23.947850$GLGSV,2,2,05,86,53,308,48,,,,,,,,,,,,*5F
###2023-11-09 13:08:23.950455$GAGSV,1,1,04,07,72,258,45,08,48,043,45,13,64,160,45,26,57,310,45*61
###2023-11-09 13:08:23.953075$GBGSV,2,1,06,11,23,180,42,14,65,008,45,24,20,132,45,26,23,081,44*66
###2023-11-09 13:08:23.955019$GBGSV,2,2,06,28,43,287,47,33,59,304,47,,,,,,,,*66
###2023-11-09 13:08:23.956497$GNVTG,223.68,T,,M,3.65,N,6.77,K,A*28
###2023-11-09 13:08:24.032624$GNGGA,130824.20,3611.0344460,N,07545.0165951,W,1,24,0.6,0.709,M,-39.962,M,0.0,*6C
###2023-11-09 13:08:24.035219$GPGSV,2,1,07,05,20,090,44,10,19,293,45,13,24,045,42,15,62,037,46*76
###2023-11-09 13:08:24.037502$GPGSV,2,2,07,18,77,281,46,23,50,315,46,24,49,136,46,,,,*42
###2023-11-09 13:08:24.040082$GLGSV,2,1,05,70,50,017,37,71,48,290,47,80,18,090,46,85,57,203,48*69
###2023-11-09 13:08:24.041690$GLGSV,2,2,05,86,53,308,48,,,,,,,,,,,,*5F
###2023-11-09 13:08:24.044257$GAGSV,1,1,04,07,72,258,45,08,48,043,45,13,64,160,45,26,57,310,45*61
###2023-11-09 13:08:24.046830$GBGSV,2,1,06,11,23,180,42,14,65,008,45,24,20,132,44,26,23,081,44*67
###2023-11-09 13:08:24.048776$GBGSV,2,2,06,28,43,287,47,33,59,304,47,,,,,,,,*66
###2023-11-09 13:08:24.050229$GNVTG,227.13,T,,M,3.71,N,6.88,K,A*25
###2023-11-09 13:08:24.128391$GNGGA,130824.30,3611.0343737,N,07545.0166900,W,1,24,0.6,0.733,M,-39.962,M,0.0,*65
###2023-11-09 13:08:24.130987$GPGSV,2,1,07,05,20,090,43,10,19,293,45,13,24,045,42,15,62,037,46*71
###2023-11-09 13:08:24.133236$GPGSV,2,2,07,18,77,281,46,23,50,315,46,24,49,136,46,,,,*42
###2023-11-09 13:08:24.135815$GLGSV,2,1,05,70,50,017,37,71,48,290,48,80,18,090,45,85,57,203,48*65
###2023-11-09 13:08:24.137562$GLGSV,2,2,05,86,53,308,48,,,,,,,,,,,,*5F
###2023-11-09 13:08:24.140141$GAGSV,1,1,04,07,72,258,45,08,48,043,45,13,64,160,44,26,57,310,45*60
###2023-11-09 13:08:24.142731$GBGSV,2,1,06,11,23,180,41,14,65,008,45,24,20,132,43,26,23,081,44*63
###2023-11-09 13:08:24.144670$GBGSV,2,2,06,28,43,287,47,33,59,304,47,,,,,,,,*66
###2023-11-09 13:08:24.146137$GNVTG,227.02,T,,M,3.87,N,7.16,K,A*2A
###2023-11-09 13:08:24.230361$GNGGA,130824.40,3611.0342981,N,07545.0167864,W,1,24,0.6,0.766,M,-39.962,M,0.0,*62
###2023-11-09 13:08:24.232940$GPGSV,2,1,07,05,20,090,43,10,19,293,45,13,24,045,42,15,62,037,46*71
###2023-11-09 13:08:24.235189$GPGSV,2,2,07,18,77,281,46,23,50,315,46,24,49,136,45,,,,*41
###2023-11-09 13:08:24.237794$GLGSV,2,1,05,70,50,017,37,71,48,290,49,80,18,090,45,85,57,203,48*64
###2023-11-09 13:08:24.239413$GLGSV,2,2,05,86,53,308,48,,,,,,,,,,,,*5F
###2023-11-09 13:08:24.241981$GAGSV,1,1,04,07,72,258,45,08,48,043,45,13,64,160,44,26,57,310,45*60
###2023-11-09 13:08:24.244562$GBGSV,2,1,06,11,23,180,39,14,65,008,45,24,20,132,42,26,23,081,44*6D
###2023-11-09 13:08:24.246494$GBGSV,2,2,06,28,43,287,47,33,59,304,47,,,,,,,,*66
###2023-11-09 13:08:24.247974$GNVTG,225.33,T,,M,3.95,N,7.31,K,A*2C
###2023-11-09 13:08:24.328862$GNGGA,130824.50,3611.0342140,N,07545.0168805,W,1,24,0.6,0.797,M,-39.962,M,0.0,*60
###2023-11-09 13:08:24.331431$GPGSV,2,1,07,05,20,090,43,10,19,293,45,13,24,045,42,15,62,037,46*71
###2023-11-09 13:08:24.333665$GPGSV,2,2,07,18,77,281,46,23,50,315,46,24,49,136,45,,,,*41
###2023-11-09 13:08:24.336228$GLGSV,2,1,05,70,50,017,37,71,48,290,49,80,18,090,45,85,57,203,48*64
###2023-11-09 13:08:24.337840$GLGSV,2,2,05,86,53,308,49,,,,,,,,,,,,*5E
###2023-11-09 13:08:24.340395$GAGSV,1,1,04,07,72,258,45,08,48,043,45,13,64,160,44,26,57,310,45*60
###2023-11-09 13:08:24.342969$GBGSV,2,1,06,11,23,180,39,14,65,008,45,24,20,132,42,26,23,081,44*6D
###2023-11-09 13:08:24.344895$GBGSV,2,2,06,28,43,287,47,33,59,304,48,,,,,,,,*69
###2023-11-09 13:08:24.346352$GNVTG,219.78,T,,M,4.22,N,7.81,K,A*2C
###2023-11-09 13:08:24.429401$GNGGA,130824.60,3611.0341236,N,07545.0169732,W,1,24,0.6,0.805,M,-39.962,M,0.0,*6C
###2023-11-09 13:08:24.432012$GPGSV,2,1,07,05,20,090,43,10,19,293,44,13,24,045,42,15,62,037,46*70
###2023-11-09 13:08:24.434278$GPGSV,2,2,07,18,77,281,46,23,50,315,46,24,49,136,45,,,,*41
###2023-11-09 13:08:24.436867$GLGSV,2,1,05,70,50,017,37,71,48,290,48,80,18,090,45,85,57,203,48*65
###2023-11-09 13:08:24.438493$GLGSV,2,2,05,86,53,308,48,,,,,,,,,,,,*5F
###2023-11-09 13:08:24.441080$GAGSV,1,1,04,07,72,258,45,08,48,043,45,13,64,160,44,26,57,310,45*60
###2023-11-09 13:08:24.443671$GBGSV,2,1,06,11,23,180,39,14,65,008,45,24,20,132,42,26,23,081,44*6D
###2023-11-09 13:08:24.445607$GBGSV,2,2,06,28,43,287,47,33,59,304,47,,,,,,,,*66
###2023-11-09 13:08:24.447082$GNVTG,220.06,T,,M,4.22,N,7.81,K,A*2F
###2023-11-09 13:08:24.530387$GNGGA,130824.70,3611.0340327,N,07545.0170672,W,1,24,0.6,0.788,M,-39.962,M,0.0,*6A
###2023-11-09 13:08:24.533004$GPGSV,2,1,07,05,20,090,43,10,19,293,43,13,24,045,42,15,62,037,46*77
###2023-11-09 13:08:24.535268$GPGSV,2,2,07,18,77,281,46,23,50,315,46,24,49,136,46,,,,*42
###2023-11-09 13:08:24.537880$GLGSV,2,1,05,70,50,017,36,71,48,290,48,80,18,090,45,85,57,203,48*64
###2023-11-09 13:08:24.539491$GLGSV,2,2,05,86,53,308,48,,,,,,,,,,,,*5F
###2023-11-09 13:08:24.542075$GAGSV,1,1,04,07,72,258,45,08,48,043,45,13,64,160,44,26,57,310,45*60
###2023-11-09 13:08:24.544663$GBGSV,2,1,06,11,23,180,40,14,65,008,45,24,20,132,43,26,23,081,44*62
###2023-11-09 13:08:24.546603$GBGSV,2,2,06,28,43,287,47,33,59,304,47,,,,,,,,*66
###2023-11-09 13:08:24.548093$GNVTG,220.24,T,,M,4.32,N,7.99,K,A*27
###2023-11-09 13:08:24.629614$GNGGA,130824.80,3611.0339413,N,07545.0171632,W,1,24,0.6,0.765,M,-39.962,M,0.0,*6D
###2023-11-09 13:08:24.632192$GPGSV,2,1,07,05,20,090,44,10,19,293,43,13,24,045,42,15,62,037,46*70
###2023-11-09 13:08:24.634438$GPGSV,2,2,07,18,77,281,46,23,50,315,46,24,49,136,46,,,,*42
###2023-11-09 13:08:24.637020$GLGSV,2,1,05,70,50,017,36,71,48,290,47,80,18,090,46,85,57,203,48*68
###2023-11-09 13:08:24.638631$GLGSV,2,2,05,86,53,308,48,,,,,,,,,,,,*5F
###2023-11-09 13:08:24.641196$GAGSV,1,1,04,07,72,258,45,08,48,043,45,13,64,160,45,26,57,310,45*61
###2023-11-09 13:08:24.643769$GBGSV,2,1,06,11,23,180,41,14,65,008,45,24,20,132,43,26,23,081,45*62
###2023-11-09 13:08:24.645696$GBGSV,2,2,06,28,43,287,46,33,59,304,47,,,,,,,,*67
###2023-11-09 13:08:24.647167$GNVTG,221.26,T,,M,4.33,N,8.03,K,A*29
###2023-11-09 13:08:24.730774$GNGGA,130824.90,3611.0338527,N,07545.0172644,W,1,24,0.6,0.743,M,-39.962,M,0.0,*6D
###2023-11-09 13:08:24.733375$GPGSV,2,1,07,05,20,090,44,10,19,293,42,13,24,045,42,15,62,037,46*71
###2023-11-09 13:08:24.735631$GPGSV,2,2,07,18,77,281,46,23,50,315,46,24,49,136,46,,,,*42
###2023-11-09 13:08:24.738228$GLGSV,2,1,05,70,50,017,36,71,48,290,47,80,18,090,46,85,57,203,48*68
###2023-11-09 13:08:24.739843$GLGSV,2,2,05,86,53,308,48,,,,,,,,,,,,*5F
###2023-11-09 13:08:24.742407$GAGSV,1,1,04,07,72,258,45,08,48,043,45,13,64,160,45,26,57,310,45*61
###2023-11-09 13:08:24.744990$GBGSV,2,1,06,11,23,180,42,14,65,008,45,24,20,132,44,26,23,081,45*66
###2023-11-09 13:08:24.746941$GBGSV,2,2,06,28,43,287,46,33,59,304,46,,,,,,,,*66
###2023-11-09 13:08:24.748410$GNVTG,224.63,T,,M,4.35,N,8.06,K,A*2E
###2023-11-09 13:08:24.832486$GNGGA,130825.00,3611.0337668,N,07545.0173710,W,1,24,0.6,0.734,M,-39.962,M,0.0,*63
###2023-11-09 13:08:24.835075$GPGSV,2,1,07,05,20,090,44,10,19,293,43,13,24,045,42,15,62,037,46*70
###2023-11-09 13:08:24.837347$GPGSV,2,2,07,18,77,281,46,23,50,315,46,24,49,136,46,,,,*42
###2023-11-09 13:08:24.839934$GLGSV,2,1,05,70,50,017,36,71,48,290,47,80,18,090,45,85,57,203,48*6B
###2023-11-09 13:08:24.841843$GLGSV,2,2,05,86,53,308,48,,,,,,,,,,,,*5F
###2023-11-09 13:08:24.844437$GAGSV,1,1,04,07,72,258,45,08,48,043,45,13,64,160,45,26,57,310,45*61
###2023-11-09 13:08:24.847048$GBGSV,2,1,06,11,23,180,42,14,65,008,45,24,20,132,44,26,23,081,45*66
###2023-11-09 13:08:24.848990$GBGSV,2,2,06,28,43,287,46,33,59,304,46,,,,,,,,*66
###2023-11-09 13:08:24.850459$GNVTG,226.03,T,,M,4.41,N,8.17,K,A*29
###2023-11-09 13:08:24.930346$GNGGA,130825.10,3611.0336795,N,07545.0174814,W,1,24,0.6,0.739,M,-39.962,M,0.0,*61
###2023-11-09 13:08:24.932913$GPGSV,2,1,07,05,20,090,43,10,19,293,44,13,24,045,42,15,62,037,46*70
###2023-11-09 13:08:24.935152$GPGSV,2,2,07,18,77,281,46,23,50,315,46,24,49,136,46,,,,*42
###2023-11-09 13:08:24.937732$GLGSV,2,1,05,70,50,017,36,71,48,290,47,80,18,090,45,85,57,203,48*6B
###2023-11-09 13:08:24.939335$GLGSV,2,2,05,86,53,308,48,,,,,,,,,,,,*5F
