###2023-11-09 13:07:01.345029$GBGSV,2,2,06,28,43,289,46,33,58,302,47,,,,,,,,*6E
###2023-11-09 13:07:01.346489$GNVTG,20.42,T,,M,0.91,N,1.69,K,A*11
###2023-11-09 13:07:01.431498$GNGGA,130701.60,3611.0490370,N,07544.9776455,W,1,24,0.6,0.984,M,-39.961,M,0.0,*65
###2023-11-09 13:07:01.434118$GPGSV,2,1,07,05,21,090,42,10,18,292,42,13,24,045,41,15,62,037,46*75
###2023-11-09 13:07:01.436391$GPGSV,2,2,07,18,77,281,47,23,50,315,45,24,49,136,46,,,,*40
###2023-11-09 13:07:01.439029$GLGSV,2,1,05,70,50,016,35,71,48,288,48,80,17,091,44,85,58,203,48*6F
###2023-11-09 13:07:01.440657$GLGSV,2,2,05,86,52,309,47,,,,,,,,,,,,*50
###2023-11-09 13:07:01.443240$GAGSV,1,1,04,07,72,255,45,08,49,042,44,13,64,160,44,26,56,311,45*6C
###2023-11-09 13:07:01.445827$GBGSV,2,1,06,11,24,180,42,14,65,006,46,24,19,133,43,26,23,082,42*64
###2023-11-09 13:07:01.447794$GBGSV,2,2,06,28,43,289,46,33,58,302,47,,,,,,,,*6E
###2023-11-09 13:07:01.449231$GNVTG,25.52,T,,M,1.01,N,1.87,K,A*1D
###2023-11-09 13:07:01.529486$GNGGA,130701.70,3611.0490632,N,07544.9776310,W,1,24,0.6,0.980,M,-39.961,M,0.0,*65
###2023-11-09 13:07:01.532070$GPGSV,2,1,07,05,21,090,42,10,18,292,42,13,24,045,41,15,62,037,46*75
###2023-11-09 13:07:01.534320$GPGSV,2,2,07,18,77,281,47,23,50,315,45,24,49,136,47,,,,*41
###2023-11-09 13:07:01.536892$GLGSV,2,1,05,70,50,016,35,71,48,288,48,80,17,091,44,85,58,203,48*6F
###2023-11-09 13:07:01.538509$GLGSV,2,2,05,86,52,309,47,,,,,,,,,,,,*50
###2023-11-09 13:07:01.541069$GAGSV,1,1,04,07,72,255,45,08,49,042,44,13,64,160,45,26,56,311,45*6D
###2023-11-09 13:07:01.543643$GBGSV,2,1,06,11,24,180,42,14,65,006,45,24,19,133,43,26,23,082,42*67
###2023-11-09 13:07:01.545571$GBGSV,2,2,06,28,43,289,47,33,58,302,47,,,,,,,,*6F
###2023-11-09 13:07:01.547005$GNVTG,23.99,T,,M,1.11,N,2.05,K,A*14
###2023-11-09 13:07:01.628541$GNGGA,130701.80,3611.0490935,N,07544.9776136,W,1,24,0.6,0.970,M,-39.961,M,0.0,*6B
###2023-11-09 13:07:01.631157$GPGSV,2,1,07,05,21,090,42,10,18,292,42,13,24,045,41,15,62,037,46*75
###2023-11-09 13:07:01.633428$GPGSV,2,2,07,18,77,281,46,23,50,315,45,24,49,136,47,,,,*40
###2023-11-09 13:07:01.636016$GLGSV,2,1,05,70,50,016,35,71,48,288,48,80,17,091,44,85,58,203,48*6F
###2023-11-09 13:07:01.637651$GLGSV,2,2,05,86,52,309,47,,,,,,,,,,,,*50
###2023-11-09 13:07:01.640228$GAGSV,1,1,04,07,72,255,45,08,49,042,44,13,64,160,45,26,56,311,45*6D
###2023-11-09 13:07:01.642807$GBGSV,2,1,06,11,24,180,42,14,65,006,45,24,19,133,43,26,23,082,42*67
###2023-11-09 13:07:01.644748$GBGSV,2,2,06,28,43,289,47,33,58,302,47,,,,,,,,*6F
###2023-11-09 13:07:01.646177$GNVTG,26.65,T,,M,1.34,N,2.48,K,A*1C
###2023-11-09 13:07:01.729506$GNGGA,130701.90,3611.0491265,N,07544.9775923,W,1,24,0.6,0.962,M,-39.961,M,0.0,*69
###2023-11-09 13:07:01.732109$GPGSV,2,1,07,05,21,090,42,10,18,292,42,13,24,045,41,15,62,037,46*75
###2023-11-09 13:07:01.734369$GPGSV,2,2,07,18,77,281,46,23,50,315,45,24,49,136,46,,,,*41
###2023-11-09 13:07:01.736952$GLGSV,2,1,05,70,50,016,35,71,48,288,48,80,17,091,44,85,58,203,48*6F
###2023-11-09 13:07:01.738563$GLGSV,2,2,05,86,52,309,47,,,,,,,,,,,,*50
###2023-11-09 13:07:01.741126$GAGSV,1,1,04,07,72,255,45,08,49,042,44,13,64,160,45,26,56,311,45*6D
###2023-11-09 13:07:01.743690$GBGSV,2,1,06,11,24,180,42,14,65,006,45,24,19,133,43,26,23,082,42*67
###2023-11-09 13:07:01.745621$GBGSV,2,2,06,28,43,289,47,33,58,302,47,,,,,,,,*6F
###2023-11-09 13:07:01.747064$GNVTG,28.97,T,,M,1.38,N,2.56,K,A*1C
###2023-11-09 13:07:01.831477$GNGGA,130702.00,3611.0491576,N,07544.9775706,W,1,24,0.6,0.949,M,-39.961,M,0.0,*66
###2023-11-09 13:07:01.834062$GPGSV,2,1,07,05,21,090,42,10,18,292,43,13,24,045,41,15,62,037,46*74
###2023-11-09 13:07:01.836310$GPGSV,2,2,07,18,77,281,47,23,50,315,45,24,49,136,46,,,,*40
###2023-11-09 13:07:01.838893$GLGSV,2,1,05,70,50,016,35,71,48,288,48,80,17,091,44,85,58,203,48*6F
###2023-11-09 13:07:01.840497$GLGSV,2,2,05,86,52,309,47,,,,,,,,,,,,*50
###2023-11-09 13:07:01.843063$GAGSV,1,1,04,07,72,255,45,08,49,042,44,13,64,160,45,26,56,311,45*6D
###2023-11-09 13:07:01.845632$GBGSV,2,1,06,11,24,180,42,14,65,006,45,24,19,133,43,26,23,082,42*67
###2023-11-09 13:07:01.847581$GBGSV,2,2,06,28,43,289,47,33,58,302,47,,,,,,,,*6F
###2023-11-09 13:07:01.849012$GNVTG,31.04,T,,M,1.22,N,2.27,K,A*13
###2023-11-09 13:07:01.932529$GNGGA,130702.10,3611.0491840,N,07544.9775484,W,1,24,0.6,0.936,M,-39.961,M,0.0,*6E
###2023-11-09 13:07:01.935130$GPGSV,2,1,07,05,21,090,42,10,18,292,43,13,24,045,41,15,62,037,46*74
###2023-11-09 13:07:01.937415$GPGSV,2,2,07,18,77,281,47,23,50,315,45,24,49,136,46,,,,*40
###2023-11-09 13:07:01.939991$GLGSV,2,1,05,70,50,016,36,71,48,288,48,80,17,091,44,85,58,203,48*6C
###2023-11-09 13:07:01.941608$GLGSV,2,2,05,86,52,309,47,,,,,,,,,,,,*50
###2023-11-09 13:07:01.944180$GAGSV,1,1,04,07,72,255,45,08,49,042,44,13,64,160,45,26,56,311,44*6C
###2023-11-09 13:07:01.946755$GBGSV,2,1,06,11,24,180,41,14,65,006,46,24,19,133,43,26,23,082,42*67
###2023-11-09 13:07:01.948701$GBGSV,2,2,06,28,43,289,47,33,58,302,47,,,,,,,,*6F
###2023-11-09 13:07:01.950141$GNVTG,39.08,T,,M,1.11,N,2.05,K,A*17
###2023-11-09 13:07:02.032470$GNGGA,130702.20,3611.0492040,N,07544.9775266,W,1,24,0.6,0.927,M,-39.961,M,0.0,*6C
###2023-11-09 13:07:02.035042$GPGSV,2,1,07,05,21,090,42,10,18,292,43,13,24,045,42,15,62,037,46*77
###2023-11-09 13:07:02.037317$GPGSV,2,2,07,18,77,281,47,23,50,315,45,24,49,136,46,,,,*40
###2023-11-09 13:07:02.039889$GLGSV,2,1,05,70,50,016,35,71,48,288,48,80,17,091,44,85,58,203,48*6F
###2023-11-09 13:07:02.041497$GLGSV,2,2,05,86,52,309,47,,,,,,,,,,,,*50
###2023-11-09 13:07:02.044061$GAGSV,1,1,04,07,72,255,45,08,49,042,44,13,64,160,45,26,56,311,44*6C
###2023-11-09 13:07:02.046648$GBGSV,2,1,06,11,24,180,41,14,65,006,46,24,19,133,43,26,23,082,42*67
###2023-11-09 13:07:02.048599$GBGSV,2,2,06,28,43,289,47,33,58,302,47,,,,,,,,*6F
###2023-11-09 13:07:02.050031$GNVTG,39.08,T,,M,0.87,N,1.62,K,A*1B
###2023-11-09 13:07:02.132223$GNGGA,130702.30,3611.0492181,N,07544.9775060,W,1,24,0.6,0.921,M,-39.961,M,0.0,*63
###2023-11-09 13:07:02.134802$GPGSV,2,1,07,05,21,090,42,10,18,292,44,13,24,045,42,15,62,037,46*70
###2023-11-09 13:07:02.137074$GPGSV,2,2,07,18,77,281,47,23,50,315,45,24,49,136,46,,,,*40
###2023-11-09 13:07:02.139640$GLGSV,2,1,05,70,50,016,35,71,48,288,48,80,17,091,44,85,58,203,48*6F
###2023-11-09 13:07:02.141238$GLGSV,2,2,05,86,52,309,47,,,,,,,,,,,,*50
###2023-11-09 13:07:02.143797$GAGSV,1,1,04,07,72,255,45,08,49,042,44,13,64,160,45,26,56,311,44*6C
###2023-11-09 13:07:02.146363$GBGSV,2,1,06,11,24,180,41,14,65,006,46,24,19,133,43,26,23,082,42*67
###2023-11-09 13:07:02.148304$GBGSV,2,2,06,28,43,289,47,33,58,302,47,,,,,,,,*6F
###2023-11-09 13:07:02.149729$GNVTG,39.08,T,,M,0.76,N,1.40,K,A*15
###2023-11-09 13:07:02.227634$GNGGA,130702.40,3611.0492301,N,07544.9774850,W,1,24,0.6,0.917,M,-39.961,M,0.0,*61
###2023-11-09 13:07:02.230245$GPGSV,2,1,07,05,21,090,42,10,18,292,44,13,24,045,41,15,62,037,46*73
###2023-11-09 13:07:02.232496$GPGSV,2,2,07,18,77,281,47,23,50,315,45,24,49,136,46,,,,*40
###2023-11-09 13:07:02.235078$GLGSV,2,1,05,70,50,016,35,71,48,288,48,80,17,091,44,85,58,203,48*6F
###2023-11-09 13:07:02.236695$GLGSV,2,2,05,86,52,309,47,,,,,,,,,,,,*50
###2023-11-09 13:07:02.239289$GAGSV,1,1,04,07,72,255,45,08,49,042,44,13,64,160,45,26,56,311,45*6D
###2023-11-09 13:07:02.241875$GBGSV,2,1,06,11,24,180,41,14,65,006,46,24,19,133,43,26,23,082,42*67
###2023-11-09 13:07:02.243804$GBGSV,2,2,06,28,43,289,47,33,58,302,47,,,,,,,,*6F
###2023-11-09 13:07:02.245230$GNVTG,39.08,T,,M,0.78,N,1.44,K,A*1F
###2023-11-09 13:07:02.329123$GNGGA,130702.50,3611.0492429,N,07544.9774635,W,1,24,0.6,0.920,M,-39.961,M,0.0,*64
###2023-11-09 13:07:02.331715$GPGSV,2,1,07,05,21,090,42,10,18,292,44,13,24,045,41,15,62,037,46*73
###2023-11-09 13:07:02.333966$GPGSV,2,2,07,18,77,281,47,23,50,315,45,24,49,136,46,,,,*40
###2023-11-09 13:07:02.336550$GLGSV,2,1,05,70,50,016,35,71,48,288,48,80,17,091,44,85,58,203,48*6F
###2023-11-09 13:07:02.338175$GLGSV,2,2,05,86,52,309,47,,,,,,,,,,,,*50
###2023-11-09 13:07:02.340745$GAGSV,1,1,04,07,72,255,45,08,49,042,44,13,64,160,44,26,56,311,45*6C
###2023-11-09 13:07:02.343329$GBGSV,2,1,06,11,24,180,41,14,65,006,45,24,19,133,43,26,23,082,42*64
###2023-11-09 13:07:02.345271$GBGSV,2,2,06,28,43,289,47,33,58,302,47,,,,,,,,*6F
###2023-11-09 13:07:02.347014$GNVTG,39.08,T,,M,0.82,N,1.51,K,A*1E
###2023-11-09 13:07:02.429128$GNGGA,130702.60,3611.0492572,N,07544.9774414,W,1,24,0.6,0.926,M,-39.961,M,0.0,*6F
###2023-11-09 13:07:02.431734$GPGSV,2,1,07,05,21,090,42,10,18,292,44,13,24,045,41,15,62,037,45*70
###2023-11-09 13:07:02.433981$GPGSV,2,2,07,18,77,281,47,23,50,315,45,24,49,136,46,,,,*40
###2023-11-09 13:07:02.436537$GLGSV,2,1,05,70,50,016,35,71,48,288,48,80,17,091,44,85,58,203,48*6F
###2023-11-09 13:07:02.438157$GLGSV,2,2,05,86,52,309,47,,,,,,,,,,,,*50
###2023-11-09 13:07:02.440730$GAGSV,1,1,04,07,72,255,45,08,49,042,44,13,64,160,44,26,56,311,45*6C
###2023-11-09 13:07:02.443301$GBGSV,2,1,06,11,24,180,41,14,65,006,45,24,19,133,43,26,23,082,42*64
###2023-11-09 13:07:02.445226$GBGSV,2,2,06,28,43,289,47,33,58,302,47,,,,,,,,*6F
