###2023-11-09 13:07:22.539621$GLGSV,2,2,05,86,52,309,47,,,,,,,,,,,,*50
###2023-11-09 13:07:22.542207$GAGSV,1,1,04,07,72,257,45,08,49,042,44,13,64,160,44,26,56,310,45*6F
###2023-11-09 13:07:22.544789$GBGSV,2,1,06,11,24,180,41,14,65,006,45,24,19,133,42,26,23,082,43*64
###2023-11-09 13:07:22.546725$GBGSV,2,2,06,28,43,289,47,33,58,302,48,,,,,,,,*60
###2023-11-09 13:07:22.548153$GNVTG,6.00,T,,M,0.99,N,1.84,K,A*28
###2023-11-09 13:07:22.629994$GNGGA,130722.80,3611.0533826,N,07544.9772819,W,1,24,0.6,1.224,M,-39.961,M,0.0,*6A
###2023-11-09 13:07:22.632602$GPGSV,2,1,07,05,21,090,42,10,18,292,42,13,24,045,43,15,62,037,45*74
###2023-11-09 13:07:22.634870$GPGSV,2,2,07,18,77,281,47,23,50,315,45,24,49,136,46,,,,*40
###2023-11-09 13:07:22.637468$GLGSV,2,1,05,70,50,016,35,71,48,288,48,80,17,091,42,85,58,203,48*69
###2023-11-09 13:07:22.639087$GLGSV,2,2,05,86,52,309,47,,,,,,,,,,,,*50
###2023-11-09 13:07:22.641658$GAGSV,1,1,04,07,72,257,45,08,49,042,44,13,64,160,44,26,56,310,45*6F
###2023-11-09 13:07:22.644234$GBGSV,2,1,06,11,24,180,41,14,65,006,45,24,19,133,42,26,23,082,43*64
###2023-11-09 13:07:22.646170$GBGSV,2,2,06,28,43,289,47,33,58,302,47,,,,,,,,*6F
###2023-11-09 13:07:22.647582$GNVTG,6.00,T,,M,0.78,N,1.44,K,A*2B
###2023-11-09 13:07:22.730867$GNGGA,130722.90,3611.0534048,N,07544.9772823,W,1,24,0.6,1.210,M,-39.961,M,0.0,*62
###2023-11-09 13:07:22.733462$GPGSV,2,1,07,05,21,090,40,10,18,292,42,13,24,045,43,15,62,037,45*76
###2023-11-09 13:07:22.735720$GPGSV,2,2,07,18,77,281,47,23,50,315,45,24,49,136,46,,,,*40
###2023-11-09 13:07:22.738316$GLGSV,2,1,05,70,50,016,35,71,48,288,48,80,17,091,42,85,58,203,48*69
###2023-11-09 13:07:22.739944$GLGSV,2,2,05,86,52,309,47,,,,,,,,,,,,*50
###2023-11-09 13:07:22.742539$GAGSV,1,1,04,07,72,257,45,08,49,042,44,13,64,160,44,26,56,310,45*6F
###2023-11-09 13:07:22.745145$GBGSV,2,1,06,11,24,180,41,14,65,006,45,24,19,133,43,26,23,082,43*65
###2023-11-09 13:07:22.747106$GBGSV,2,2,06,28,43,289,47,33,58,302,47,,,,,,,,*6F
###2023-11-09 13:07:22.748510$GNVTG,6.00,T,,M,0.82,N,1.51,K,A*2A
###2023-11-09 13:07:22.831870$GNGGA,130723.00,3611.0534285,N,07544.9772826,W,1,24,0.6,1.193,M,-39.961,M,0.0,*64
###2023-11-09 13:07:22.834474$GPGSV,2,1,07,05,21,090,40,10,18,292,42,13,24,045,41,15,62,037,45*74
###2023-11-09 13:07:22.836735$GPGSV,2,2,07,18,77,281,47,23,50,315,45,24,49,136,46,,,,*40
###2023-11-09 13:07:22.839329$GLGSV,2,1,05,70,50,016,35,71,48,288,48,80,17,091,42,85,58,203,48*69
###2023-11-09 13:07:22.840942$GLGSV,2,2,05,86,52,309,47,,,,,,,,,,,,*50
###2023-11-09 13:07:22.843512$GAGSV,1,1,04,07,72,257,45,08,49,042,44,13,64,160,44,26,56,310,45*6F
###2023-11-09 13:07:22.846079$GBGSV,2,1,06,11,24,180,41,14,65,006,45,24,19,133,44,26,23,082,42*63
###2023-11-09 13:07:22.848017$GBGSV,2,2,06,28,43,289,47,33,58,302,47,,,,,,,,*6F
###2023-11-09 13:07:22.849408$GNVTG,6.00,T,,M,0.87,N,1.62,K,A*2F
###2023-11-09 13:07:22.934115$GNGGA,130723.10,3611.0534582,N,07544.9772806,W,1,24,0.6,1.179,M,-39.961,M,0.0,*63
###2023-11-09 13:07:22.936713$GPGSV,2,1,07,05,21,090,40,10,18,292,43,13,24,045,40,15,62,037,45*74
###2023-11-09 13:07:22.938978$GPGSV,2,2,07,18,77,281,47,23,50,315,45,24,49,136,46,,,,*40
###2023-11-09 13:07:22.941544$GLGSV,2,1,05,70,50,016,35,71,48,288,48,80,17,091,43,85,58,203,48*68
###2023-11-09 13:07:22.943147$GLGSV,2,2,05,86,52,309,47,,,,,,,,,,,,*50
###2023-11-09 13:07:22.945713$GAGSV,1,1,04,07,72,257,45,08,49,042,44,13,64,160,44,26,56,310,45*6F
###2023-11-09 13:07:22.948302$GBGSV,2,1,06,11,24,180,42,14,65,006,45,24,19,133,45,26,23,082,42*61
###2023-11-09 13:07:22.950243$GBGSV,2,2,06,28,43,289,47,33,58,302,47,,,,,,,,*6F
###2023-11-09 13:07:22.951641$GNVTG,5.98,T,,M,1.24,N,2.30,K,A*21
###2023-11-09 13:07:23.032978$GNGGA,130723.20,3611.0534945,N,07544.9772757,W,1,24,0.6,1.175,M,-39.961,M,0.0,*60
###2023-11-09 13:07:23.035566$GPGSV,2,1,07,05,21,090,41,10,18,292,43,13,24,045,40,15,62,037,45*75
###2023-11-09 13:07:23.037843$GPGSV,2,2,07,18,77,281,47,23,50,315,45,24,49,136,46,,,,*40
###2023-11-09 13:07:23.040414$GLGSV,2,1,05,70,50,016,35,71,48,288,48,80,17,091,44,85,58,203,48*6F
###2023-11-09 13:07:23.042018$GLGSV,2,2,05,86,52,309,47,,,,,,,,,,,,*50
###2023-11-09 13:07:23.044577$GAGSV,1,1,04,07,72,257,45,08,49,042,44,13,64,160,44,26,56,310,44*6E
###2023-11-09 13:07:23.047164$GBGSV,2,1,06,11,24,180,42,14,65,006,45,24,19,133,45,26,23,082,42*61
###2023-11-09 13:07:23.049091$GBGSV,2,2,06,28,43,289,47,33,58,302,47,,,,,,,,*6F
###2023-11-09 13:07:23.050483$GNVTG,6.90,T,,M,1.38,N,2.56,K,A*27
###2023-11-09 13:07:23.129960$GNGGA,130723.30,3611.0535308,N,07544.9772714,W,1,24,0.6,1.177,M,-39.961,M,0.0,*66
###2023-11-09 13:07:23.132534$GPGSV,2,1,07,05,21,090,42,10,18,292,43,13,24,045,41,15,62,037,45*77
###2023-11-09 13:07:23.134769$GPGSV,2,2,07,18,77,281,47,23,50,315,45,24,49,136,46,,,,*40
###2023-11-09 13:07:23.137345$GLGSV,2,1,05,70,50,016,35,71,48,288,48,80,17,091,44,85,58,203,48*6F
###2023-11-09 13:07:23.138946$GLGSV,2,2,05,86,52,309,47,,,,,,,,,,,,*50
###2023-11-09 13:07:23.141488$GAGSV,1,1,04,07,72,257,45,08,49,042,44,13,64,160,44,26,56,310,45*6F
###2023-11-09 13:07:23.144050$GBGSV,2,1,06,11,24,180,42,14,65,006,45,24,19,133,45,26,23,082,42*61
###2023-11-09 13:07:23.145971$GBGSV,2,2,06,28,43,289,47,33,58,302,47,,,,,,,,*6F
###2023-11-09 13:07:23.147363$GNVTG,3.66,T,,M,1.24,N,2.30,K,A*26
###2023-11-09 13:07:23.230363$GNGGA,130723.40,3611.0535605,N,07544.9772706,W,1,24,0.6,1.178,M,-39.961,M,0.0,*65
###2023-11-09 13:07:23.232951$GPGSV,2,1,07,05,21,090,42,10,18,292,44,13,24,045,43,15,62,037,45*72
###2023-11-09 13:07:23.235207$GPGSV,2,2,07,18,77,281,47,23,50,315,45,24,49,136,46,,,,*40
###2023-11-09 13:07:23.237791$GLGSV,2,1,05,70,50,016,35,71,48,288,48,80,17,091,44,85,58,203,47*60
###2023-11-09 13:07:23.239396$GLGSV,2,2,05,86,52,309,48,,,,,,,,,,,,*5F
###2023-11-09 13:07:23.241958$GAGSV,1,1,04,07,72,257,45,08,49,042,44,13,64,160,44,26,56,310,45*6F
###2023-11-09 13:07:23.244528$GBGSV,2,1,06,11,24,180,41,14,65,006,45,24,19,133,44,26,23,082,43*62
###2023-11-09 13:07:23.246464$GBGSV,2,2,06,28,43,289,47,33,58,302,47,,,,,,,,*6F
###2023-11-09 13:07:23.247864$GNVTG,3.66,T,,M,0.87,N,1.62,K,A*2A
###2023-11-09 13:07:23.330978$GNGGA,130723.50,3611.0535784,N,07544.9772743,W,1,24,0.6,1.192,M,-39.961,M,0.0,*69
###2023-11-09 13:07:23.333559$GPGSV,2,1,07,05,21,090,42,10,18,292,45,13,24,045,43,15,62,037,46*70
###2023-11-09 13:07:23.335803$GPGSV,2,2,07,18,77,281,47,23,50,315,45,24,49,136,45,,,,*43
###2023-11-09 13:07:23.338393$GLGSV,2,1,05,70,50,016,35,71,48,288,48,80,17,091,44,85,58,203,47*60
###2023-11-09 13:07:23.340007$GLGSV,2,2,05,86,52,309,48,,,,,,,,,,,,*5F
###2023-11-09 13:07:23.342568$GAGSV,1,1,04,07,72,257,45,08,49,042,44,13,64,160,44,26,56,310,45*6F
###2023-11-09 13:07:23.345137$GBGSV,2,1,06,11,24,180,41,14,65,006,45,24,19,133,43,26,23,082,43*65
###2023-11-09 13:07:23.347088$GBGSV,2,2,06,28,43,289,47,33,58,302,48,,,,,,,,*60
###2023-11-09 13:07:23.348477$GNVTG,3.66,T,,M,0.45,N,0.83,K,A*2A
###2023-11-09 13:07:23.435471$GNGGA,130723.60,3611.0535854,N,07544.9772827,W,1,24,0.6,1.213,M,-39.961,M,0.0,*6F
###2023-11-09 13:07:23.438098$GPGSV,2,1,07,05,21,090,42,10,18,292,45,13,24,045,43,15,62,037,46*70
###2023-11-09 13:07:23.440336$GPGSV,2,2,07,18,77,281,47,23,50,315,45,24,49,136,45,,,,*43
###2023-11-09 13:07:23.442912$GLGSV,2,1,05,70,50,016,35,71,48,288,48,80,17,091,44,85,58,203,48*6F
###2023-11-09 13:07:23.444506$GLGSV,2,2,05,86,52,309,48,,,,,,,,,,,,*5F
###2023-11-09 13:07:23.447079$GAGSV,1,1,04,07,72,257,45,08,49,042,44,13,64,160,44,26,56,310,45*6F
###2023-11-09 13:07:23.449667$GBGSV,2,1,06,11,24,180,41,14,65,006,45,24,19,133,43,26,23,082,43*65
###2023-11-09 13:07:23.451612$GBGSV,2,2,06,28,43,289,47,33,58,302,48,,,,,,,,*60
###2023-11-09 13:07:23.453025$GNVTG,3.66,T,,M,0.31,N,0.58,K,A*2F
###2023-11-09 13:07:23.530100$GNGGA,130723.70,3611.0535911,N,07544.9772926,W,1,24,0.6,1.237,M,-39.961,M,0.0,*68
###2023-11-09 13:07:23.532700$GPGSV,2,1,07,05,21,090,42,10,18,292,44,13,24,045,42,15,62,037,45*73
###2023-11-09 13:07:23.534954$GPGSV,2,2,07,18,77,281,47,23,50,315,45,24,49,136,46,,,,*40
###2023-11-09 13:07:23.537553$GLGSV,2,1,05,70,50,016,35,71,48,288,48,80,17,091,43,85,58,203,48*68
###2023-11-09 13:07:23.539158$GLGSV,2,2,05,86,52,309,48,,,,,,,,,,,,*5F
###2023-11-09 13:07:23.542024$GAGSV,1,1,04,07,72,257,45,08,49,042,44,13,64,160,44,26,56,310,45*6F
###2023-11-09 13:07:23.544613$GBGSV,2,1,06,11,24,180,42,14,65,006,45,24,19,133,43,26,23,082,43*66
###2023-11-09 13:07:23.546553$GBGSV,2,2,06,28,43,289,47,33,58,302,48,,,,,,,,*60
###2023-11-09 13:07:23.547969$GNVTG,3.66,T,,M,0.41,N,0.76,K,A*24
###2023-11-09 13:07:23.629527$GNGGA,130723.80,3611.0536026,N,07544.9773025,W,1,24,0.6,1.253,M,-39.961,M,0.0,*60
###2023-11-09 13:07:23.632146$GPGSV,2,1,07,05,21,090,41,10,18,292,43,13,24,045,41,15,62,037,45*74
###2023-11-09 13:07:23.634404$GPGSV,2,2,07,18,77,281,47,23,50,315,45,24,49,136,46,,,,*40
###2023-11-09 13:07:23.637004$GLGSV,2,1,05,70,50,016,35,71,48,288,48,80,17,091,42,85,58,203,48*69
###2023-11-09 13:07:23.638613$GLGSV,2,2,05,86,52,309,48,,,,,,,,,,,,*5F
