###2023-11-09 13:10:48.733554$GPGSV,2,1,07,05,20,091,44,10,19,294,42,13,23,045,42,15,60,038,46*7D
###2023-11-09 13:10:48.735837$GPGSV,2,2,07,18,78,272,46,23,51,317,45,24,51,133,47,,,,*4C
###2023-11-09 13:10:48.738482$GLGSV,2,1,05,70,49,019,36,71,48,291,48,80,19,089,45,85,56,202,48*6A
###2023-11-09 13:10:48.740114$GLGSV,2,2,05,86,54,306,47,,,,,,,,,,,,*59
###2023-11-09 13:10:48.742698$GAGSV,1,1,04,07,73,259,45,08,48,043,45,13,63,161,45,26,57,310,44*66
###2023-11-09 13:10:48.745285$GBGSV,2,1,06,11,22,180,41,14,65,009,45,24,21,132,44,26,23,080,44*64
###2023-11-09 13:10:48.747241$GBGSV,2,2,06,28,43,286,46,33,59,305,47,,,,,,,,*67
###2023-11-09 13:10:48.748717$GNVTG,324.51,T,,M,4.57,N,8.46,K,A*2E
###2023-11-09 13:10:48.833639$GNGGA,131049.00,3611.0735605,N,07544.8926821,W,1,24,0.6,0.458,M,-39.960,M,0.0,*6A
###2023-11-09 13:10:48.836242$GPGSV,2,1,07,05,20,091,44,10,19,294,42,13,23,045,42,15,60,038,46*7D
###2023-11-09 13:10:48.838524$GPGSV,2,2,07,18,78,272,46,23,51,317,45,24,51,133,47,,,,*4C
###2023-11-09 13:10:48.841106$GLGSV,2,1,05,70,49,019,36,71,48,291,48,80,19,089,45,85,56,202,48*6A
###2023-11-09 13:10:48.842716$GLGSV,2,2,05,86,54,306,48,,,,,,,,,,,,*56
###2023-11-09 13:10:48.845291$GAGSV,1,1,04,07,73,259,45,08,48,043,45,13,63,161,45,26,57,310,44*66
###2023-11-09 13:10:48.847894$GBGSV,2,1,06,11,22,180,42,14,65,009,45,24,21,132,44,26,23,080,44*67
###2023-11-09 13:10:48.849833$GBGSV,2,2,06,28,43,286,46,33,59,305,47,,,,,,,,*67
###2023-11-09 13:10:48.851303$GNVTG,326.12,T,,M,4.51,N,8.35,K,A*29
###2023-11-09 13:10:48.932755$GNGGA,131049.10,3611.0736676,N,07544.8927645,W,1,24,0.6,0.436,M,-39.960,M,0.0,*69
###2023-11-09 13:10:48.935368$GPGSV,2,1,07,05,20,091,43,10,19,294,42,13,23,045,42,15,60,038,46*7A
###2023-11-09 13:10:48.937639$GPGSV,2,2,07,18,78,272,46,23,51,317,45,24,51,133,47,,,,*4C
###2023-11-09 13:10:48.940216$GLGSV,2,1,05,70,49,019,36,71,48,291,48,80,19,089,45,85,56,202,48*6A
###2023-11-09 13:10:48.941821$GLGSV,2,2,05,86,54,306,48,,,,,,,,,,,,*56
###2023-11-09 13:10:48.944369$GAGSV,1,1,04,07,73,261,45,08,47,043,45,13,62,161,45,26,57,310,44*63
###2023-11-09 13:10:48.946941$GBGSV,2,1,06,11,22,180,42,14,65,009,44,24,21,132,43,26,23,080,44*61
###2023-11-09 13:10:48.948875$GBGSV,2,2,06,28,43,286,46,33,59,305,47,,,,,,,,*67
###2023-11-09 13:10:48.950336$GNVTG,330.12,T,,M,4.57,N,8.46,K,A*2C
###2023-11-09 13:10:49.032730$GNGGA,131049.20,3611.0737778,N,07544.8928405,W,1,24,0.6,0.429,M,-39.960,M,0.0,*63
###2023-11-09 13:10:49.035326$GPGSV,2,1,07,05,20,091,43,10,19,294,42,13,23,045,43,15,60,038,46*7B
###2023-11-09 13:10:49.037595$GPGSV,2,2,07,18,78,272,46,23,51,317,45,24,51,133,46,,,,*4D
###2023-11-09 13:10:49.040177$GLGSV,2,1,05,70,49,019,36,71,48,291,48,80,19,089,45,85,56,202,48*6A
###2023-11-09 13:10:49.041782$GLGSV,2,2,05,86,54,306,48,,,,,,,,,,,,*56
###2023-11-09 13:10:49.044348$GAGSV,1,1,04,07,73,261,45,08,47,043,45,13,62,161,45,26,57,310,44*63
###2023-11-09 13:10:49.046929$GBGSV,2,1,06,11,22,180,42,14,65,009,44,24,21,132,43,26,23,080,44*61
###2023-11-09 13:10:49.048854$GBGSV,2,2,06,28,43,286,46,33,59,305,47,,,,,,,,*67
###2023-11-09 13:10:49.050315$GNVTG,331.58,T,,M,4.53,N,8.39,K,A*2F
###2023-11-09 13:10:49.132097$GNGGA,131049.30,3611.0738908,N,07544.8929140,W,1,24,0.6,0.424,M,-39.960,M,0.0,*6C
###2023-11-09 13:10:49.134690$GPGSV,2,1,07,05,20,091,43,10,19,294,42,13,23,045,43,15,60,038,46*7B
###2023-11-09 13:10:49.136964$GPGSV,2,2,07,18,78,272,46,23,51,317,45,24,51,133,46,,,,*4D
###2023-11-09 13:10:49.139542$GLGSV,2,1,05,70,49,019,36,71,48,291,48,80,19,089,45,85,56,202,48*6A
###2023-11-09 13:10:49.141149$GLGSV,2,2,05,86,54,306,48,,,,,,,,,,,,*56
###2023-11-09 13:10:49.143714$GAGSV,1,1,04,07,73,261,45,08,47,043,45,13,62,161,45,26,57,310,45*62
###2023-11-09 13:10:49.146287$GBGSV,2,1,06,11,22,180,41,14,65,009,44,24,21,132,43,26,23,080,44*62
###2023-11-09 13:10:49.148233$GBGSV,2,2,06,28,43,286,46,33,59,305,47,,,,,,,,*67
###2023-11-09 13:10:49.149696$GNVTG,332.78,T,,M,4.67,N,8.64,K,A*21
###2023-11-09 13:10:49.231724$GNGGA,131049.40,3611.0740030,N,07544.8929908,W,1,24,0.6,0.409,M,-39.960,M,0.0,*6D
###2023-11-09 13:10:49.234296$GPGSV,2,1,07,05,20,091,43,10,19,294,42,13,23,045,43,15,60,038,46*7B
###2023-11-09 13:10:49.236533$GPGSV,2,2,07,18,78,272,46,23,51,317,45,24,51,133,46,,,,*4D
###2023-11-09 13:10:49.239112$GLGSV,2,1,05,70,49,019,36,71,48,291,48,80,19,089,45,85,56,202,48*6A
###2023-11-09 13:10:49.240712$GLGSV,2,2,05,86,54,306,48,,,,,,,,,,,,*56
###2023-11-09 13:10:49.243267$GAGSV,1,1,04,07,73,261,45,08,47,043,45,13,62,161,45,26,57,310,44*63
###2023-11-09 13:10:49.245834$GBGSV,2,1,06,11,22,180,41,14,65,009,44,24,21,132,43,26,23,080,45*63
###2023-11-09 13:10:49.247770$GBGSV,2,2,06,28,43,286,46,33,59,305,47,,,,,,,,*67
###2023-11-09 13:10:49.249226$GNVTG,329.50,T,,M,4.55,N,8.42,K,A*24
###2023-11-09 13:10:49.334854$GNGGA,131049.50,3611.0741083,N,07544.8930714,W,1,24,0.6,0.393,M,-39.960,M,0.0,*6A
###2023-11-09 13:10:49.337475$GPGSV,2,1,07,05,20,091,44,10,19,294,42,13,23,045,43,15,60,038,46*7C
###2023-11-09 13:10:49.339731$GPGSV,2,2,07,18,78,272,46,23,51,317,45,24,51,133,46,,,,*4D
###2023-11-09 13:10:49.342289$GLGSV,2,1,05,70,49,019,36,71,48,291,48,80,19,089,46,85,56,202,48*69
###2023-11-09 13:10:49.343891$GLGSV,2,2,05,86,54,306,47,,,,,,,,,,,,*59
###2023-11-09 13:10:49.346447$GAGSV,1,1,04,07,73,261,45,08,47,043,45,13,62,161,45,26,57,310,44*63
###2023-11-09 13:10:49.349045$GBGSV,2,1,06,11,22,180,40,14,65,009,45,24,21,132,43,26,23,080,45*63
###2023-11-09 13:10:49.350971$GBGSV,2,2,06,28,43,286,46,33,59,305,47,,,,,,,,*67
###2023-11-09 13:10:49.352440$GNVTG,327.03,T,,M,4.37,N,8.10,K,A*2F
###2023-11-09 13:10:49.431640$GNGGA,131049.60,3611.0742077,N,07544.8931539,W,1,24,0.6,0.379,M,-39.960,M,0.0,*69
###2023-11-09 13:10:49.434233$GPGSV,2,1,07,05,20,091,44,10,19,294,42,13,23,045,43,15,60,038,46*7C
###2023-11-09 13:10:49.436492$GPGSV,2,2,07,18,78,272,46,23,51,317,45,24,51,133,46,,,,*4D
###2023-11-09 13:10:49.439109$GLGSV,2,1,05,70,49,019,36,71,48,291,48,80,19,089,46,85,56,202,48*69
###2023-11-09 13:10:49.440721$GLGSV,2,2,05,86,54,306,47,,,,,,,,,,,,*59
###2023-11-09 13:10:49.443286$GAGSV,1,1,04,07,73,261,44,08,47,043,45,13,62,161,45,26,57,310,44*62
###2023-11-09 13:10:49.445863$GBGSV,2,1,06,11,22,180,40,14,65,009,45,24,21,132,43,26,23,080,45*63
###2023-11-09 13:10:49.447809$GBGSV,2,2,06,28,43,286,46,33,59,305,47,,,,,,,,*67
###2023-11-09 13:10:49.449276$GNVTG,325.26,T,,M,4.26,N,7.88,K,A*24
###2023-11-09 13:10:49.530616$GNGGA,131049.70,3611.0743057,N,07544.8932388,W,1,24,0.6,0.363,M,-39.960,M,0.0,*6F
###2023-11-09 13:10:49.533197$GPGSV,2,1,07,05,20,091,44,10,19,294,41,13,23,045,43,15,60,038,46*7F
###2023-11-09 13:10:49.535452$GPGSV,2,2,07,18,78,272,46,23,51,317,45,24,51,133,46,,,,*4D
###2023-11-09 13:10:49.538034$GLGSV,2,1,05,70,49,019,36,71,48,291,48,80,19,089,46,85,56,202,49*68
###2023-11-09 13:10:49.539642$GLGSV,2,2,05,86,54,306,47,,,,,,,,,,,,*59
###2023-11-09 13:10:49.542193$GAGSV,1,1,04,07,73,261,44,08,47,043,45,13,62,161,45,26,57,310,44*62
###2023-11-09 13:10:49.544754$GBGSV,2,1,06,11,22,180,40,14,65,009,45,24,21,132,43,26,23,080,45*63
###2023-11-09 13:10:49.546681$GBGSV,2,2,06,28,43,286,46,33,59,305,47,,,,,,,,*67
###2023-11-09 13:10:49.548151$GNVTG,324.98,T,,M,4.35,N,8.06,K,A*2B
###2023-11-09 13:10:49.631612$GNGGA,131049.80,3611.0744040,N,07544.8933238,W,1,24,0.6,0.351,M,-39.960,M,0.0,*6B
###2023-11-09 13:10:49.634202$GPGSV,2,1,07,05,20,091,44,10,19,294,42,13,23,045,42,15,60,038,46*7D
###2023-11-09 13:10:49.636464$GPGSV,2,2,07,18,78,272,46,23,51,317,45,24,51,133,46,,,,*4D
###2023-11-09 13:10:49.639061$GLGSV,2,1,05,70,49,019,36,71,48,291,48,80,19,089,45,85,56,202,49*6B
###2023-11-09 13:10:49.640669$GLGSV,2,2,05,86,54,306,47,,,,,,,,,,,,*59
###2023-11-09 13:10:49.643222$GAGSV,1,1,04,07,73,261,44,08,47,043,45,13,62,161,45,26,57,310,44*62
###2023-11-09 13:10:49.645792$GBGSV,2,1,06,11,22,180,40,14,65,009,45,24,21,132,43,26,23,080,44*62
###2023-11-09 13:10:49.647737$GBGSV,2,2,06,28,43,286,46,33,59,305,47,,,,,,,,*67
###2023-11-09 13:10:49.649201$GNVTG,324.85,T,,M,4.30,N,7.96,K,A*24
###2023-11-09 13:10:49.731600$GNGGA,131049.90,3611.0745010,N,07544.8934073,W,1,24,0.6,0.327,M,-39.960,M,0.0,*65
###2023-11-09 13:10:49.734470$GPGSV,2,1,07,05,20,091,43,10,19,294,42,13,23,045,42,15,60,038,46*7A
###2023-11-09 13:10:49.736741$GPGSV,2,2,07,18,78,272,46,23,51,317,45,24,51,133,46,,,,*4D
###2023-11-09 13:10:49.739454$GLGSV,2,1,05,70,49,019,36,71,48,291,48,80,19,089,45,85,56,202,49*6B
###2023-11-09 13:10:49.741082$GLGSV,2,2,05,86,54,306,47,,,,,,,,,,,,*59
###2023-11-09 13:10:49.743647$GAGSV,1,1,04,07,73,261,45,08,47,043,45,13,62,161,45,26,57,310,44*63
###2023-11-09 13:10:49.746224$GBGSV,2,1,06,11,22,180,40,14,65,009,45,24,21,132,43,26,23,080,44*62
###2023-11-09 13:10:49.748180$GBGSV,2,2,06,28,43,286,46,33,59,305,47,,,,,,,,*67
###2023-11-09 13:10:49.749651$GNVTG,325.60,T,,M,4.20,N,7.78,K,A*2F
###2023-11-09 13:10:49.834338$GNGGA,131050.00,3611.0745974,N,07544.8934860,W,1,24,0.6,0.307,M,-39.960,M,0.0,*67
###2023-11-09 13:10:49.836939$GPGSV,2,1,07,05,20,091,43,10,19,294,42,13,23,045,42,15,60,038,46*7A
