###2023-11-09 13:08:11.632800$GPGSV,2,2,07,18,77,281,46,23,50,315,45,24,49,136,46,,,,*41
###2023-11-09 13:08:11.635396$GLGSV,2,1,05,70,50,017,36,71,48,290,49,80,18,090,45,85,57,203,48*65
###2023-11-09 13:08:11.637045$GLGSV,2,2,05,86,53,308,48,,,,,,,,,,,,*5F
###2023-11-09 13:08:11.639635$GAGSV,1,1,04,07,72,258,44,08,49,042,45,13,64,160,44,26,56,310,44*61
###2023-11-09 13:08:11.642213$GBGSV,2,1,06,11,23,180,41,14,65,008,46,24,20,132,44,26,23,081,44*67
###2023-11-09 13:08:11.644151$GBGSV,2,2,06,28,43,287,47,33,59,304,47,,,,,,,,*66
###2023-11-09 13:08:11.645620$GNVTG,238.63,T,,M,3.93,N,7.27,K,A*24
###2023-11-09 13:08:11.727638$GNGGA,130811.90,3611.0409843,N,07544.9999461,W,1,24,0.6,0.968,M,-39.962,M,0.0,*66
###2023-11-09 13:08:11.730251$GPGSV,2,1,07,05,21,090,43,10,18,292,43,13,24,045,42,15,62,037,46*76
###2023-11-09 13:08:11.732502$GPGSV,2,2,07,18,77,281,47,23,50,315,45,24,49,136,46,,,,*40
###2023-11-09 13:08:11.735065$GLGSV,2,1,05,70,50,017,36,71,48,290,49,80,18,090,45,85,57,203,48*65
###2023-11-09 13:08:11.736662$GLGSV,2,2,05,86,53,308,48,,,,,,,,,,,,*5F
###2023-11-09 13:08:11.739235$GAGSV,1,1,04,07,72,258,44,08,49,042,45,13,64,160,44,26,56,310,44*61
###2023-11-09 13:08:11.741811$GBGSV,2,1,06,11,23,180,41,14,65,008,46,24,20,132,44,26,23,081,44*67
###2023-11-09 13:08:11.743737$GBGSV,2,2,06,28,43,287,47,33,59,304,47,,,,,,,,*66
###2023-11-09 13:08:11.745204$GNVTG,241.88,T,,M,3.95,N,7.31,K,A*2E
###2023-11-09 13:08:11.831619$GNGGA,130812.00,3611.0409355,N,07545.0000649,W,1,24,0.6,0.946,M,-39.962,M,0.0,*65
###2023-11-09 13:08:11.834203$GPGSV,2,1,07,05,21,090,43,10,18,292,43,13,24,045,42,15,62,037,46*76
###2023-11-09 13:08:11.836455$GPGSV,2,2,07,18,77,281,47,23,50,315,45,24,49,136,46,,,,*40
###2023-11-09 13:08:11.839051$GLGSV,2,1,05,70,50,017,36,71,48,290,49,80,18,090,45,85,57,203,48*65
###2023-11-09 13:08:11.840667$GLGSV,2,2,05,86,53,308,48,,,,,,,,,,,,*5F
###2023-11-09 13:08:11.843233$GAGSV,1,1,04,07,72,258,44,08,49,042,45,13,64,160,44,26,56,310,44*61
###2023-11-09 13:08:11.845815$GBGSV,2,1,06,11,23,180,41,14,65,008,46,24,20,132,44,26,23,081,44*67
###2023-11-09 13:08:11.847773$GBGSV,2,2,06,28,43,287,47,33,59,304,47,,,,,,,,*66
###2023-11-09 13:08:11.849248$GNVTG,244.14,T,,M,3.89,N,7.20,K,A*23
###2023-11-09 13:08:11.931645$GNGGA,130812.10,3611.0408918,N,07545.0001832,W,1,24,0.6,0.920,M,-39.962,M,0.0,*65
###2023-11-09 13:08:11.934259$GPGSV,2,1,07,05,21,090,43,10,18,292,43,13,24,045,42,15,62,037,46*76
###2023-11-09 13:08:11.936527$GPGSV,2,2,07,18,77,281,46,23,50,315,45,24,49,136,46,,,,*41
###2023-11-09 13:08:11.939134$GLGSV,2,1,05,70,50,017,36,71,48,290,49,80,18,090,44,85,57,203,48*64
###2023-11-09 13:08:11.940761$GLGSV,2,2,05,86,53,308,48,,,,,,,,,,,,*5F
###2023-11-09 13:08:11.943337$GAGSV,1,1,04,07,72,258,44,08,49,042,45,13,64,160,44,26,56,310,44*61
###2023-11-09 13:08:11.945927$GBGSV,2,1,06,11,23,180,41,14,65,008,46,24,20,132,43,26,23,081,44*60
###2023-11-09 13:08:11.947889$GBGSV,2,2,06,28,43,287,47,33,59,304,47,,,,,,,,*66
###2023-11-09 13:08:11.949360$GNVTG,246.35,T,,M,3.75,N,6.95,K,A*2E
###2023-11-09 13:08:12.031748$GNGGA,130812.20,3611.0408524,N,07545.0002995,W,1,24,0.6,0.907,M,-39.962,M,0.0,*6F
###2023-11-09 13:08:12.034336$GPGSV,2,1,07,05,21,090,43,10,18,292,43,13,24,045,42,15,62,037,46*76
###2023-11-09 13:08:12.036585$GPGSV,2,2,07,18,77,281,46,23,50,315,45,24,49,136,45,,,,*42
###2023-11-09 13:08:12.039175$GLGSV,2,1,05,70,50,017,36,71,48,290,49,80,18,090,44,85,57,203,48*64
###2023-11-09 13:08:12.040781$GLGSV,2,2,05,86,53,308,48,,,,,,,,,,,,*5F
###2023-11-09 13:08:12.043342$GAGSV,1,1,04,07,72,258,44,08,49,042,45,13,64,160,44,26,56,310,44*61
###2023-11-09 13:08:12.045916$GBGSV,2,1,06,11,23,180,41,14,65,008,46,24,20,132,42,26,23,081,44*61
###2023-11-09 13:08:12.047862$GBGSV,2,2,06,28,43,287,47,33,59,304,47,,,,,,,,*66
###2023-11-09 13:08:12.049328$GNVTG,248.03,T,,M,3.67,N,6.80,K,A*22
###2023-11-09 13:08:12.127647$GNGGA,130812.30,3611.0408153,N,07545.0004141,W,1,24,0.6,0.903,M,-39.962,M,0.0,*69
###2023-11-09 13:08:12.130251$GPGSV,2,1,07,05,21,090,43,10,18,292,43,13,24,045,42,15,62,037,46*76
###2023-11-09 13:08:12.132506$GPGSV,2,2,07,18,77,281,46,23,50,315,46,24,49,136,45,,,,*41
###2023-11-09 13:08:12.135090$GLGSV,2,1,05,70,50,017,36,71,48,290,49,80,18,090,44,85,57,203,48*64
###2023-11-09 13:08:12.136701$GLGSV,2,2,05,86,53,308,48,,,,,,,,,,,,*5F
###2023-11-09 13:08:12.139284$GAGSV,1,1,04,07,72,258,44,08,49,042,45,13,64,160,44,26,56,310,44*61
###2023-11-09 13:08:12.141870$GBGSV,2,1,06,11,23,180,41,14,65,008,46,24,20,132,42,26,23,081,43*66
###2023-11-09 13:08:12.143809$GBGSV,2,2,06,28,43,287,46,33,59,304,47,,,,,,,,*67
###2023-11-09 13:08:12.145279$GNVTG,248.69,T,,M,3.60,N,6.66,K,A*21
###2023-11-09 13:08:12.228653$GNGGA,130812.40,3611.0407755,N,07545.0005249,W,1,24,0.6,0.910,M,-39.962,M,0.0,*69
###2023-11-09 13:08:12.231254$GPGSV,2,1,07,05,21,090,43,10,18,292,43,13,24,045,42,15,62,037,46*76
###2023-11-09 13:08:12.233507$GPGSV,2,2,07,18,77,281,46,23,50,315,46,24,49,136,45,,,,*41
###2023-11-09 13:08:12.236079$GLGSV,2,1,05,70,50,017,36,71,48,290,49,80,18,090,44,85,57,203,48*64
###2023-11-09 13:08:12.237700$GLGSV,2,2,05,86,53,308,48,,,,,,,,,,,,*5F
###2023-11-09 13:08:12.240274$GAGSV,1,1,04,07,72,258,44,08,49,042,45,13,64,160,44,26,56,310,44*61
###2023-11-09 13:08:12.242857$GBGSV,2,1,06,11,23,180,40,14,65,008,46,24,20,132,42,26,23,081,43*67
###2023-11-09 13:08:12.244796$GBGSV,2,2,06,28,43,287,46,33,59,304,47,,,,,,,,*67
###2023-11-09 13:08:12.246273$GNVTG,243.93,T,,M,3.58,N,6.62,K,A*20
###2023-11-09 13:08:12.327631$GNGGA,130812.50,3611.0407330,N,07545.0006320,W,1,24,0.6,0.920,M,-39.962,M,0.0,*61
###2023-11-09 13:08:12.330214$GPGSV,2,1,07,05,21,090,43,10,18,292,43,13,24,045,42,15,62,037,46*76
###2023-11-09 13:08:12.332463$GPGSV,2,2,07,18,77,281,46,23,50,315,46,24,49,136,45,,,,*41
###2023-11-09 13:08:12.335026$GLGSV,2,1,05,70,50,017,36,71,48,290,49,80,18,090,44,85,57,203,48*64
###2023-11-09 13:08:12.336626$GLGSV,2,2,05,86,53,308,48,,,,,,,,,,,,*5F
###2023-11-09 13:08:12.339203$GAGSV,1,1,04,07,72,258,44,08,49,042,45,13,64,160,44,26,56,310,44*61
###2023-11-09 13:08:12.341780$GBGSV,2,1,06,11,23,180,40,14,65,008,46,24,20,132,42,26,23,081,43*67
###2023-11-09 13:08:12.343714$GBGSV,2,2,06,28,43,287,46,33,59,304,47,,,,,,,,*67
###2023-11-09 13:08:12.345175$GNVTG,244.37,T,,M,3.46,N,6.41,K,A*27
###2023-11-09 13:08:12.427652$GNGGA,130812.60,3611.0406934,N,07545.0007399,W,1,24,0.6,0.923,M,-39.962,M,0.0,*6D
###2023-11-09 13:08:12.430266$GPGSV,2,1,07,05,21,090,43,10,18,292,43,13,24,045,42,15,62,037,46*76
###2023-11-09 13:08:12.432527$GPGSV,2,2,07,18,77,281,46,23,50,315,46,24,49,136,45,,,,*41
###2023-11-09 13:08:12.435113$GLGSV,2,1,05,70,50,017,36,71,48,290,49,80,18,090,45,85,57,203,48*65
###2023-11-09 13:08:12.436734$GLGSV,2,2,05,86,53,308,48,,,,,,,,,,,,*5F
###2023-11-09 13:08:12.439339$GAGSV,1,1,04,07,72,258,44,08,49,042,45,13,64,160,45,26,56,310,44*60
###2023-11-09 13:08:12.441931$GBGSV,2,1,06,11,23,180,41,14,65,008,46,24,20,132,43,26,23,081,43*67
###2023-11-09 13:08:12.443878$GBGSV,2,2,06,28,43,287,46,33,59,304,47,,,,,,,,*67
###2023-11-09 13:08:12.445350$GNVTG,246.94,T,,M,3.50,N,6.48,K,A*22
###2023-11-09 13:08:12.528637$GNGGA,130812.70,3611.0406576,N,07545.0008509,W,1,24,0.6,0.928,M,-39.962,M,0.0,*6D
###2023-11-09 13:08:12.531237$GPGSV,2,1,07,05,21,090,43,10,18,292,42,13,24,045,42,15,62,037,46*77
###2023-11-09 13:08:12.533508$GPGSV,2,2,07,18,77,281,46,23,50,315,45,24,49,136,45,,,,*42
###2023-11-09 13:08:12.536097$GLGSV,2,1,05,70,50,017,36,71,48,290,49,80,18,090,45,85,57,203,48*65
###2023-11-09 13:08:12.537729$GLGSV,2,2,05,86,53,308,48,,,,,,,,,,,,*5F
###2023-11-09 13:08:12.540301$GAGSV,1,1,04,07,72,258,44,08,49,042,45,13,64,160,45,26,56,310,44*60
###2023-11-09 13:08:12.542886$GBGSV,2,1,06,11,23,180,41,14,65,008,46,24,20,132,44,26,23,081,43*60
###2023-11-09 13:08:12.544829$GBGSV,2,2,06,28,43,287,46,33,59,304,47,,,,,,,,*67
###2023-11-09 13:08:12.546297$GNVTG,249.95,T,,M,3.54,N,6.55,K,A*24
###2023-11-09 13:08:12.627623$GNGGA,130812.80,3611.0406269,N,07545.0009654,W,1,24,0.6,0.922,M,-39.962,M,0.0,*6B
###2023-11-09 13:08:12.630201$GPGSV,2,1,07,05,21,090,43,10,18,292,42,13,24,045,42,15,62,037,46*77
###2023-11-09 13:08:12.632748$GPGSV,2,2,07,18,77,281,46,23,50,315,45,24,49,136,45,,,,*42
###2023-11-09 13:08:12.635329$GLGSV,2,1,05,70,50,017,36,71,48,290,49,80,18,090,45,85,57,203,47*6A
###2023-11-09 13:08:12.636954$GLGSV,2,2,05,86,53,308,48,,,,,,,,,,,,*5F
###2023-11-09 13:08:12.639536$GAGSV,1,1,04,07,72,258,44,08,49,042,45,13,64,160,45,26,56,310,44*60
###2023-11-09 13:08:12.642118$GBGSV,2,1,06,11,23,180,41,14,65,008,46,24,20,132,44,26,23,081,43*60
###2023-11-09 13:08:12.644057$GBGSV,2,2,06,28,43,287,46,33,59,304,47,,,,,,,,*67
###2023-11-09 13:08:12.645524$GNVTG,253.60,T,,M,3.56,N,6.59,K,A*2B
###2023-11-09 13:08:12.727644$GNGGA,130812.90,3611.0406025,N,07545.0010820,W,1,24,0.6,0.912,M,-39.962,M,0.0,*66
###2023-11-09 13:08:12.730251$GPGSV,2,1,07,05,21,090,43,10,18,292,42,13,24,045,42,15,62,037,46*77
###2023-11-09 13:08:12.732514$GPGSV,2,2,07,18,77,281,46,23,50,315,45,24,49,136,45,,,,*42
