###2023-11-09 13:07:52.739062$GLGSV,2,1,05,70,50,016,36,71,48,288,49,80,17,091,45,85,58,203,48*6C
###2023-11-09 13:07:52.740709$GLGSV,2,2,05,86,52,309,48,,,,,,,,,,,,*5F
###2023-11-09 13:07:52.743292$GAGSV,1,1,04,07,72,257,44,08,49,042,45,13,64,160,45,26,56,310,45*6E
###2023-11-09 13:07:52.745895$GBGSV,2,1,06,11,23,180,41,14,65,008,46,24,20,132,44,26,23,081,44*67
###2023-11-09 13:07:52.747874$GBGSV,2,2,06,28,43,287,46,33,59,304,47,,,,,,,,*67
###2023-11-09 13:07:52.749363$GNVTG,271.84,T,,M,4.22,N,7.81,K,A*21
###2023-11-09 13:07:52.833729$GNGGA,130753.00,3611.0476342,N,07544.9713105,W,1,24,0.6,0.774,M,-39.961,M,0.0,*6F
###2023-11-09 13:07:52.836323$GPGSV,2,1,07,05,21,090,43,10,18,292,44,13,24,045,43,15,62,037,46*70
###2023-11-09 13:07:52.838599$GPGSV,2,2,07,18,77,281,46,23,50,315,46,24,49,136,45,,,,*41
###2023-11-09 13:07:52.841177$GLGSV,2,1,05,70,50,016,36,71,48,288,49,80,17,091,45,85,58,203,48*6C
###2023-11-09 13:07:52.842785$GLGSV,2,2,05,86,52,309,48,,,,,,,,,,,,*5F
###2023-11-09 13:07:52.845357$GAGSV,1,1,04,07,72,257,44,08,49,042,45,13,64,160,45,26,56,310,45*6E
###2023-11-09 13:07:52.847943$GBGSV,2,1,06,11,23,180,41,14,65,008,46,24,20,132,44,26,23,081,44*67
###2023-11-09 13:07:52.849878$GBGSV,2,2,06,28,43,287,46,33,59,304,47,,,,,,,,*67
###2023-11-09 13:07:52.851337$GNVTG,272.60,T,,M,4.30,N,7.96,K,A*2D
###2023-11-09 13:07:52.931139$GNGGA,130753.10,3611.0476406,N,07544.9714578,W,1,24,0.6,0.791,M,-39.961,M,0.0,*6B
###2023-11-09 13:07:52.933745$GPGSV,2,1,07,05,21,090,43,10,18,292,44,13,24,045,43,15,62,037,45*73
###2023-11-09 13:07:52.935995$GPGSV,2,2,07,18,77,281,46,23,50,315,46,24,49,136,45,,,,*41
###2023-11-09 13:07:52.938716$GLGSV,2,1,05,70,50,016,36,71,48,288,49,80,17,091,45,85,58,203,48*6C
###2023-11-09 13:07:52.940332$GLGSV,2,2,05,86,52,309,48,,,,,,,,,,,,*5F
###2023-11-09 13:07:52.942906$GAGSV,1,1,04,07,72,257,44,08,49,042,45,13,64,160,45,26,56,310,45*6E
###2023-11-09 13:07:52.945490$GBGSV,2,1,06,11,23,180,41,14,65,008,46,24,20,132,44,26,23,081,43*60
###2023-11-09 13:07:52.947431$GBGSV,2,2,06,28,43,287,46,33,59,304,47,,,,,,,,*67
###2023-11-09 13:07:52.948902$GNVTG,273.91,T,,M,4.33,N,8.03,K,A*22
###2023-11-09 13:07:53.034484$GNGGA,130753.20,3611.0476494,N,07544.9716095,W,1,24,0.6,0.816,M,-39.961,M,0.0,*67
###2023-11-09 13:07:53.037088$GPGSV,2,1,07,05,21,090,43,10,18,292,44,13,24,045,43,15,62,037,46*70
###2023-11-09 13:07:53.039353$GPGSV,2,2,07,18,77,281,46,23,50,315,46,24,49,136,45,,,,*41
###2023-11-09 13:07:53.041932$GLGSV,2,1,05,70,50,016,36,71,48,288,49,80,17,091,45,85,58,203,48*6C
###2023-11-09 13:07:53.043538$GLGSV,2,2,05,86,52,309,48,,,,,,,,,,,,*5F
###2023-11-09 13:07:53.046116$GAGSV,1,1,04,07,72,257,45,08,49,042,45,13,64,160,45,26,56,310,45*6F
###2023-11-09 13:07:53.048704$GBGSV,2,1,06,11,23,180,41,14,65,008,45,24,20,132,44,26,23,081,44*64
###2023-11-09 13:07:53.050638$GBGSV,2,2,06,28,43,287,46,33,59,304,47,,,,,,,,*67
###2023-11-09 13:07:53.052099$GNVTG,274.53,T,,M,4.55,N,8.42,K,A*2E
###2023-11-09 13:07:53.130122$GNGGA,130753.30,3611.0476549,N,07544.9717661,W,1,24,0.6,0.843,M,-39.961,M,0.0,*6B
###2023-11-09 13:07:53.132696$GPGSV,2,1,07,05,21,090,43,10,18,292,44,13,24,045,43,15,62,037,46*70
###2023-11-09 13:07:53.134943$GPGSV,2,2,07,18,77,281,46,23,50,315,46,24,49,136,45,,,,*41
###2023-11-09 13:07:53.137521$GLGSV,2,1,05,70,50,016,36,71,48,288,49,80,17,091,45,85,58,203,48*6C
###2023-11-09 13:07:53.139127$GLGSV,2,2,05,86,52,309,48,,,,,,,,,,,,*5F
###2023-11-09 13:07:53.141683$GAGSV,1,1,04,07,72,257,45,08,49,042,45,13,64,160,45,26,56,310,45*6F
###2023-11-09 13:07:53.144251$GBGSV,2,1,06,11,23,180,41,14,65,008,45,24,20,132,44,26,23,081,44*64
###2023-11-09 13:07:53.146176$GBGSV,2,2,06,28,43,287,46,33,59,304,48,,,,,,,,*68
###2023-11-09 13:07:53.147644$GNVTG,270.61,T,,M,4.63,N,8.57,K,A*2A
###2023-11-09 13:07:53.231258$GNGGA,130753.40,3611.0476532,N,07544.9719266,W,1,24,0.6,0.860,M,-39.961,M,0.0,*6C
###2023-11-09 13:07:53.233860$GPGSV,2,1,07,05,21,090,43,10,18,292,44,13,24,045,43,15,62,037,46*70
###2023-11-09 13:07:53.236129$GPGSV,2,2,07,18,77,281,46,23,50,315,46,24,49,136,45,,,,*41
###2023-11-09 13:07:53.238739$GLGSV,2,1,05,70,50,016,36,71,48,288,49,80,17,091,45,85,58,203,48*6C
###2023-11-09 13:07:53.240355$GLGSV,2,2,05,86,52,309,48,,,,,,,,,,,,*5F
###2023-11-09 13:07:53.242936$GAGSV,1,1,04,07,72,257,45,08,49,042,45,13,64,160,45,26,56,310,45*6F
###2023-11-09 13:07:53.245518$GBGSV,2,1,06,11,23,180,39,14,65,008,45,24,20,132,44,26,23,081,44*6B
###2023-11-09 13:07:53.247470$GBGSV,2,2,06,28,43,287,46,33,59,304,48,,,,,,,,*68
###2023-11-09 13:07:53.248948$GNVTG,268.10,T,,M,4.76,N,8.82,K,A*29
###2023-11-09 13:07:53.330130$GNGGA,130753.50,3611.0476479,N,07544.9720887,W,1,24,0.6,0.872,M,-39.961,M,0.0,*6F
###2023-11-09 13:07:53.332745$GPGSV,2,1,07,05,21,090,43,10,18,292,44,13,24,045,43,15,62,037,46*70
###2023-11-09 13:07:53.335012$GPGSV,2,2,07,18,77,281,46,23,50,315,46,24,49,136,45,,,,*41
###2023-11-09 13:07:53.337625$GLGSV,2,1,05,70,50,016,36,71,48,288,49,80,17,091,45,85,58,203,48*6C
###2023-11-09 13:07:53.339246$GLGSV,2,2,05,86,52,309,48,,,,,,,,,,,,*5F
###2023-11-09 13:07:53.341833$GAGSV,1,1,04,07,72,257,45,08,49,042,45,13,64,160,45,26,56,310,45*6F
###2023-11-09 13:07:53.344426$GBGSV,2,1,06,11,23,180,39,14,65,008,45,24,20,132,43,26,23,081,44*6C
###2023-11-09 13:07:53.346376$GBGSV,2,2,06,28,43,287,46,33,59,304,48,,,,,,,,*68
###2023-11-09 13:07:53.347863$GNVTG,267.54,T,,M,4.72,N,8.75,K,A*2A
###2023-11-09 13:07:53.429148$GNGGA,130753.60,3611.0476412,N,07544.9722513,W,1,24,0.6,0.882,M,-39.961,M,0.0,*6C
###2023-11-09 13:07:53.431731$GPGSV,2,1,07,05,21,090,43,10,18,292,44,13,24,045,43,15,62,037,46*70
###2023-11-09 13:07:53.433986$GPGSV,2,2,07,18,77,281,46,23,50,315,46,24,49,136,45,,,,*41
###2023-11-09 13:07:53.436556$GLGSV,2,1,05,70,50,016,36,71,48,288,49,80,17,091,45,85,58,203,48*6C
###2023-11-09 13:07:53.438167$GLGSV,2,2,05,86,52,309,48,,,,,,,,,,,,*5F
###2023-11-09 13:07:53.440729$GAGSV,1,1,04,07,72,257,45,08,49,042,45,13,64,160,45,26,56,310,45*6F
###2023-11-09 13:07:53.443301$GBGSV,2,1,06,11,23,180,39,14,65,008,45,24,20,132,44,26,23,081,44*6B
###2023-11-09 13:07:53.445235$GBGSV,2,2,06,28,43,287,46,33,59,304,47,,,,,,,,*67
###2023-11-09 13:07:53.446695$GNVTG,266.90,T,,M,4.78,N,8.86,K,A*25
###2023-11-09 13:07:53.528528$GNGGA,130753.70,3611.0476364,N,07544.9724174,W,1,24,0.6,0.896,M,-39.961,M,0.0,*6D
###2023-11-09 13:07:53.531135$GPGSV,2,1,07,05,21,090,43,10,18,292,44,13,24,045,43,15,62,037,46*70
###2023-11-09 13:07:53.533419$GPGSV,2,2,07,18,77,281,46,23,50,315,46,24,49,136,45,,,,*41
###2023-11-09 13:07:53.536003$GLGSV,2,1,05,70,50,016,36,71,48,288,48,80,17,091,45,85,58,203,48*6D
###2023-11-09 13:07:53.537636$GLGSV,2,2,05,86,52,309,48,,,,,,,,,,,,*5F
###2023-11-09 13:07:53.540224$GAGSV,1,1,04,07,72,257,45,08,49,042,45,13,64,160,45,26,56,310,45*6F
###2023-11-09 13:07:53.542819$GBGSV,2,1,06,11,23,180,41,14,65,008,45,24,20,132,44,26,23,081,44*64
###2023-11-09 13:07:53.544759$GBGSV,2,2,06,28,43,287,46,33,59,304,48,,,,,,,,*68
###2023-11-09 13:07:53.546229$GNVTG,269.09,T,,M,4.92,N,9.11,K,A*21
###2023-11-09 13:07:53.629114$GNGGA,130753.80,3611.0476335,N,07544.9725882,W,1,24,0.6,0.918,M,-39.961,M,0.0,*60
###2023-11-09 13:07:53.631708$GPGSV,2,1,07,05,21,090,43,10,18,292,44,13,24,045,43,15,62,037,46*70
###2023-11-09 13:07:53.633961$GPGSV,2,2,07,18,77,281,46,23,50,315,46,24,49,136,45,,,,*41
###2023-11-09 13:07:53.636540$GLGSV,2,1,05,70,50,016,36,71,48,288,49,80,17,091,45,85,58,203,48*6C
###2023-11-09 13:07:53.638157$GLGSV,2,2,05,86,52,309,48,,,,,,,,,,,,*5F
###2023-11-09 13:07:53.640728$GAGSV,1,1,04,07,72,257,45,08,49,042,45,13,64,160,45,26,56,310,45*6F
###2023-11-09 13:07:53.643317$GBGSV,2,1,06,11,23,180,41,14,65,008,45,24,20,132,44,26,23,081,44*64
###2023-11-09 13:07:53.645259$GBGSV,2,2,06,28,43,287,46,33,59,304,48,,,,,,,,*68
###2023-11-09 13:07:53.646721$GNVTG,268.70,T,,M,5.05,N,9.36,K,A*24
###2023-11-09 13:07:53.729117$GNGGA,130753.90,3611.0476318,N,07544.9727634,W,1,24,0.6,0.939,M,-39.961,M,0.0,*6C
###2023-11-09 13:07:53.731696$GPGSV,2,1,07,05,21,090,43,10,18,292,43,13,24,045,43,15,62,037,46*77
###2023-11-09 13:07:53.733939$GPGSV,2,2,07,18,77,281,46,23,50,315,46,24,49,136,45,,,,*41
###2023-11-09 13:07:53.736785$GLGSV,2,1,05,70,50,016,36,71,48,288,49,80,17,091,45,85,58,203,48*6C
###2023-11-09 13:07:53.738414$GLGSV,2,2,05,86,52,309,48,,,,,,,,,,,,*5F
###2023-11-09 13:07:53.740980$GAGSV,1,1,04,07,72,257,45,08,49,042,45,13,64,160,45,26,56,310,45*6F
###2023-11-09 13:07:53.743560$GBGSV,2,1,06,11,23,180,41,14,65,008,45,24,20,132,44,26,23,081,44*64
###2023-11-09 13:07:53.745493$GBGSV,2,2,06,28,43,287,46,33,59,304,47,,,,,,,,*67
###2023-11-09 13:07:53.746968$GNVTG,270.09,T,,M,5.19,N,9.61,K,A*2C
###2023-11-09 13:07:53.836874$GNGGA,130754.00,3611.0476325,N,07544.9729428,W,1,24,0.6,0.951,M,-39.961,M,0.0,*63
###2023-11-09 13:07:53.839496$GPGSV,2,1,07,05,21,090,43,10,18,292,43,13,24,045,43,15,62,037,46*77
###2023-11-09 13:07:53.841755$GPGSV,2,2,07,18,77,281,46,23,50,315,46,24,49,136,45,,,,*41
###2023-11-09 13:07:53.844346$GLGSV,2,1,05,70,50,016,36,71,48,288,49,80,17,091,45,85,58,203,48*6C
