###2023-11-09 13:07:40.333710$GPGSV,2,2,07,18,77,281,47,23,50,315,45,24,49,136,45,,,,*43
###2023-11-09 13:07:40.336296$GLGSV,2,1,05,70,50,016,35,71,48,288,49,80,17,091,43,85,58,203,48*69
###2023-11-09 13:07:40.337936$GLGSV,2,2,05,86,52,309,48,,,,,,,,,,,,*5F
###2023-11-09 13:07:40.340508$GAGSV,1,1,04,07,72,257,45,08,49,042,44,13,64,160,45,26,56,310,45*6E
###2023-11-09 13:07:40.343079$GBGSV,2,1,06,11,23,180,39,14,65,008,45,24,19,133,43,26,23,082,43*63
###2023-11-09 13:07:40.345022$GBGSV,2,2,06,28,43,289,47,33,58,302,47,,,,,,,,*6F
###2023-11-09 13:07:40.346484$GNVTG,131.04,T,,M,4.30,N,7.96,K,A*2B
###2023-11-09 13:07:40.430486$GNGGA,130740.60,3611.0561293,N,07544.9739940,W,1,24,0.6,0.893,M,-39.961,M,0.0,*66
###2023-11-09 13:07:40.433080$GPGSV,2,1,07,05,21,090,40,10,18,292,44,13,24,045,41,15,62,037,46*71
###2023-11-09 13:07:40.435334$GPGSV,2,2,07,18,77,281,47,23,50,315,45,24,49,136,45,,,,*43
###2023-11-09 13:07:40.437958$GLGSV,2,1,05,70,50,016,35,71,48,288,49,80,17,091,42,85,58,203,48*68
###2023-11-09 13:07:40.439569$GLGSV,2,2,05,86,52,309,48,,,,,,,,,,,,*5F
###2023-11-09 13:07:40.442138$GAGSV,1,1,04,07,72,257,45,08,49,042,43,13,64,160,45,26,56,310,45*69
###2023-11-09 13:07:40.444716$GBGSV,2,1,06,11,23,180,40,14,65,008,45,24,19,133,43,26,23,082,43*6D
###2023-11-09 13:07:40.446654$GBGSV,2,2,06,28,43,289,47,33,58,302,47,,,,,,,,*6F
###2023-11-09 13:07:40.448138$GNVTG,132.11,T,,M,4.06,N,7.52,K,A*21
###2023-11-09 13:07:40.528494$GNGGA,130740.70,3611.0560525,N,07544.9738899,W,1,24,0.6,0.947,M,-39.961,M,0.0,*60
###2023-11-09 13:07:40.531071$GPGSV,2,1,07,05,21,090,40,10,18,292,44,13,24,045,41,15,62,037,46*71
###2023-11-09 13:07:40.533321$GPGSV,2,2,07,18,77,281,46,23,50,315,46,24,49,136,45,,,,*41
###2023-11-09 13:07:40.535893$GLGSV,2,1,05,70,50,016,35,71,48,288,49,80,17,091,41,85,58,203,49*6A
###2023-11-09 13:07:40.537513$GLGSV,2,2,05,86,52,309,48,,,,,,,,,,,,*5F
###2023-11-09 13:07:40.540079$GAGSV,1,1,04,07,72,257,45,08,49,042,43,13,64,160,45,26,56,310,45*69
###2023-11-09 13:07:40.542653$GBGSV,2,1,06,11,23,180,41,14,65,008,45,24,19,133,43,26,23,082,41*6E
###2023-11-09 13:07:40.544587$GBGSV,2,2,06,28,43,289,47,33,58,302,47,,,,,,,,*6F
###2023-11-09 13:07:40.546047$GNVTG,132.07,T,,M,4.10,N,7.60,K,A*20
###2023-11-09 13:07:40.628532$GNGGA,130740.80,3611.0559748,N,07544.9737865,W,1,24,0.6,1.013,M,-39.961,M,0.0,*69
###2023-11-09 13:07:40.631147$GPGSV,2,1,07,05,21,090,40,10,18,292,43,13,24,045,41,15,62,037,46*76
###2023-11-09 13:07:40.633403$GPGSV,2,2,07,18,77,281,46,23,50,315,46,24,49,136,45,,,,*41
###2023-11-09 13:07:40.635994$GLGSV,2,1,05,70,50,016,35,71,48,288,49,80,17,091,42,85,58,203,49*69
###2023-11-09 13:07:40.637638$GLGSV,2,2,05,86,52,309,48,,,,,,,,,,,,*5F
###2023-11-09 13:07:40.640218$GAGSV,1,1,04,07,72,257,45,08,49,042,44,13,64,160,45,26,56,310,45*6E
###2023-11-09 13:07:40.642816$GBGSV,2,1,06,11,23,180,41,14,65,008,45,24,19,133,41,26,23,082,41*6C
###2023-11-09 13:07:40.644758$GBGSV,2,2,06,28,43,289,47,33,58,302,47,,,,,,,,*6F
###2023-11-09 13:07:40.646224$GNVTG,133.08,T,,M,4.10,N,7.60,K,A*2E
###2023-11-09 13:07:40.729545$GNGGA,130740.90,3611.0558935,N,07544.9736854,W,1,24,0.6,1.065,M,-39.961,M,0.0,*6F
###2023-11-09 13:07:40.732157$GPGSV,2,1,07,05,21,090,41,10,18,292,43,13,24,045,42,15,62,037,46*74
###2023-11-09 13:07:40.734424$GPGSV,2,2,07,18,77,281,46,23,50,315,46,24,49,136,44,,,,*40
###2023-11-09 13:07:40.737032$GLGSV,2,1,05,70,50,016,35,71,48,288,49,80,17,091,43,85,58,203,48*69
###2023-11-09 13:07:40.738653$GLGSV,2,2,05,86,52,309,48,,,,,,,,,,,,*5F
###2023-11-09 13:07:40.741239$GAGSV,1,1,04,07,72,257,45,08,49,042,45,13,64,160,45,26,56,310,45*6F
###2023-11-09 13:07:40.743819$GBGSV,2,1,06,11,23,180,41,14,65,008,45,24,19,133,41,26,23,082,42*6F
###2023-11-09 13:07:40.745766$GBGSV,2,2,06,28,43,289,47,33,58,302,48,,,,,,,,*60
###2023-11-09 13:07:40.747256$GNVTG,136.04,T,,M,4.20,N,7.78,K,A*2D
###2023-11-09 13:07:40.831485$GNGGA,130741.00,3611.0558069,N,07544.9735857,W,1,24,0.6,1.091,M,-39.961,M,0.0,*6C
###2023-11-09 13:07:40.834067$GPGSV,2,1,07,05,21,090,41,10,18,292,43,13,24,045,42,15,62,037,46*74
###2023-11-09 13:07:40.836327$GPGSV,2,2,07,18,77,281,46,23,50,315,46,24,49,136,44,,,,*40
###2023-11-09 13:07:40.838922$GLGSV,2,1,05,70,50,016,35,71,48,288,49,80,17,091,44,85,58,203,48*6E
###2023-11-09 13:07:40.840532$GLGSV,2,2,05,86,52,309,48,,,,,,,,,,,,*5F
###2023-11-09 13:07:40.843090$GAGSV,1,1,04,07,72,257,45,08,49,042,45,13,64,160,45,26,56,310,45*6F
###2023-11-09 13:07:40.845673$GBGSV,2,1,06,11,23,180,39,14,65,008,45,24,19,133,41,26,23,082,43*61
###2023-11-09 13:07:40.847622$GBGSV,2,2,06,28,43,289,47,33,58,302,48,,,,,,,,*60
###2023-11-09 13:07:40.849087$GNVTG,137.44,T,,M,4.30,N,7.96,K,A*29
###2023-11-09 13:07:40.929530$GNGGA,130741.10,3611.0557177,N,07544.9734910,W,1,24,0.6,1.087,M,-39.961,M,0.0,*68
###2023-11-09 13:07:40.932134$GPGSV,2,1,07,05,21,090,42,10,18,292,43,13,24,045,42,15,62,037,46*77
###2023-11-09 13:07:40.934388$GPGSV,2,2,07,18,77,281,46,23,50,315,45,24,49,136,45,,,,*42
###2023-11-09 13:07:40.936985$GLGSV,2,1,05,70,50,016,35,71,48,288,49,80,17,091,44,85,58,203,48*6E
###2023-11-09 13:07:40.938598$GLGSV,2,2,05,86,52,309,48,,,,,,,,,,,,*5F
###2023-11-09 13:07:40.941172$GAGSV,1,1,04,07,72,257,45,08,49,042,45,13,64,160,45,26,56,310,45*6F
###2023-11-09 13:07:40.943760$GBGSV,2,1,06,11,23,180,39,14,65,008,45,24,20,132,41,26,23,082,44*6D
###2023-11-09 13:07:40.945701$GBGSV,2,2,06,28,43,289,47,33,58,302,47,,,,,,,,*6F
###2023-11-09 13:07:40.947182$GNVTG,140.83,T,,M,4.16,N,7.70,K,A*2E
###2023-11-09 13:07:41.032624$GNGGA,130741.20,3611.0556249,N,07544.9734052,W,1,24,0.6,1.072,M,-39.961,M,0.0,*61
###2023-11-09 13:07:41.035210$GPGSV,2,1,07,05,21,090,41,10,18,292,44,13,24,045,42,15,62,037,46*73
###2023-11-09 13:07:41.037474$GPGSV,2,2,07,18,77,281,46,23,50,315,45,24,49,136,45,,,,*42
###2023-11-09 13:07:41.040056$GLGSV,2,1,05,70,50,016,35,71,48,288,49,80,17,091,43,85,58,203,48*69
###2023-11-09 13:07:41.041665$GLGSV,2,2,05,86,52,309,48,,,,,,,,,,,,*5F
###2023-11-09 13:07:41.044228$GAGSV,1,1,04,07,72,257,45,08,49,042,45,13,64,160,45,26,56,310,45*6F
###2023-11-09 13:07:41.046816$GBGSV,2,1,06,11,23,180,39,14,65,008,45,24,20,132,42,26,23,082,44*6E
###2023-11-09 13:07:41.048770$GBGSV,2,2,06,28,43,289,47,33,58,302,47,,,,,,,,*6F
###2023-11-09 13:07:41.050248$GNVTG,145.02,T,,M,4.18,N,7.74,K,A*28
###2023-11-09 13:07:41.128505$GNGGA,130741.30,3611.0555317,N,07544.9733241,W,1,24,0.6,1.064,M,-39.961,M,0.0,*69
###2023-11-09 13:07:41.131088$GPGSV,2,1,07,05,21,090,41,10,18,292,45,13,24,045,42,15,62,037,46*72
###2023-11-09 13:07:41.133343$GPGSV,2,2,07,18,77,281,46,23,50,315,45,24,49,136,45,,,,*42
###2023-11-09 13:07:41.135913$GLGSV,2,1,05,70,50,016,35,71,48,288,49,80,17,091,43,85,58,203,49*68
###2023-11-09 13:07:41.137528$GLGSV,2,2,05,86,52,309,48,,,,,,,,,,,,*5F
###2023-11-09 13:07:41.140094$GAGSV,1,1,04,07,72,257,45,08,49,042,44,13,64,160,45,26,56,310,45*6E
###2023-11-09 13:07:41.142668$GBGSV,2,1,06,11,23,180,41,14,65,008,45,24,20,132,42,26,23,082,42*67
###2023-11-09 13:07:41.144607$GBGSV,2,2,06,28,43,289,47,33,58,302,47,,,,,,,,*6F
###2023-11-09 13:07:41.146065$GNVTG,144.00,T,,M,4.00,N,7.42,K,A*27
###2023-11-09 13:07:41.233890$GNGGA,130741.40,3611.0554432,N,07544.9732408,W,1,24,0.6,1.079,M,-39.961,M,0.0,*69
###2023-11-09 13:07:41.236523$GPGSV,2,1,07,05,21,090,40,10,18,292,45,13,24,045,42,15,62,037,46*73
###2023-11-09 13:07:41.238803$GPGSV,2,2,07,18,77,281,46,23,50,315,46,24,49,136,45,,,,*41
###2023-11-09 13:07:41.241378$GLGSV,2,1,05,70,50,016,35,71,48,288,49,80,17,091,42,85,58,203,49*69
###2023-11-09 13:07:41.242991$GLGSV,2,2,05,86,52,309,47,,,,,,,,,,,,*50
###2023-11-09 13:07:41.245566$GAGSV,1,1,04,07,72,257,45,08,49,042,44,13,64,160,45,26,56,310,45*6E
###2023-11-09 13:07:41.248163$GBGSV,2,1,06,11,23,180,41,14,65,008,45,24,20,132,42,26,23,082,41*64
###2023-11-09 13:07:41.250111$GBGSV,2,2,06,28,43,289,48,33,58,302,47,,,,,,,,*60
###2023-11-09 13:07:41.251573$GNVTG,140.74,T,,M,3.98,N,7.38,K,A*2B
###2023-11-09 13:07:41.330002$GNGGA,130741.50,3611.0553610,N,07544.9731504,W,1,24,0.6,1.099,M,-39.961,M,0.0,*6D
###2023-11-09 13:07:41.332604$GPGSV,2,1,07,05,21,090,40,10,18,292,45,13,24,045,42,15,62,037,46*73
###2023-11-09 13:07:41.335153$GPGSV,2,2,07,18,77,281,46,23,50,315,46,24,49,136,45,,,,*41
###2023-11-09 13:07:41.337770$GLGSV,2,1,05,70,50,016,35,71,48,288,49,80,17,091,42,85,58,203,49*69
###2023-11-09 13:07:41.339385$GLGSV,2,2,05,86,52,309,47,,,,,,,,,,,,*50
###2023-11-09 13:07:41.341970$GAGSV,1,1,04,07,72,257,45,08,49,042,43,13,64,160,45,26,56,310,45*69
###2023-11-09 13:07:41.344558$GBGSV,2,1,06,11,23,180,41,14,65,008,45,24,20,132,41,26,23,082,41*67
###2023-11-09 13:07:41.346503$GBGSV,2,2,06,28,43,289,48,33,58,302,47,,,,,,,,*60
###2023-11-09 13:07:41.347987$GNVTG,135.21,T,,M,3.95,N,7.31,K,A*2D
###2023-11-09 13:07:41.428374$GNGGA,130741.60,3611.0552864,N,07544.9730520,W,1,24,0.6,1.112,M,-39.961,M,0.0,*67
###2023-11-09 13:07:41.430946$GPGSV,2,1,07,05,21,090,40,10,18,292,45,13,24,045,42,15,62,037,46*73
###2023-11-09 13:07:41.433198$GPGSV,2,2,07,18,77,281,46,23,50,315,46,24,49,136,45,,,,*41
