###2023-11-09 13:07:11.346790$GBGSV,2,2,06,28,43,289,47,33,58,302,47,,,,,,,,*6F
###2023-11-09 13:07:11.348273$GNVTG,28.53,T,,M,0.97,N,1.80,K,A*18
###2023-11-09 13:07:11.429157$GNGGA,130711.60,3611.0512467,N,07544.9776136,W,1,24,0.6,0.897,M,-39.961,M,0.0,*6D
###2023-11-09 13:07:11.431744$GPGSV,2,1,07,05,21,090,41,10,18,292,43,13,24,045,42,15,62,037,46*74
###2023-11-09 13:07:11.433992$GPGSV,2,2,07,18,77,281,47,23,50,315,45,24,49,136,46,,,,*40
###2023-11-09 13:07:11.436554$GLGSV,2,1,05,70,50,016,35,71,48,288,47,80,17,091,43,85,58,203,49*66
###2023-11-09 13:07:11.438173$GLGSV,2,2,05,86,52,309,47,,,,,,,,,,,,*50
###2023-11-09 13:07:11.440738$GAGSV,1,1,04,07,72,257,45,08,49,042,44,13,64,160,45,26,56,311,45*6F
###2023-11-09 13:07:11.443300$GBGSV,2,1,06,11,24,180,42,14,65,006,45,24,19,133,43,26,23,082,42*67
###2023-11-09 13:07:11.445232$GBGSV,2,2,06,28,43,289,47,33,58,302,47,,,,,,,,*6F
###2023-11-09 13:07:11.446654$GNVTG,45.42,T,,M,1.05,N,1.94,K,A*1C
###2023-11-09 13:07:11.527785$GNGGA,130711.70,3611.0512703,N,07544.9775855,W,1,24,0.6,0.885,M,-39.961,M,0.0,*61
###2023-11-09 13:07:11.530394$GPGSV,2,1,07,05,21,090,41,10,18,292,43,13,24,045,42,15,62,037,46*74
###2023-11-09 13:07:11.532649$GPGSV,2,2,07,18,77,281,47,23,50,315,45,24,49,136,47,,,,*41
###2023-11-09 13:07:11.535213$GLGSV,2,1,05,70,50,016,35,71,48,288,47,80,17,091,43,85,58,203,49*66
###2023-11-09 13:07:11.536824$GLGSV,2,2,05,86,52,309,47,,,,,,,,,,,,*50
###2023-11-09 13:07:11.539407$GAGSV,1,1,04,07,72,257,45,08,49,042,44,13,64,160,45,26,56,311,45*6F
###2023-11-09 13:07:11.541981$GBGSV,2,1,06,11,24,180,42,14,65,006,45,24,19,133,43,26,23,082,42*67
###2023-11-09 13:07:11.543920$GBGSV,2,2,06,28,43,289,47,33,58,302,47,,,,,,,,*6F
###2023-11-09 13:07:11.545352$GNVTG,43.42,T,,M,1.28,N,2.38,K,A*10
###2023-11-09 13:07:11.629289$GNGGA,130711.80,3611.0512983,N,07544.9775558,W,1,24,0.6,0.876,M,-39.961,M,0.0,*64
###2023-11-09 13:07:11.631902$GPGSV,2,1,07,05,21,090,41,10,18,292,43,13,24,045,41,15,62,037,46*77
###2023-11-09 13:07:11.634163$GPGSV,2,2,07,18,77,281,47,23,50,315,45,24,49,136,47,,,,*41
###2023-11-09 13:07:11.636729$GLGSV,2,1,05,70,50,016,35,71,48,288,47,80,17,091,43,85,58,203,48*67
###2023-11-09 13:07:11.638359$GLGSV,2,2,05,86,52,309,47,,,,,,,,,,,,*50
###2023-11-09 13:07:11.640924$GAGSV,1,1,04,07,72,257,45,08,49,042,44,13,64,160,45,26,56,311,45*6F
###2023-11-09 13:07:11.643511$GBGSV,2,1,06,11,24,180,42,14,65,006,45,24,19,133,44,26,23,082,42*60
###2023-11-09 13:07:11.645441$GBGSV,2,2,06,28,43,289,47,33,58,302,47,,,,,,,,*6F
###2023-11-09 13:07:11.646866$GNVTG,38.63,T,,M,1.34,N,2.48,K,A*15
###2023-11-09 13:07:11.729229$GNGGA,130711.90,3611.0513269,N,07544.9775265,W,1,24,0.6,0.864,M,-39.961,M,0.0,*61
###2023-11-09 13:07:11.731797$GPGSV,2,1,07,05,21,090,41,10,18,292,43,13,24,045,41,15,62,037,46*77
###2023-11-09 13:07:11.734033$GPGSV,2,2,07,18,77,281,47,23,50,315,45,24,49,136,46,,,,*40
###2023-11-09 13:07:11.736581$GLGSV,2,1,05,70,50,016,35,71,48,288,47,80,17,091,43,85,58,203,48*67
###2023-11-09 13:07:11.738197$GLGSV,2,2,05,86,52,309,47,,,,,,,,,,,,*50
###2023-11-09 13:07:11.740756$GAGSV,1,1,04,07,72,257,45,08,49,042,44,13,64,160,45,26,56,311,45*6F
###2023-11-09 13:07:11.743312$GBGSV,2,1,06,11,24,180,42,14,65,006,45,24,19,133,44,26,23,082,42*60
###2023-11-09 13:07:11.745228$GBGSV,2,2,06,28,43,289,47,33,58,302,47,,,,,,,,*6F
###2023-11-09 13:07:11.746650$GNVTG,42.03,T,,M,1.30,N,2.41,K,A*13
###2023-11-09 13:07:11.837016$GNGGA,130712.00,3611.0513513,N,07544.9774966,W,1,24,0.6,0.857,M,-39.961,M,0.0,*68
###2023-11-09 13:07:11.839620$GPGSV,2,1,07,05,21,090,41,10,18,292,44,13,24,045,42,15,62,037,46*73
###2023-11-09 13:07:11.841882$GPGSV,2,2,07,18,77,281,47,23,50,315,45,24,49,136,45,,,,*43
###2023-11-09 13:07:11.844458$GLGSV,2,1,05,70,50,016,35,71,48,288,47,80,17,091,43,85,58,203,48*67
###2023-11-09 13:07:11.846065$GLGSV,2,2,05,86,52,309,47,,,,,,,,,,,,*50
###2023-11-09 13:07:11.848643$GAGSV,1,1,04,07,72,257,45,08,49,042,44,13,64,160,44,26,56,311,45*6E
###2023-11-09 13:07:11.851222$GBGSV,2,1,06,11,24,180,41,14,65,006,45,24,19,133,44,26,23,082,42*63
###2023-11-09 13:07:11.853166$GBGSV,2,2,06,28,43,289,47,33,58,302,48,,,,,,,,*60
###2023-11-09 13:07:11.854595$GNVTG,48.92,T,,M,1.17,N,2.16,K,A*16
###2023-11-09 13:07:11.936243$GNGGA,130712.10,3611.0513700,N,07544.9774683,W,1,24,0.6,0.850,M,-39.961,M,0.0,*6A
###2023-11-09 13:07:11.938846$GPGSV,2,1,07,05,21,090,41,10,18,292,44,13,24,045,42,15,62,037,46*73
###2023-11-09 13:07:11.941104$GPGSV,2,2,07,18,77,281,47,23,50,315,45,24,49,136,45,,,,*43
###2023-11-09 13:07:11.943689$GLGSV,2,1,05,70,50,016,35,71,48,288,48,80,17,091,43,85,58,203,48*68
###2023-11-09 13:07:11.945300$GLGSV,2,2,05,86,52,309,47,,,,,,,,,,,,*50
###2023-11-09 13:07:11.947889$GAGSV,1,1,04,07,72,257,45,08,49,042,44,13,64,160,44,26,56,311,45*6E
###2023-11-09 13:07:11.950479$GBGSV,2,1,06,11,24,180,41,14,65,006,45,24,19,133,43,26,23,082,42*64
###2023-11-09 13:07:11.952415$GBGSV,2,2,06,28,43,289,47,33,58,302,48,,,,,,,,*60
###2023-11-09 13:07:11.953842$GNVTG,48.92,T,,M,0.95,N,1.76,K,A*18
###2023-11-09 13:07:12.031104$GNGGA,130712.20,3611.0513845,N,07544.9774414,W,1,24,0.6,0.852,M,-39.961,M,0.0,*69
###2023-11-09 13:07:12.033687$GPGSV,2,1,07,05,21,090,41,10,18,292,44,13,24,045,42,15,62,037,46*73
###2023-11-09 13:07:12.035924$GPGSV,2,2,07,18,77,281,47,23,50,315,45,24,49,136,46,,,,*40
###2023-11-09 13:07:12.038504$GLGSV,2,1,05,70,50,016,35,71,48,288,48,80,17,091,43,85,58,203,48*68
###2023-11-09 13:07:12.040106$GLGSV,2,2,05,86,52,309,47,,,,,,,,,,,,*50
###2023-11-09 13:07:12.042652$GAGSV,1,1,04,07,72,257,45,08,49,042,44,13,64,160,44,26,56,311,45*6E
###2023-11-09 13:07:12.045214$GBGSV,2,1,06,11,24,180,41,14,65,006,45,24,19,133,43,26,23,082,43*65
###2023-11-09 13:07:12.047143$GBGSV,2,2,06,28,43,289,47,33,58,302,48,,,,,,,,*60
###2023-11-09 13:07:12.048561$GNVTG,48.92,T,,M,0.91,N,1.69,K,A*12
###2023-11-09 13:07:12.128123$GNGGA,130712.30,3611.0513983,N,07544.9774149,W,1,24,0.6,0.863,M,-39.961,M,0.0,*6C
###2023-11-09 13:07:12.130722$GPGSV,2,1,07,05,21,090,41,10,18,292,44,13,24,045,42,15,62,037,46*73
###2023-11-09 13:07:12.132978$GPGSV,2,2,07,18,77,281,47,23,50,315,45,24,49,136,46,,,,*40
###2023-11-09 13:07:12.135542$GLGSV,2,1,05,70,50,016,35,71,48,288,48,80,17,091,43,85,58,203,48*68
###2023-11-09 13:07:12.137158$GLGSV,2,2,05,86,52,309,47,,,,,,,,,,,,*50
###2023-11-09 13:07:12.139728$GAGSV,1,1,04,07,72,257,45,08,49,042,44,13,64,160,44,26,56,311,45*6E
###2023-11-09 13:07:12.142303$GBGSV,2,1,06,11,24,180,42,14,65,006,45,24,19,133,44,26,23,082,43*61
###2023-11-09 13:07:12.144230$GBGSV,2,2,06,28,43,289,47,33,58,302,47,,,,,,,,*6F
###2023-11-09 13:07:12.145655$GNVTG,48.92,T,,M,0.91,N,1.69,K,A*12
###2023-11-09 13:07:12.229245$GNGGA,130712.40,3611.0514169,N,07544.9773895,W,1,24,0.6,0.882,M,-39.961,M,0.0,*60
###2023-11-09 13:07:12.231828$GPGSV,2,1,07,05,21,090,41,10,18,292,44,13,24,045,40,15,62,037,45*72
###2023-11-09 13:07:12.234081$GPGSV,2,2,07,18,77,281,47,23,50,315,45,24,49,136,46,,,,*40
###2023-11-09 13:07:12.236656$GLGSV,2,1,05,70,50,016,35,71,48,288,48,80,17,091,43,85,58,203,48*68
###2023-11-09 13:07:12.238277$GLGSV,2,2,05,86,52,309,47,,,,,,,,,,,,*50
###2023-11-09 13:07:12.240850$GAGSV,1,1,04,07,72,257,45,08,49,042,44,13,64,160,44,26,56,311,45*6E
###2023-11-09 13:07:12.243442$GBGSV,2,1,06,11,24,180,42,14,65,006,45,24,19,133,44,26,23,082,43*61
###2023-11-09 13:07:12.245379$GBGSV,2,2,06,28,43,289,47,33,58,302,47,,,,,,,,*6F
###2023-11-09 13:07:12.246808$GNVTG,41.35,T,,M,1.07,N,1.98,K,A*16
###2023-11-09 13:07:12.328231$GNGGA,130712.50,3611.0514409,N,07544.9773653,W,1,24,0.6,0.906,M,-39.961,M,0.0,*6B
###2023-11-09 13:07:12.330802$GPGSV,2,1,07,05,21,090,41,10,18,292,43,13,24,045,40,15,62,037,45*75
###2023-11-09 13:07:12.333039$GPGSV,2,2,07,18,77,281,47,23,50,315,45,24,49,136,46,,,,*40
###2023-11-09 13:07:12.335592$GLGSV,2,1,05,70,50,016,35,71,48,288,48,80,17,091,43,85,58,203,48*68
###2023-11-09 13:07:12.337201$GLGSV,2,2,05,86,52,309,47,,,,,,,,,,,,*50
###2023-11-09 13:07:12.339753$GAGSV,1,1,04,07,72,257,45,08,49,042,44,13,64,160,44,26,56,311,45*6E
###2023-11-09 13:07:12.342321$GBGSV,2,1,06,11,24,180,42,14,65,006,45,24,19,133,44,26,23,082,42*60
###2023-11-09 13:07:12.344244$GBGSV,2,2,06,28,43,289,47,33,58,302,47,,,,,,,,*6F
###2023-11-09 13:07:12.345961$GNVTG,36.33,T,,M,1.17,N,2.16,K,A*14
###2023-11-09 13:07:12.428250$GNGGA,130712.60,3611.0514694,N,07544.9773417,W,1,24,0.6,0.931,M,-39.961,M,0.0,*68
###2023-11-09 13:07:12.430858$GPGSV,2,1,07,05,21,090,41,10,18,292,43,13,24,045,42,15,62,037,45*77
###2023-11-09 13:07:12.433110$GPGSV,2,2,07,18,77,281,47,23,50,315,45,24,49,136,46,,,,*40
###2023-11-09 13:07:12.435682$GLGSV,2,1,05,70,50,016,35,71,48,288,48,80,17,091,43,85,58,203,48*68
###2023-11-09 13:07:12.437307$GLGSV,2,2,05,86,52,309,47,,,,,,,,,,,,*50
###2023-11-09 13:07:12.439870$GAGSV,1,1,04,07,72,257,45,08,49,042,44,13,64,160,44,26,56,311,45*6E
###2023-11-09 13:07:12.442452$GBGSV,2,1,06,11,24,180,42,14,65,006,45,24,19,133,44,26,23,082,42*60
###2023-11-09 13:07:12.444377$GBGSV,2,2,06,28,43,289,47,33,58,302,47,,,,,,,,*6F
