###2023-11-09 13:10:06.437757$GPGSV,2,2,07,18,78,277,47,23,50,316,46,24,50,134,45,,,,*4F
###2023-11-09 13:10:06.440369$GLGSV,2,1,05,70,49,019,36,71,48,291,48,80,19,089,44,85,57,203,47*64
###2023-11-09 13:10:06.441987$GLGSV,2,2,05,86,53,308,49,,,,,,,,,,,,*5E
###2023-11-09 13:10:06.444565$GAGSV,1,1,04,07,73,259,45,08,48,043,44,13,63,161,44,26,57,310,45*67
###2023-11-09 13:10:06.447158$GBGSV,2,1,06,11,22,180,41,14,65,009,45,24,21,132,42,26,23,080,42*64
###2023-11-09 13:10:06.449104$GBGSV,2,2,06,28,43,286,47,33,59,305,48,,,,,,,,*69
###2023-11-09 13:10:06.450534$GNVTG,96.41,T,,M,4.37,N,8.10,K,A*10
###2023-11-09 13:10:06.530121$GNGGA,131006.70,3611.0504587,N,07544.8927238,W,1,24,0.6,0.536,M,-39.961,M,0.0,*64
###2023-11-09 13:10:06.532746$GPGSV,2,1,07,05,20,090,42,10,19,293,43,13,24,045,42,15,61,037,46*75
###2023-11-09 13:10:06.535000$GPGSV,2,2,07,18,78,277,47,23,50,316,46,24,50,134,46,,,,*4C
###2023-11-09 13:10:06.537593$GLGSV,2,1,05,70,49,019,36,71,48,291,48,80,19,089,44,85,57,203,47*64
###2023-11-09 13:10:06.539206$GLGSV,2,2,05,86,53,308,49,,,,,,,,,,,,*5E
###2023-11-09 13:10:06.541774$GAGSV,1,1,04,07,73,259,45,08,48,043,44,13,63,161,45,26,57,310,45*66
###2023-11-09 13:10:06.544354$GBGSV,2,1,06,11,22,180,40,14,65,009,45,24,21,132,42,26,23,080,42*65
###2023-11-09 13:10:06.546285$GBGSV,2,2,06,28,43,286,47,33,59,305,48,,,,,,,,*69
###2023-11-09 13:10:06.547771$GNVTG,102.47,T,,M,4.33,N,8.03,K,A*2C
###2023-11-09 13:10:06.630236$GNGGA,131006.80,3611.0504287,N,07544.8925815,W,1,24,0.6,0.485,M,-39.961,M,0.0,*62
###2023-11-09 13:10:06.632817$GPGSV,2,1,07,05,20,090,42,10,19,293,43,13,24,045,42,15,61,037,44*77
###2023-11-09 13:10:06.635063$GPGSV,2,2,07,18,78,277,47,23,50,316,45,24,50,134,46,,,,*4F
###2023-11-09 13:10:06.637660$GLGSV,2,1,05,70,49,019,36,71,48,291,48,80,19,089,43,85,57,203,48*6C
###2023-11-09 13:10:06.639268$GLGSV,2,2,05,86,53,308,48,,,,,,,,,,,,*5F
###2023-11-09 13:10:06.641826$GAGSV,1,1,04,07,73,259,45,08,48,043,44,13,63,161,45,26,57,310,45*66
###2023-11-09 13:10:06.644404$GBGSV,2,1,06,11,22,180,41,14,65,009,45,24,21,132,43,26,23,080,42*65
###2023-11-09 13:10:06.646330$GBGSV,2,2,06,28,43,286,46,33,59,305,47,,,,,,,,*67
###2023-11-09 13:10:06.647800$GNVTG,106.99,T,,M,4.30,N,7.96,K,A*2B
###2023-11-09 13:10:06.730019$GNGGA,131006.90,3611.0503931,N,07544.8924443,W,1,24,0.6,0.432,M,-39.961,M,0.0,*60
###2023-11-09 13:10:06.732637$GPGSV,2,1,07,05,20,090,41,10,19,293,43,13,24,045,39,15,61,037,44*78
###2023-11-09 13:10:06.734901$GPGSV,2,2,07,18,78,277,47,23,50,316,45,24,50,134,46,,,,*4F
###2023-11-09 13:10:06.737530$GLGSV,2,1,05,70,49,019,35,71,48,291,47,80,19,089,43,85,57,203,49*61
###2023-11-09 13:10:06.739155$GLGSV,2,2,05,86,53,308,47,,,,,,,,,,,,*50
###2023-11-09 13:10:06.741725$GAGSV,1,1,04,07,73,259,45,08,48,043,43,13,63,161,45,26,57,310,45*61
###2023-11-09 13:10:06.744317$GBGSV,2,1,06,11,22,180,42,14,65,009,45,24,21,132,45,26,23,080,41*63
###2023-11-09 13:10:06.746262$GBGSV,2,2,06,28,43,286,46,33,59,305,47,,,,,,,,*67
###2023-11-09 13:10:06.747756$GNVTG,109.26,T,,M,4.18,N,7.74,K,A*26
###2023-11-09 13:10:06.833058$GNGGA,131007.00,3611.0503669,N,07544.8923065,W,1,24,0.6,0.412,M,-39.961,M,0.0,*6F
###2023-11-09 13:10:06.835651$GPGSV,2,1,07,05,20,090,41,10,19,293,44,13,24,045,39,15,61,037,44*7F
###2023-11-09 13:10:06.837943$GPGSV,2,2,07,18,78,277,46,23,50,316,45,24,50,134,46,,,,*4E
###2023-11-09 13:10:06.840540$GLGSV,2,1,05,70,49,019,35,71,48,291,48,80,19,089,43,85,57,203,49*6E
###2023-11-09 13:10:06.842151$GLGSV,2,2,05,86,53,308,48,,,,,,,,,,,,*5F
###2023-11-09 13:10:06.844721$GAGSV,1,1,04,07,73,259,45,08,48,043,43,13,63,161,45,26,57,310,45*61
###2023-11-09 13:10:06.847318$GBGSV,2,1,06,11,22,180,43,14,65,009,44,24,21,132,45,26,23,080,41*63
###2023-11-09 13:10:06.849262$GBGSV,2,2,06,28,43,286,46,33,59,305,47,,,,,,,,*67
###2023-11-09 13:10:06.850691$GNVTG,98.10,T,,M,4.16,N,7.70,K,A*10
###2023-11-09 13:10:06.930901$GNGGA,131007.10,3611.0503648,N,07544.8921622,W,1,24,0.6,0.444,M,-39.961,M,0.0,*69
###2023-11-09 13:10:06.933500$GPGSV,2,1,07,05,20,090,41,10,19,293,45,13,24,045,39,15,61,037,44*7E
###2023-11-09 13:10:06.935738$GPGSV,2,2,07,18,78,277,46,23,50,316,45,24,50,134,46,,,,*4E
###2023-11-09 13:10:06.938326$GLGSV,2,1,05,70,49,019,35,71,48,291,49,80,19,089,43,85,57,203,49*6F
###2023-11-09 13:10:06.939931$GLGSV,2,2,05,86,53,308,48,,,,,,,,,,,,*5F
###2023-11-09 13:10:06.942496$GAGSV,1,1,04,07,73,259,45,08,48,043,43,13,63,161,45,26,57,310,45*61
###2023-11-09 13:10:06.945069$GBGSV,2,1,06,11,22,180,43,14,65,009,45,24,21,132,44,26,23,080,41*63
###2023-11-09 13:10:06.947011$GBGSV,2,2,06,28,43,286,47,33,59,305,47,,,,,,,,*66
###2023-11-09 13:10:06.948442$GNVTG,85.17,T,,M,4.33,N,8.03,K,A*17
###2023-11-09 13:10:07.031868$GNGGA,131007.20,3611.0503735,N,07544.8920164,W,1,24,0.6,0.491,M,-39.961,M,0.0,*6D
###2023-11-09 13:10:07.034470$GPGSV,2,1,07,05,20,090,41,10,19,293,45,13,24,045,42,15,61,037,44*72
###2023-11-09 13:10:07.036734$GPGSV,2,2,07,18,78,277,46,23,50,316,45,24,50,134,45,,,,*4D
###2023-11-09 13:10:07.039331$GLGSV,2,1,05,70,49,019,35,71,48,291,49,80,19,089,43,85,57,203,48*6E
###2023-11-09 13:10:07.040948$GLGSV,2,2,05,86,53,308,48,,,,,,,,,,,,*5F
###2023-11-09 13:10:07.043512$GAGSV,1,1,04,07,73,259,45,08,48,043,44,13,63,161,45,26,57,310,45*66
###2023-11-09 13:10:07.046094$GBGSV,2,1,06,11,22,180,42,14,65,009,45,24,21,132,42,26,23,080,43*66
###2023-11-09 13:10:07.048039$GBGSV,2,2,06,28,43,286,47,33,59,305,47,,,,,,,,*66
###2023-11-09 13:10:07.049468$GNVTG,86.69,T,,M,4.24,N,7.85,K,A*1A
###2023-11-09 13:10:07.131367$GNGGA,131007.30,3611.0503675,N,07544.8918733,W,1,24,0.6,0.520,M,-39.961,M,0.0,*6D
###2023-11-09 13:10:07.133950$GPGSV,2,1,07,05,20,090,41,10,19,293,45,13,24,045,43,15,61,037,45*72
###2023-11-09 13:10:07.136192$GPGSV,2,2,07,18,78,277,46,23,50,316,45,24,50,134,45,,,,*4D
###2023-11-09 13:10:07.138784$GLGSV,2,1,05,70,49,019,37,71,48,291,49,80,19,089,43,85,57,203,47*63
###2023-11-09 13:10:07.140399$GLGSV,2,2,05,86,53,308,49,,,,,,,,,,,,*5E
###2023-11-09 13:10:07.142968$GAGSV,1,1,04,07,73,259,45,08,48,043,44,13,63,161,44,26,57,310,45*67
###2023-11-09 13:10:07.145549$GBGSV,2,1,06,11,22,180,39,14,65,009,45,24,21,132,41,26,23,080,43*69
###2023-11-09 13:10:07.147498$GBGSV,2,2,06,28,43,286,47,33,59,305,48,,,,,,,,*69
###2023-11-09 13:10:07.148930$GNVTG,99.54,T,,M,4.24,N,7.85,K,A*1A
###2023-11-09 13:10:07.230478$GNGGA,131007.40,3611.0503337,N,07544.8917307,W,1,24,0.6,0.541,M,-39.961,M,0.0,*62
###2023-11-09 13:10:07.233076$GPGSV,2,1,07,05,20,090,41,10,19,293,43,13,24,045,44,15,61,037,46*70
###2023-11-09 13:10:07.235324$GPGSV,2,2,07,18,78,277,46,23,50,316,46,24,50,134,45,,,,*4E
###2023-11-09 13:10:07.237915$GLGSV,2,1,05,70,49,019,37,71,48,291,49,80,19,089,44,85,57,203,46*65
###2023-11-09 13:10:07.239519$GLGSV,2,2,05,86,53,308,49,,,,,,,,,,,,*5E
###2023-11-09 13:10:07.242075$GAGSV,1,1,04,07,73,259,44,08,48,043,44,13,63,161,44,26,57,310,46*65
###2023-11-09 13:10:07.244647$GBGSV,2,1,06,11,22,180,39,14,65,009,45,24,21,132,41,26,23,080,43*69
###2023-11-09 13:10:07.246569$GBGSV,2,2,06,28,43,286,47,33,59,305,48,,,,,,,,*69
###2023-11-09 13:10:07.248062$GNVTG,112.41,T,,M,4.55,N,8.42,K,A*2E
###2023-11-09 13:10:07.330379$GNGGA,131007.50,3611.0502808,N,07544.8915915,W,1,24,0.6,0.535,M,-39.961,M,0.0,*6D
###2023-11-09 13:10:07.332976$GPGSV,2,1,07,05,20,090,42,10,19,293,43,13,24,045,43,15,61,037,46*74
###2023-11-09 13:10:07.335228$GPGSV,2,2,07,18,78,277,47,23,50,316,46,24,50,134,45,,,,*4F
###2023-11-09 13:10:07.337815$GLGSV,2,1,05,70,49,019,37,71,48,291,48,80,19,089,44,85,57,203,47*65
###2023-11-09 13:10:07.339432$GLGSV,2,2,05,86,53,308,49,,,,,,,,,,,,*5E
###2023-11-09 13:10:07.341994$GAGSV,1,1,04,07,73,259,45,08,48,043,45,13,63,161,45,26,57,310,45*67
###2023-11-09 13:10:07.344584$GBGSV,2,1,06,11,22,180,39,14,65,009,45,24,21,132,42,26,23,080,42*6B
###2023-11-09 13:10:07.346521$GBGSV,2,2,06,28,43,286,47,33,59,305,48,,,,,,,,*69
###2023-11-09 13:10:07.347993$GNVTG,117.61,T,,M,4.49,N,8.32,K,A*23
###2023-11-09 13:10:07.432757$GNGGA,131007.60,3611.0502260,N,07544.8914614,W,1,24,0.6,0.495,M,-39.961,M,0.0,*6E
###2023-11-09 13:10:07.435356$GPGSV,2,1,07,05,20,090,41,10,19,293,43,13,24,045,41,15,61,037,44*77
###2023-11-09 13:10:07.437966$GPGSV,2,2,07,18,78,277,47,23,50,316,45,24,50,134,46,,,,*4F
###2023-11-09 13:10:07.440556$GLGSV,2,1,05,70,49,019,35,71,48,291,48,80,19,089,43,85,57,203,48*6F
###2023-11-09 13:10:07.442176$GLGSV,2,2,05,86,53,308,47,,,,,,,,,,,,*50
###2023-11-09 13:10:07.444744$GAGSV,1,1,04,07,73,259,45,08,48,043,44,13,63,161,45,26,57,310,45*66
###2023-11-09 13:10:07.447354$GBGSV,2,1,06,11,22,180,43,14,65,009,45,24,21,132,43,26,23,080,42*67
###2023-11-09 13:10:07.449294$GBGSV,2,2,06,28,43,286,47,33,59,305,47,,,,,,,,*66
###2023-11-09 13:10:07.450770$GNVTG,117.05,T,,M,4.14,N,7.67,K,A*26
###2023-11-09 13:10:07.530846$GNGGA,131007.70,3611.0501865,N,07544.8913326,W,1,24,0.6,0.471,M,-39.961,M,0.0,*6A
###2023-11-09 13:10:07.533441$GPGSV,2,1,07,05,20,090,41,10,19,293,44,13,24,045,39,15,61,037,44*7F
###2023-11-09 13:10:07.535692$GPGSV,2,2,07,18,78,277,47,23,50,316,45,24,50,134,46,,,,*4F
