###2023-11-09 13:08:44.943257$GAGSV,1,1,04,07,72,258,46,08,48,043,44,13,64,160,44,26,57,310,45*62
###2023-11-09 13:08:44.945864$GBGSV,2,1,06,11,23,180,42,14,65,008,45,24,20,132,43,26,23,081,42*66
###2023-11-09 13:08:44.947846$GBGSV,2,2,06,28,43,287,48,33,59,304,48,,,,,,,,*66
###2023-11-09 13:08:44.949295$GNVTG,85.27,T,,M,4.78,N,8.86,K,A*16
###2023-11-09 13:08:45.034233$GNGGA,130845.20,3611.0195295,N,07545.0045968,W,1,24,0.6,0.952,M,-39.962,M,0.0,*60
###2023-11-09 13:08:45.036836$GPGSV,2,1,07,05,20,090,40,10,19,293,43,13,24,045,41,15,61,037,45*77
###2023-11-09 13:08:45.039104$GPGSV,2,2,07,18,78,277,46,23,50,316,45,24,50,135,46,,,,*4F
###2023-11-09 13:08:45.041681$GLGSV,2,1,05,70,50,017,35,71,48,290,48,80,18,090,42,85,57,203,48*60
###2023-11-09 13:08:45.043285$GLGSV,2,2,05,86,53,308,48,,,,,,,,,,,,*5F
###2023-11-09 13:08:45.045844$GAGSV,1,1,04,07,72,258,46,08,48,043,44,13,64,160,44,26,57,310,45*62
###2023-11-09 13:08:45.048433$GBGSV,2,1,06,11,23,180,42,14,65,008,45,24,20,132,43,26,23,081,42*66
###2023-11-09 13:08:45.050366$GBGSV,2,2,06,28,43,287,48,33,59,304,48,,,,,,,,*66
###2023-11-09 13:08:45.051792$GNVTG,89.73,T,,M,4.70,N,8.71,K,A*1B
###2023-11-09 13:08:45.129882$GNGGA,130845.30,3611.0195234,N,07545.0044414,W,1,24,0.6,0.955,M,-39.962,M,0.0,*6A
###2023-11-09 13:08:45.132475$GPGSV,2,1,07,05,20,090,40,10,19,293,43,13,24,045,42,15,61,037,45*74
###2023-11-09 13:08:45.134722$GPGSV,2,2,07,18,78,277,47,23,50,316,45,24,50,135,46,,,,*4E
###2023-11-09 13:08:45.137306$GLGSV,2,1,05,70,50,017,35,71,48,290,48,80,18,090,42,85,57,203,48*60
###2023-11-09 13:08:45.138931$GLGSV,2,2,05,86,53,308,47,,,,,,,,,,,,*50
###2023-11-09 13:08:45.141507$GAGSV,1,1,04,07,72,258,46,08,48,043,44,13,64,160,44,26,57,310,45*62
###2023-11-09 13:08:45.144082$GBGSV,2,1,06,11,23,180,42,14,65,008,45,24,20,132,43,26,23,081,42*66
###2023-11-09 13:08:45.146010$GBGSV,2,2,06,28,43,287,47,33,59,304,47,,,,,,,,*66
###2023-11-09 13:08:45.147456$GNVTG,96.22,T,,M,4.45,N,8.24,K,A*17
###2023-11-09 13:08:45.231244$GNGGA,130845.40,3611.0195063,N,07545.0042950,W,1,24,0.6,0.962,M,-39.962,M,0.0,*62
###2023-11-09 13:08:45.233859$GPGSV,2,1,07,05,20,090,40,10,19,293,43,13,24,045,41,15,61,037,45*77
###2023-11-09 13:08:45.236112$GPGSV,2,2,07,18,78,277,47,23,50,316,45,24,50,135,46,,,,*4E
###2023-11-09 13:08:45.238713$GLGSV,2,1,05,70,50,017,35,71,48,290,48,80,18,090,42,85,57,203,49*61
###2023-11-09 13:08:45.240323$GLGSV,2,2,05,86,53,308,47,,,,,,,,,,,,*50
###2023-11-09 13:08:45.242895$GAGSV,1,1,04,07,72,258,46,08,48,043,43,13,64,160,45,26,57,310,44*65
###2023-11-09 13:08:45.245479$GBGSV,2,1,06,11,23,180,43,14,65,008,45,24,20,132,43,26,23,081,42*67
###2023-11-09 13:08:45.247448$GBGSV,2,2,06,28,43,287,47,33,59,304,47,,,,,,,,*66
###2023-11-09 13:08:45.248921$GNVTG,100.24,T,,M,4.24,N,7.85,K,A*2C
###2023-11-09 13:08:45.329857$GNGGA,130845.50,3611.0194905,N,07545.0041558,W,1,24,0.6,0.983,M,-39.962,M,0.0,*63
###2023-11-09 13:08:45.332434$GPGSV,2,1,07,05,20,090,40,10,19,293,43,13,24,045,41,15,61,037,45*77
###2023-11-09 13:08:45.334683$GPGSV,2,2,07,18,78,277,47,23,50,316,45,24,50,135,46,,,,*4E
###2023-11-09 13:08:45.337276$GLGSV,2,1,05,70,50,017,35,71,48,290,48,80,18,090,42,85,57,203,49*61
###2023-11-09 13:08:45.338907$GLGSV,2,2,05,86,53,308,47,,,,,,,,,,,,*50
###2023-11-09 13:08:45.341492$GAGSV,1,1,04,07,72,258,46,08,48,043,43,13,64,160,45,26,57,310,44*65
###2023-11-09 13:08:45.344077$GBGSV,2,1,06,11,23,180,44,14,65,008,45,24,20,132,43,26,23,081,42*60
###2023-11-09 13:08:45.346015$GBGSV,2,2,06,28,43,287,47,33,59,304,47,,,,,,,,*66
###2023-11-09 13:08:45.347461$GNVTG,95.53,T,,M,4.04,N,7.49,K,A*13
###2023-11-09 13:08:45.429887$GNGGA,130845.60,3611.0194877,N,07545.0040186,W,1,24,0.6,1.017,M,-39.962,M,0.0,*67
###2023-11-09 13:08:45.432496$GPGSV,2,1,07,05,20,090,40,10,19,293,43,13,24,045,39,15,61,037,45*78
###2023-11-09 13:08:45.434762$GPGSV,2,2,07,18,78,277,47,23,50,316,45,24,50,135,46,,,,*4E
###2023-11-09 13:08:45.437354$GLGSV,2,1,05,70,50,017,35,71,48,290,48,80,18,090,42,85,57,203,49*61
###2023-11-09 13:08:45.438978$GLGSV,2,2,05,86,53,308,47,,,,,,,,,,,,*50
###2023-11-09 13:08:45.441549$GAGSV,1,1,04,07,72,258,46,08,48,043,43,13,64,160,45,26,57,310,44*65
###2023-11-09 13:08:45.444139$GBGSV,2,1,06,11,23,180,44,14,65,008,44,24,20,132,44,26,23,081,42*66
###2023-11-09 13:08:45.446086$GBGSV,2,2,06,28,43,287,47,33,59,304,46,,,,,,,,*67
###2023-11-09 13:08:45.447532$GNVTG,87.80,T,,M,4.02,N,7.45,K,A*14
###2023-11-09 13:08:45.529874$GNGGA,130845.70,3611.0194968,N,07545.0038811,W,1,24,0.6,1.050,M,-39.962,M,0.0,*62
###2023-11-09 13:08:45.532473$GPGSV,2,1,07,05,20,090,40,10,19,293,43,13,24,045,41,15,61,037,45*77
###2023-11-09 13:08:45.534734$GPGSV,2,2,07,18,78,277,47,23,50,316,45,24,50,135,46,,,,*4E
###2023-11-09 13:08:45.537341$GLGSV,2,1,05,70,50,017,35,71,48,290,48,80,18,090,42,85,57,203,49*61
###2023-11-09 13:08:45.538946$GLGSV,2,2,05,86,53,308,47,,,,,,,,,,,,*50
###2023-11-09 13:08:45.541522$GAGSV,1,1,04,07,72,258,45,08,48,043,43,13,64,160,44,26,57,310,44*67
###2023-11-09 13:08:45.544106$GBGSV,2,1,06,11,23,180,43,14,65,008,44,24,20,132,44,26,23,081,42*61
###2023-11-09 13:08:45.546039$GBGSV,2,2,06,28,43,287,47,33,59,304,47,,,,,,,,*66
###2023-11-09 13:08:45.547488$GNVTG,83.33,T,,M,4.08,N,7.56,K,A*10
###2023-11-09 13:08:45.629970$GNGGA,130845.80,3611.0195071,N,07545.0037427,W,1,24,0.6,1.071,M,-39.962,M,0.0,*68
###2023-11-09 13:08:45.632554$GPGSV,2,1,07,05,20,090,40,10,19,293,43,13,24,045,43,15,61,037,45*75
###2023-11-09 13:08:45.634803$GPGSV,2,2,07,18,78,277,47,23,50,316,45,24,50,135,46,,,,*4E
###2023-11-09 13:08:45.637397$GLGSV,2,1,05,70,50,017,35,71,48,290,49,80,18,090,42,85,57,203,48*61
###2023-11-09 13:08:45.639012$GLGSV,2,2,05,86,53,308,47,,,,,,,,,,,,*50
###2023-11-09 13:08:45.641567$GAGSV,1,1,04,07,72,258,45,08,48,043,44,13,64,160,44,26,57,310,44*60
###2023-11-09 13:08:45.644143$GBGSV,2,1,06,11,23,180,42,14,65,008,45,24,20,132,43,26,23,081,43*67
###2023-11-09 13:08:45.646065$GBGSV,2,2,06,28,43,287,47,33,59,304,48,,,,,,,,*69
###2023-11-09 13:08:45.647504$GNVTG,86.36,T,,M,4.08,N,7.56,K,A*10
###2023-11-09 13:08:45.728934$GNGGA,130845.90,3611.0195043,N,07545.0036049,W,1,24,0.6,1.066,M,-39.962,M,0.0,*63
###2023-11-09 13:08:45.731543$GPGSV,2,1,07,05,20,090,42,10,19,293,43,13,24,045,43,15,61,037,45*77
###2023-11-09 13:08:45.733811$GPGSV,2,2,07,18,78,277,47,23,50,316,46,24,50,135,46,,,,*4D
###2023-11-09 13:08:45.736404$GLGSV,2,1,05,70,50,017,35,71,48,290,48,80,18,090,43,85,57,203,47*6E
###2023-11-09 13:08:45.738032$GLGSV,2,2,05,86,53,308,48,,,,,,,,,,,,*5F
###2023-11-09 13:08:45.740623$GAGSV,1,1,04,07,72,258,46,08,48,043,44,13,64,160,44,26,57,310,44*63
###2023-11-09 13:08:45.743212$GBGSV,2,1,06,11,23,180,41,14,65,008,45,24,20,132,42,26,23,081,43*65
###2023-11-09 13:08:45.745148$GBGSV,2,2,06,28,43,287,47,33,59,304,47,,,,,,,,*66
###2023-11-09 13:08:45.746586$GNVTG,96.62,T,,M,4.04,N,7.49,K,A*12
###2023-11-09 13:08:45.832888$GNGGA,130846.00,3611.0194828,N,07545.0034685,W,1,24,0.6,1.050,M,-39.962,M,0.0,*6C
###2023-11-09 13:08:45.835482$GPGSV,2,1,07,05,20,090,42,10,19,293,43,13,24,045,43,15,61,037,46*74
###2023-11-09 13:08:45.837762$GPGSV,2,2,07,18,78,277,47,23,50,316,46,24,50,135,46,,,,*4D
###2023-11-09 13:08:45.840336$GLGSV,2,1,05,70,50,017,35,71,48,290,48,80,18,090,44,85,57,203,47*69
###2023-11-09 13:08:45.841946$GLGSV,2,2,05,86,53,308,48,,,,,,,,,,,,*5F
###2023-11-09 13:08:45.844513$GAGSV,1,1,04,07,72,258,46,08,48,043,44,13,64,160,44,26,57,310,44*63
###2023-11-09 13:08:45.847122$GBGSV,2,1,06,11,23,180,41,14,65,008,45,24,20,132,42,26,23,081,43*65
###2023-11-09 13:08:45.849067$GBGSV,2,2,06,28,43,287,47,33,59,304,47,,,,,,,,*66
###2023-11-09 13:08:45.850536$GNVTG,105.26,T,,M,4.14,N,7.67,K,A*24
###2023-11-09 13:08:45.933846$GNGGA,130846.10,3611.0194489,N,07545.0033320,W,1,24,0.6,1.033,M,-39.962,M,0.0,*62
###2023-11-09 13:08:45.936419$GPGSV,2,1,07,05,20,090,42,10,19,293,43,13,24,045,43,15,61,037,46*74
###2023-11-09 13:08:45.938674$GPGSV,2,2,07,18,78,277,47,23,50,316,46,24,50,135,46,,,,*4D
###2023-11-09 13:08:45.941238$GLGSV,2,1,05,70,50,017,35,71,48,290,48,80,18,090,44,85,57,203,48*66
###2023-11-09 13:08:45.942836$GLGSV,2,2,05,86,53,308,48,,,,,,,,,,,,*5F
###2023-11-09 13:08:45.945387$GAGSV,1,1,04,07,72,258,46,08,48,043,44,13,64,160,44,26,57,310,44*63
###2023-11-09 13:08:45.948279$GBGSV,2,1,06,11,23,180,41,14,65,008,45,24,20,132,42,26,23,081,43*65
###2023-11-09 13:08:45.950227$GBGSV,2,2,06,28,43,287,47,33,59,304,47,,,,,,,,*66
###2023-11-09 13:08:45.951699$GNVTG,108.69,T,,M,4.22,N,7.81,K,A*2F
###2023-11-09 13:08:46.033021$GNGGA,130846.20,3611.0194121,N,07545.0031944,W,1,24,0.6,0.999,M,-39.962,M,0.0,*64
###2023-11-09 13:08:46.035623$GPGSV,2,1,07,05,20,090,41,10,19,293,43,13,24,045,42,15,61,037,46*76
###2023-11-09 13:08:46.037903$GPGSV,2,2,07,18,78,277,47,23,50,316,45,24,50,135,46,,,,*4E
###2023-11-09 13:08:46.040493$GLGSV,2,1,05,70,50,017,35,71,48,290,48,80,18,090,43,85,57,203,49*60
###2023-11-09 13:08:46.042114$GLGSV,2,2,05,86,53,308,48,,,,,,,,,,,,*5F
###2023-11-09 13:08:46.044700$GAGSV,1,1,04,07,72,258,45,08,48,043,44,13,64,160,45,26,57,310,44*61
