###2023-11-09 13:10:14.236136$GLGSV,2,1,05,70,49,019,35,71,48,291,48,80,19,089,42,85,56,202,49*6F
###2023-11-09 13:10:14.237821$GLGSV,2,2,05,86,54,306,47,,,,,,,,,,,,*59
###2023-11-09 13:10:14.240417$GAGSV,1,1,04,07,73,259,45,08,48,043,43,13,63,161,45,26,57,310,44*60
###2023-11-09 13:10:14.243010$GBGSV,2,1,06,11,22,180,43,14,65,009,44,24,21,132,45,26,23,080,42*60
###2023-11-09 13:10:14.244962$GBGSV,2,2,06,28,43,286,47,33,59,305,47,,,,,,,,*66
###2023-11-09 13:10:14.246401$GNVTG,84.60,T,,M,4.49,N,8.32,K,A*19
###2023-11-09 13:10:14.330523$GNGGA,131014.50,3611.0497258,N,07544.8824136,W,1,24,0.6,0.372,M,-39.961,M,0.0,*62
###2023-11-09 13:10:14.333137$GPGSV,2,1,07,05,20,090,41,10,19,293,43,13,24,045,39,15,61,037,44*78
###2023-11-09 13:10:14.335400$GPGSV,2,2,07,18,78,277,46,23,50,316,45,24,50,134,46,,,,*4E
###2023-11-09 13:10:14.338005$GLGSV,2,1,05,70,49,019,35,71,48,291,48,80,19,089,42,85,56,202,49*6F
###2023-11-09 13:10:14.339622$GLGSV,2,2,05,86,54,306,47,,,,,,,,,,,,*59
###2023-11-09 13:10:14.342205$GAGSV,1,1,04,07,73,259,45,08,48,043,44,13,63,161,45,26,57,310,44*67
###2023-11-09 13:10:14.344789$GBGSV,2,1,06,11,22,180,43,14,65,009,44,24,21,132,45,26,23,080,42*60
###2023-11-09 13:10:14.346727$GBGSV,2,2,06,28,43,286,47,33,59,305,47,,,,,,,,*66
###2023-11-09 13:10:14.348178$GNVTG,77.99,T,,M,4.47,N,8.28,K,A*16
###2023-11-09 13:10:14.427252$GNGGA,131014.60,3611.0497511,N,07544.8822615,W,1,24,0.6,0.397,M,-39.961,M,0.0,*60
###2023-11-09 13:10:14.429844$GPGSV,2,1,07,05,20,090,41,10,19,293,44,13,24,045,41,15,61,037,44*70
###2023-11-09 13:10:14.432085$GPGSV,2,2,07,18,78,277,47,23,50,316,44,24,50,134,46,,,,*4E
###2023-11-09 13:10:14.434652$GLGSV,2,1,05,70,49,019,35,71,48,291,49,80,19,089,42,85,56,202,48*6F
###2023-11-09 13:10:14.436259$GLGSV,2,2,05,86,54,306,47,,,,,,,,,,,,*59
###2023-11-09 13:10:14.438830$GAGSV,1,1,04,07,73,259,45,08,48,043,44,13,63,161,45,26,57,310,44*67
###2023-11-09 13:10:14.441414$GBGSV,2,1,06,11,22,180,42,14,65,009,45,24,21,132,44,26,23,080,42*61
###2023-11-09 13:10:14.443350$GBGSV,2,2,06,28,43,286,47,33,59,305,48,,,,,,,,*69
###2023-11-09 13:10:14.444774$GNVTG,78.25,T,,M,4.61,N,8.53,K,A*16
###2023-11-09 13:10:14.528252$GNGGA,131014.70,3611.0497688,N,07544.8821044,W,1,24,0.6,0.423,M,-39.961,M,0.0,*6B
###2023-11-09 13:10:14.530843$GPGSV,2,1,07,05,20,090,40,10,19,293,45,13,24,045,42,15,61,037,45*72
###2023-11-09 13:10:14.533099$GPGSV,2,2,07,18,78,277,47,23,50,316,45,24,50,134,46,,,,*4F
###2023-11-09 13:10:14.535662$GLGSV,2,1,05,70,49,019,35,71,48,291,49,80,19,089,42,85,56,202,48*6F
###2023-11-09 13:10:14.537282$GLGSV,2,2,05,86,54,306,48,,,,,,,,,,,,*56
###2023-11-09 13:10:14.539862$GAGSV,1,1,04,07,73,259,45,08,48,043,45,13,63,161,44,26,57,310,45*66
###2023-11-09 13:10:14.542450$GBGSV,2,1,06,11,22,180,39,14,65,009,45,24,21,132,43,26,23,080,43*6B
###2023-11-09 13:10:14.544388$GBGSV,2,2,06,28,43,286,48,33,59,305,48,,,,,,,,*66
###2023-11-09 13:10:14.545822$GNVTG,85.56,T,,M,4.68,N,8.68,K,A*11
###2023-11-09 13:10:14.628280$GNGGA,131014.80,3611.0497697,N,07544.8819433,W,1,24,0.6,0.444,M,-39.961,M,0.0,*64
###2023-11-09 13:10:14.630881$GPGSV,2,1,07,05,20,090,40,10,19,293,45,13,24,045,42,15,61,037,45*72
###2023-11-09 13:10:14.633142$GPGSV,2,2,07,18,78,277,47,23,50,316,45,24,50,134,45,,,,*4C
###2023-11-09 13:10:14.635722$GLGSV,2,1,05,70,49,019,35,71,48,291,49,80,19,089,42,85,56,202,47*60
###2023-11-09 13:10:14.637344$GLGSV,2,2,05,86,54,306,48,,,,,,,,,,,,*56
###2023-11-09 13:10:14.639923$GAGSV,1,1,04,07,73,259,45,08,48,043,45,13,63,161,44,26,57,310,45*66
###2023-11-09 13:10:14.642515$GBGSV,2,1,06,11,22,180,39,14,65,009,45,24,21,132,42,26,23,080,43*6A
###2023-11-09 13:10:14.644456$GBGSV,2,2,06,28,43,286,47,33,59,305,48,,,,,,,,*69
###2023-11-09 13:10:14.645890$GNVTG,93.16,T,,M,4.74,N,8.78,K,A*1E
###2023-11-09 13:10:14.728261$GNGGA,131014.90,3611.0497566,N,07544.8817847,W,1,24,0.6,0.446,M,-39.961,M,0.0,*6B
###2023-11-09 13:10:14.730861$GPGSV,2,1,07,05,20,090,41,10,19,293,45,13,24,045,42,15,61,037,45*73
###2023-11-09 13:10:14.733118$GPGSV,2,2,07,18,78,277,47,23,50,316,45,24,50,134,45,,,,*4C
###2023-11-09 13:10:14.735693$GLGSV,2,1,05,70,49,019,35,71,48,291,49,80,19,089,43,85,56,202,48*6E
###2023-11-09 13:10:14.737311$GLGSV,2,2,05,86,54,306,48,,,,,,,,,,,,*56
###2023-11-09 13:10:14.739882$GAGSV,1,1,04,07,73,259,45,08,48,043,45,13,63,161,45,26,57,310,45*67
###2023-11-09 13:10:14.742447$GBGSV,2,1,06,11,22,180,39,14,65,009,45,24,21,132,43,26,23,080,43*6B
###2023-11-09 13:10:14.744378$GBGSV,2,2,06,28,43,286,47,33,59,305,48,,,,,,,,*69
###2023-11-09 13:10:14.745806$GNVTG,98.17,T,,M,4.59,N,8.50,K,A*11
###2023-11-09 13:10:14.831253$GNGGA,131015.00,3611.0497400,N,07544.8816339,W,1,24,0.6,0.441,M,-39.961,M,0.0,*66
###2023-11-09 13:10:14.833876$GPGSV,2,1,07,05,20,090,41,10,19,293,43,13,24,045,41,15,61,037,45*76
###2023-11-09 13:10:14.836144$GPGSV,2,2,07,18,78,277,47,23,50,316,45,24,50,134,46,,,,*4F
###2023-11-09 13:10:14.838750$GLGSV,2,1,05,70,49,019,35,71,48,291,48,80,19,089,43,85,56,202,48*6F
###2023-11-09 13:10:14.840356$GLGSV,2,2,05,86,54,306,48,,,,,,,,,,,,*56
###2023-11-09 13:10:14.842922$GAGSV,1,1,04,07,73,259,45,08,48,043,44,13,63,161,45,26,57,310,45*66
###2023-11-09 13:10:14.845494$GBGSV,2,1,06,11,22,180,42,14,65,009,44,24,21,132,44,26,23,080,42*60
###2023-11-09 13:10:14.847443$GBGSV,2,2,06,28,43,286,47,33,59,305,47,,,,,,,,*66
###2023-11-09 13:10:14.848880$GNVTG,96.89,T,,M,4.32,N,7.99,K,A*1F
###2023-11-09 13:10:14.929252$GNGGA,131015.10,3611.0497355,N,07544.8814905,W,1,24,0.6,0.466,M,-39.961,M,0.0,*62
###2023-11-09 13:10:14.931843$GPGSV,2,1,07,05,20,090,41,10,19,293,43,13,24,045,40,15,61,037,44*76
###2023-11-09 13:10:14.934099$GPGSV,2,2,07,18,78,277,47,23,50,316,44,24,50,134,46,,,,*4E
###2023-11-09 13:10:14.936674$GLGSV,2,1,05,70,49,019,35,71,48,291,48,80,19,089,43,85,56,202,49*6E
###2023-11-09 13:10:14.938300$GLGSV,2,2,05,86,54,306,47,,,,,,,,,,,,*59
###2023-11-09 13:10:14.940869$GAGSV,1,1,04,07,73,259,45,08,48,043,44,13,63,161,45,26,57,310,44*67
###2023-11-09 13:10:14.943437$GBGSV,2,1,06,11,22,180,43,14,65,009,44,24,21,132,44,26,23,080,42*61
###2023-11-09 13:10:14.945380$GBGSV,2,2,06,28,43,286,47,33,59,305,47,,,,,,,,*66
###2023-11-09 13:10:14.946811$GNVTG,86.98,T,,M,4.08,N,7.56,K,A*14
###2023-11-09 13:10:15.030333$GNGGA,131015.20,3611.0497582,N,07544.8813502,W,1,24,0.6,0.534,M,-39.961,M,0.0,*67
###2023-11-09 13:10:15.032894$GPGSV,2,1,07,05,20,090,41,10,19,293,43,13,24,045,39,15,61,037,44*78
###2023-11-09 13:10:15.035124$GPGSV,2,2,07,18,78,277,46,23,50,316,44,24,50,134,45,,,,*4C
###2023-11-09 13:10:15.037701$GLGSV,2,1,05,70,49,019,35,71,48,291,49,80,19,089,43,85,56,202,49*6F
###2023-11-09 13:10:15.039299$GLGSV,2,2,05,86,54,306,47,,,,,,,,,,,,*59
###2023-11-09 13:10:15.041855$GAGSV,1,1,04,07,73,259,45,08,48,043,44,13,63,161,45,26,57,310,44*67
###2023-11-09 13:10:15.044424$GBGSV,2,1,06,11,22,180,43,14,65,009,44,24,21,132,44,26,23,080,42*61
###2023-11-09 13:10:15.046350$GBGSV,2,2,06,28,43,286,47,33,59,305,46,,,,,,,,*67
###2023-11-09 13:10:15.047785$GNVTG,70.83,T,,M,4.33,N,8.03,K,A*10
###2023-11-09 13:10:15.128373$GNGGA,131015.30,3611.0497969,N,07544.8812104,W,1,24,0.6,0.614,M,-39.961,M,0.0,*6D
###2023-11-09 13:10:15.130964$GPGSV,2,1,07,05,20,090,40,10,19,293,44,13,24,045,41,15,61,037,44*71
###2023-11-09 13:10:15.133213$GPGSV,2,2,07,18,78,277,46,23,50,316,44,24,50,134,45,,,,*4C
###2023-11-09 13:10:15.135774$GLGSV,2,1,05,70,49,019,35,71,48,291,48,80,19,089,43,85,56,202,48*6F
###2023-11-09 13:10:15.137394$GLGSV,2,2,05,86,54,306,47,,,,,,,,,,,,*59
###2023-11-09 13:10:15.139962$GAGSV,1,1,04,07,73,259,45,08,48,043,44,13,63,161,44,26,57,310,45*67
###2023-11-09 13:10:15.142540$GBGSV,2,1,06,11,22,180,41,14,65,009,44,24,21,132,43,26,23,080,42*64
###2023-11-09 13:10:15.144472$GBGSV,2,2,06,28,43,286,47,33,59,305,48,,,,,,,,*69
###2023-11-09 13:10:15.145899$GNVTG,71.11,T,,M,4.30,N,7.96,K,A*1A
###2023-11-09 13:10:15.229239$GNGGA,131015.40,3611.0498252,N,07544.8810694,W,1,24,0.6,0.673,M,-39.961,M,0.0,*6B
###2023-11-09 13:10:15.231812$GPGSV,2,1,07,05,20,090,40,10,19,293,44,13,24,045,42,15,61,037,45*73
###2023-11-09 13:10:15.234056$GPGSV,2,2,07,18,78,277,46,23,50,316,45,24,50,134,45,,,,*4D
###2023-11-09 13:10:15.236620$GLGSV,2,1,05,70,49,019,35,71,48,291,49,80,19,089,42,85,56,202,48*6F
###2023-11-09 13:10:15.238550$GLGSV,2,2,05,86,54,306,48,,,,,,,,,,,,*56
###2023-11-09 13:10:15.241134$GAGSV,1,1,04,07,73,259,45,08,48,043,44,13,63,161,44,26,57,310,45*67
###2023-11-09 13:10:15.243700$GBGSV,2,1,06,11,22,180,38,14,65,009,46,24,21,132,42,26,23,080,42*69
###2023-11-09 13:10:15.245637$GBGSV,2,2,06,28,43,286,48,33,59,305,48,,,,,,,,*66
###2023-11-09 13:10:15.247077$GNVTG,80.77,T,,M,4.24,N,7.85,K,A*13
###2023-11-09 13:10:15.328244$GNGGA,131015.50,3611.0498342,N,07544.8809266,W,1,24,0.6,0.693,M,-39.961,M,0.0,*65
###2023-11-09 13:10:15.330838$GPGSV,2,1,07,05,20,090,40,10,19,293,44,13,24,045,43,15,61,037,45*72
###2023-11-09 13:10:15.333089$GPGSV,2,2,07,18,78,277,46,23,50,316,45,24,50,134,45,,,,*4D
###2023-11-09 13:10:15.335655$GLGSV,2,1,05,70,49,019,35,71,48,291,49,80,19,089,42,85,56,202,47*60
