###2023-11-09 13:10:36.448721$GNVTG,312.09,T,,M,4.59,N,8.50,K,A*2F
###2023-11-09 13:10:36.531123$GNGGA,131036.70,3611.0648033,N,07544.8778127,W,1,24,0.6,0.376,M,-39.960,M,0.0,*6C
###2023-11-09 13:10:36.533727$GPGSV,2,1,07,05,20,091,44,10,19,294,40,13,23,045,44,15,60,038,46*79
###2023-11-09 13:10:36.536005$GPGSV,2,2,07,18,78,272,46,23,51,317,46,24,51,133,45,,,,*4D
###2023-11-09 13:10:36.538630$GLGSV,2,1,05,70,49,019,36,71,48,291,49,80,19,089,46,85,56,202,48*68
###2023-11-09 13:10:36.540249$GLGSV,2,2,05,86,54,306,49,,,,,,,,,,,,*57
###2023-11-09 13:10:36.542827$GAGSV,1,1,04,07,73,259,45,08,48,043,45,13,63,161,44,26,57,310,45*66
###2023-11-09 13:10:36.545411$GBGSV,2,1,06,11,22,180,39,14,65,009,45,24,21,132,44,26,23,080,46*69
###2023-11-09 13:10:36.547367$GBGSV,2,2,06,28,43,286,47,33,59,305,47,,,,,,,,*66
###2023-11-09 13:10:36.548837$GNVTG,306.18,T,,M,4.35,N,8.06,K,A*23
###2023-11-09 13:10:36.631608$GNGGA,131036.80,3611.0648745,N,07544.8779359,W,1,24,0.6,0.385,M,-39.960,M,0.0,*63
###2023-11-09 13:10:36.634193$GPGSV,2,1,07,05,20,091,44,10,19,294,40,13,23,045,44,15,60,038,46*79
###2023-11-09 13:10:36.636444$GPGSV,2,2,07,18,78,272,46,23,51,317,46,24,51,133,46,,,,*4E
###2023-11-09 13:10:36.639033$GLGSV,2,1,05,70,49,019,36,71,48,291,49,80,19,089,46,85,56,202,49*69
###2023-11-09 13:10:36.640646$GLGSV,2,2,05,86,54,306,49,,,,,,,,,,,,*57
###2023-11-09 13:10:36.643217$GAGSV,1,1,04,07,73,259,45,08,48,043,45,13,63,161,44,26,57,310,45*66
###2023-11-09 13:10:36.645800$GBGSV,2,1,06,11,22,180,39,14,65,009,45,24,21,132,44,26,23,080,46*69
###2023-11-09 13:10:36.647750$GBGSV,2,2,06,28,43,286,46,33,59,305,47,,,,,,,,*67
###2023-11-09 13:10:36.649213$GNVTG,304.97,T,,M,4.41,N,8.17,K,A*25
###2023-11-09 13:10:36.732017$GNGGA,131036.90,3611.0649456,N,07544.8780641,W,1,24,0.6,0.397,M,-39.960,M,0.0,*6B
###2023-11-09 13:10:36.734632$GPGSV,2,1,07,05,20,091,44,10,19,294,40,13,23,045,44,15,60,038,46*79
###2023-11-09 13:10:36.736919$GPGSV,2,2,07,18,78,272,46,23,51,317,46,24,51,133,46,,,,*4E
###2023-11-09 13:10:36.739516$GLGSV,2,1,05,70,49,019,36,71,48,291,49,80,19,089,46,85,56,202,49*69
###2023-11-09 13:10:36.741134$GLGSV,2,2,05,86,54,306,49,,,,,,,,,,,,*57
###2023-11-09 13:10:36.743720$GAGSV,1,1,04,07,73,259,45,08,48,043,45,13,63,161,44,26,57,310,45*66
###2023-11-09 13:10:36.746308$GBGSV,2,1,06,11,22,180,41,14,65,009,45,24,21,132,44,26,23,080,45*65
###2023-11-09 13:10:36.748301$GBGSV,2,2,06,28,43,286,47,33,59,305,47,,,,,,,,*66
###2023-11-09 13:10:36.749772$GNVTG,304.11,T,,M,4.55,N,8.42,K,A*2E
###2023-11-09 13:10:36.834010$GNGGA,131037.00,3611.0650202,N,07544.8781949,W,1,24,0.6,0.413,M,-39.960,M,0.0,*61
###2023-11-09 13:10:36.836624$GPGSV,2,1,07,05,20,091,44,10,19,294,40,13,23,045,43,15,60,038,46*7E
###2023-11-09 13:10:36.838917$GPGSV,2,2,07,18,78,272,46,23,51,317,46,24,51,133,46,,,,*4E
###2023-11-09 13:10:36.841490$GLGSV,2,1,05,70,49,019,35,71,48,291,49,80,19,089,46,85,56,202,49*6A
###2023-11-09 13:10:36.843098$GLGSV,2,2,05,86,54,306,48,,,,,,,,,,,,*56
###2023-11-09 13:10:36.845660$GAGSV,1,1,04,07,73,259,45,08,48,043,44,13,63,161,45,26,57,310,44*67
###2023-11-09 13:10:36.848260$GBGSV,2,1,06,11,22,180,42,14,65,009,45,24,21,132,44,26,23,080,44*67
###2023-11-09 13:10:36.850199$GBGSV,2,2,06,28,43,286,46,33,59,305,47,,,,,,,,*67
###2023-11-09 13:10:36.851670$GNVTG,306.32,T,,M,4.70,N,8.71,K,A*2A
###2023-11-09 13:10:36.934134$GNGGA,131037.10,3611.0651043,N,07544.8783219,W,1,24,0.6,0.439,M,-39.960,M,0.0,*62
###2023-11-09 13:10:36.936724$GPGSV,2,1,07,05,20,091,44,10,19,294,42,13,23,045,42,15,60,038,46*7D
###2023-11-09 13:10:36.939020$GPGSV,2,2,07,18,78,272,46,23,51,317,46,24,51,133,46,,,,*4E
###2023-11-09 13:10:36.941587$GLGSV,2,1,05,70,49,019,35,71,48,291,49,80,19,089,45,85,56,202,49*69
###2023-11-09 13:10:36.943196$GLGSV,2,2,05,86,54,306,48,,,,,,,,,,,,*56
###2023-11-09 13:10:36.945776$GAGSV,1,1,04,07,73,259,45,08,48,043,44,13,63,161,45,26,57,310,44*67
###2023-11-09 13:10:36.948372$GBGSV,2,1,06,11,22,180,42,14,65,009,45,24,21,132,44,26,23,080,44*67
###2023-11-09 13:10:36.950307$GBGSV,2,2,06,28,43,286,46,33,59,305,47,,,,,,,,*67
###2023-11-09 13:10:36.951763$GNVTG,311.99,T,,M,4.82,N,8.93,K,A*2C
###2023-11-09 13:10:37.034255$GNGGA,131037.20,3611.0652005,N,07544.8784441,W,1,24,0.6,0.460,M,-39.960,M,0.0,*60
###2023-11-09 13:10:37.036857$GPGSV,2,1,07,05,20,091,43,10,19,294,41,13,23,045,42,15,60,038,45*7A
###2023-11-09 13:10:37.039140$GPGSV,2,2,07,18,78,272,46,23,51,317,46,24,51,133,46,,,,*4E
###2023-11-09 13:10:37.041727$GLGSV,2,1,05,70,49,019,35,71,48,291,49,80,19,089,45,85,56,202,49*69
###2023-11-09 13:10:37.043341$GLGSV,2,2,05,86,54,306,48,,,,,,,,,,,,*56
###2023-11-09 13:10:37.045920$GAGSV,1,1,04,07,73,259,45,08,48,043,44,13,63,161,45,26,57,310,44*67
###2023-11-09 13:10:37.048512$GBGSV,2,1,06,11,22,180,42,14,65,009,45,24,21,132,44,26,23,080,44*67
###2023-11-09 13:10:37.050454$GBGSV,2,2,06,28,43,286,46,33,59,305,47,,,,,,,,*67
###2023-11-09 13:10:37.051914$GNVTG,316.38,T,,M,5.05,N,9.36,K,A*20
###2023-11-09 13:10:37.132140$GNGGA,131037.30,3611.0653036,N,07544.8785649,W,1,24,0.6,0.477,M,-39.960,M,0.0,*6D
###2023-11-09 13:10:37.134747$GPGSV,2,1,07,05,20,091,43,10,19,294,40,13,23,045,44,15,60,038,46*7E
###2023-11-09 13:10:37.137038$GPGSV,2,2,07,18,78,272,46,23,51,317,46,24,51,133,46,,,,*4E
###2023-11-09 13:10:37.139638$GLGSV,2,1,05,70,49,019,35,71,48,291,49,80,19,089,45,85,56,202,49*69
###2023-11-09 13:10:37.141249$GLGSV,2,2,05,86,54,306,48,,,,,,,,,,,,*56
###2023-11-09 13:10:37.143823$GAGSV,1,1,04,07,73,259,45,08,48,043,44,13,63,161,45,26,57,310,44*67
###2023-11-09 13:10:37.146410$GBGSV,2,1,06,11,22,180,41,14,65,009,45,24,21,132,44,26,23,080,44*64
###2023-11-09 13:10:37.148361$GBGSV,2,2,06,28,43,286,46,33,59,305,47,,,,,,,,*67
###2023-11-09 13:10:37.149827$GNVTG,316.78,T,,M,5.13,N,9.50,K,A*23
###2023-11-09 13:10:37.230976$GNGGA,131037.40,3611.0654046,N,07544.8786922,W,1,24,0.6,0.475,M,-39.960,M,0.0,*69
###2023-11-09 13:10:37.233547$GPGSV,2,1,07,05,20,091,44,10,19,294,40,13,23,045,45,15,60,038,46*78
###2023-11-09 13:10:37.235796$GPGSV,2,2,07,18,78,272,46,23,51,317,46,24,51,133,46,,,,*4E
###2023-11-09 13:10:37.238372$GLGSV,2,1,05,70,49,019,35,71,48,291,48,80,19,089,45,85,56,202,48*69
###2023-11-09 13:10:37.239975$GLGSV,2,2,05,86,54,306,49,,,,,,,,,,,,*57
###2023-11-09 13:10:37.242540$GAGSV,1,1,04,07,73,259,45,08,48,043,45,13,63,161,44,26,57,310,45*66
###2023-11-09 13:10:37.245106$GBGSV,2,1,06,11,22,180,39,14,65,009,45,24,21,132,43,26,23,080,44*6C
###2023-11-09 13:10:37.247041$GBGSV,2,2,06,28,43,286,46,33,59,305,47,,,,,,,,*67
###2023-11-09 13:10:37.248499$GNVTG,312.39,T,,M,5.19,N,9.61,K,A*2A
###2023-11-09 13:10:37.330995$GNGGA,131037.50,3611.0654930,N,07544.8788278,W,1,24,0.6,0.472,M,-39.960,M,0.0,*6D
###2023-11-09 13:10:37.333601$GPGSV,2,1,07,05,20,091,44,10,19,294,40,13,23,045,45,15,60,038,46*78
###2023-11-09 13:10:37.335851$GPGSV,2,2,07,18,78,272,45,23,51,317,46,24,51,133,45,,,,*4E
###2023-11-09 13:10:37.338438$GLGSV,2,1,05,70,49,019,36,71,48,291,48,80,19,089,46,85,56,202,48*69
###2023-11-09 13:10:37.340048$GLGSV,2,2,05,86,54,306,49,,,,,,,,,,,,*57
###2023-11-09 13:10:37.342605$GAGSV,1,1,04,07,73,259,45,08,48,043,45,13,63,161,44,26,57,310,45*66
###2023-11-09 13:10:37.345188$GBGSV,2,1,06,11,22,180,39,14,65,009,45,24,21,132,43,26,23,080,45*6D
###2023-11-09 13:10:37.347140$GBGSV,2,2,06,28,43,286,46,33,59,305,48,,,,,,,,*68
###2023-11-09 13:10:37.348615$GNVTG,305.30,T,,M,4.92,N,9.11,K,A*20
###2023-11-09 13:10:37.432368$GNGGA,131037.60,3611.0655673,N,07544.8789693,W,1,24,0.6,0.477,M,-39.960,M,0.0,*62
###2023-11-09 13:10:37.434987$GPGSV,2,1,07,05,20,091,44,10,19,294,42,13,23,045,45,15,60,038,46*7A
###2023-11-09 13:10:37.437330$GPGSV,2,2,07,18,78,272,45,23,51,317,46,24,51,133,45,,,,*4E
###2023-11-09 13:10:37.439924$GLGSV,2,1,05,70,49,019,36,71,48,291,49,80,19,089,46,85,56,202,48*68
###2023-11-09 13:10:37.441532$GLGSV,2,2,05,86,54,306,48,,,,,,,,,,,,*56
###2023-11-09 13:10:37.444104$GAGSV,1,1,04,07,73,259,45,08,48,043,45,13,63,161,43,26,57,310,45*61
###2023-11-09 13:10:37.446689$GBGSV,2,1,06,11,22,180,39,14,65,009,45,24,21,132,43,26,23,080,45*6D
###2023-11-09 13:10:37.448638$GBGSV,2,2,06,28,43,286,46,33,59,305,48,,,,,,,,*68
###2023-11-09 13:10:37.450416$GNVTG,300.84,T,,M,4.84,N,8.96,K,A*23
###2023-11-09 13:10:37.530489$GNGGA,131037.70,3611.0656370,N,07544.8791155,W,1,24,0.6,0.493,M,-39.960,M,0.0,*68
###2023-11-09 13:10:37.533082$GPGSV,2,1,07,05,20,091,44,10,19,294,42,13,23,045,44,15,60,038,46*7B
###2023-11-09 13:10:37.535327$GPGSV,2,2,07,18,78,272,46,23,51,317,46,24,51,133,46,,,,*4E
###2023-11-09 13:10:37.537918$GLGSV,2,1,05,70,49,019,36,71,48,291,49,80,19,089,46,85,56,202,48*68
###2023-11-09 13:10:37.539527$GLGSV,2,2,05,86,54,306,48,,,,,,,,,,,,*56
###2023-11-09 13:10:37.542098$GAGSV,1,1,04,07,73,259,45,08,48,043,45,13,63,161,44,26,57,310,45*66
###2023-11-09 13:10:37.544679$GBGSV,2,1,06,11,22,180,41,14,65,009,45,24,21,132,43,26,23,080,44*63
###2023-11-09 13:10:37.546619$GBGSV,2,2,06,28,43,286,46,33,59,305,47,,,,,,,,*67
###2023-11-09 13:10:37.548095$GNVTG,300.14,T,,M,4.98,N,9.22,K,A*29
