###2023-11-09 13:06:58.040862$GLGSV,2,2,05,86,52,309,48,,,,,,,,,,,,*5F
###2023-11-09 13:06:58.043464$GAGSV,1,1,04,07,72,255,45,08,49,042,44,13,64,160,44,26,56,311,45*6C
###2023-11-09 13:06:58.046049$GBGSV,2,1,06,11,24,180,41,14,65,006,45,24,19,133,43,26,23,082,43*65
###2023-11-09 13:06:58.048018$GBGSV,2,2,06,28,43,289,47,33,58,302,47,,,,,,,,*6F
###2023-11-09 13:06:58.049499$GNVTG,319.88,T,,M,1.03,N,1.91,K,A*23
###2023-11-09 13:06:58.131730$GNGGA,130658.30,3611.0480551,N,07544.9777499,W,1,24,0.6,1.165,M,-39.961,M,0.0,*6E
###2023-11-09 13:06:58.134310$GPGSV,2,1,07,05,21,090,42,10,18,292,43,13,24,045,43,15,62,037,45*75
###2023-11-09 13:06:58.136556$GPGSV,2,2,07,18,77,281,47,23,50,315,45,24,49,136,45,,,,*43
###2023-11-09 13:06:58.139152$GLGSV,2,1,05,70,50,016,35,71,48,288,48,80,17,091,44,85,58,203,48*6F
###2023-11-09 13:06:58.140764$GLGSV,2,2,05,86,52,309,48,,,,,,,,,,,,*5F
###2023-11-09 13:06:58.143329$GAGSV,1,1,04,07,72,255,45,08,49,042,44,13,64,160,44,26,56,311,45*6C
###2023-11-09 13:06:58.145909$GBGSV,2,1,06,11,24,180,41,14,65,006,45,24,19,133,43,26,23,082,43*65
###2023-11-09 13:06:58.147858$GBGSV,2,2,06,28,43,289,47,33,58,302,47,,,,,,,,*6F
###2023-11-09 13:06:58.149315$GNVTG,319.88,T,,M,0.91,N,1.69,K,A*2E
###2023-11-09 13:06:58.229725$GNGGA,130658.40,3611.0480719,N,07544.9777742,W,1,24,0.6,1.171,M,-39.961,M,0.0,*67
###2023-11-09 13:06:58.232299$GPGSV,2,1,07,05,21,090,42,10,18,292,43,13,24,045,42,15,62,037,45*74
###2023-11-09 13:06:58.234529$GPGSV,2,2,07,18,77,281,47,23,50,315,45,24,49,136,46,,,,*40
###2023-11-09 13:06:58.237084$GLGSV,2,1,05,70,50,016,35,71,48,288,48,80,17,091,44,85,58,203,48*6F
###2023-11-09 13:06:58.238685$GLGSV,2,2,05,86,52,309,48,,,,,,,,,,,,*5F
###2023-11-09 13:06:58.241245$GAGSV,1,1,04,07,72,255,45,08,49,042,44,13,64,160,44,26,56,311,45*6C
###2023-11-09 13:06:58.243814$GBGSV,2,1,06,11,24,180,42,14,65,006,45,24,19,133,43,26,23,082,43*66
###2023-11-09 13:06:58.245732$GBGSV,2,2,06,28,43,289,47,33,58,302,47,,,,,,,,*6F
###2023-11-09 13:06:58.247196$GNVTG,319.88,T,,M,0.95,N,1.76,K,A*24
###2023-11-09 13:06:58.329511$GNGGA,130658.50,3611.0480930,N,07544.9777965,W,1,24,0.6,1.176,M,-39.961,M,0.0,*6F
###2023-11-09 13:06:58.332098$GPGSV,2,1,07,05,21,090,42,10,18,292,43,13,24,045,41,15,62,037,45*77
###2023-11-09 13:06:58.334349$GPGSV,2,2,07,18,77,281,47,23,50,315,45,24,49,136,46,,,,*40
###2023-11-09 13:06:58.336929$GLGSV,2,1,05,70,50,016,35,71,48,288,48,80,17,091,43,85,58,203,48*68
###2023-11-09 13:06:58.338533$GLGSV,2,2,05,86,52,309,48,,,,,,,,,,,,*5F
###2023-11-09 13:06:58.341086$GAGSV,1,1,04,07,72,255,45,08,49,042,44,13,64,160,44,26,56,311,45*6C
###2023-11-09 13:06:58.343661$GBGSV,2,1,06,11,24,180,42,14,65,006,45,24,19,133,43,26,23,082,43*66
###2023-11-09 13:06:58.345587$GBGSV,2,2,06,28,43,289,47,33,58,302,47,,,,,,,,*6F
###2023-11-09 13:06:58.347074$GNVTG,327.04,T,,M,1.07,N,1.98,K,A*27
###2023-11-09 13:06:58.430136$GNGGA,130658.60,3611.0481220,N,07544.9778154,W,1,24,0.6,1.178,M,-39.961,M,0.0,*6C
###2023-11-09 13:06:58.432756$GPGSV,2,1,07,05,21,090,42,10,18,292,43,13,24,045,41,15,62,037,45*77
###2023-11-09 13:06:58.435024$GPGSV,2,2,07,18,77,281,47,23,50,315,45,24,49,136,46,,,,*40
###2023-11-09 13:06:58.437637$GLGSV,2,1,05,70,50,016,35,71,48,288,48,80,17,091,43,85,58,203,48*68
###2023-11-09 13:06:58.439250$GLGSV,2,2,05,86,52,309,48,,,,,,,,,,,,*5F
###2023-11-09 13:06:58.441820$GAGSV,1,1,04,07,72,255,45,08,49,042,44,13,64,160,45,26,56,311,45*6D
###2023-11-09 13:06:58.444392$GBGSV,2,1,06,11,24,180,42,14,65,006,45,24,19,133,44,26,23,082,42*60
###2023-11-09 13:06:58.446320$GBGSV,2,2,06,28,43,289,47,33,58,302,47,,,,,,,,*6F
###2023-11-09 13:06:58.447798$GNVTG,337.88,T,,M,1.30,N,2.41,K,A*21
###2023-11-09 13:06:58.529492$GNGGA,130658.70,3611.0481575,N,07544.9778321,W,1,24,0.6,1.181,M,-39.961,M,0.0,*6C
###2023-11-09 13:06:58.532069$GPGSV,2,1,07,05,21,090,42,10,18,292,43,13,24,045,41,15,62,037,45*77
###2023-11-09 13:06:58.534304$GPGSV,2,2,07,18,77,281,47,23,50,315,44,24,49,136,46,,,,*41
###2023-11-09 13:06:58.536864$GLGSV,2,1,05,70,50,016,35,71,48,288,48,80,17,091,43,85,58,203,48*68
###2023-11-09 13:06:58.538507$GLGSV,2,2,05,86,52,309,48,,,,,,,,,,,,*5F
###2023-11-09 13:06:58.541062$GAGSV,1,1,04,07,72,255,45,08,49,042,44,13,64,160,45,26,56,311,45*6D
###2023-11-09 13:06:58.543624$GBGSV,2,1,06,11,24,180,42,14,65,006,45,24,19,133,44,26,23,082,42*60
###2023-11-09 13:06:58.545543$GBGSV,2,2,06,28,43,289,47,33,58,302,47,,,,,,,,*6F
###2023-11-09 13:06:58.547011$GNVTG,341.76,T,,M,1.46,N,2.70,K,A*22
###2023-11-09 13:06:58.628523$GNGGA,130658.80,3611.0481959,N,07544.9778476,W,1,24,0.6,1.177,M,-39.961,M,0.0,*6D
###2023-11-09 13:06:58.631121$GPGSV,2,1,07,05,21,090,42,10,18,292,43,13,24,045,41,15,62,037,46*74
###2023-11-09 13:06:58.633379$GPGSV,2,2,07,18,77,281,47,23,50,315,44,24,49,136,46,,,,*41
###2023-11-09 13:06:58.635959$GLGSV,2,1,05,70,50,016,35,71,48,288,48,80,17,091,43,85,58,203,48*68
###2023-11-09 13:06:58.637583$GLGSV,2,2,05,86,52,309,47,,,,,,,,,,,,*50
###2023-11-09 13:06:58.640153$GAGSV,1,1,04,07,72,255,45,08,49,042,44,13,64,160,45,26,56,311,45*6D
###2023-11-09 13:06:58.642741$GBGSV,2,1,06,11,24,180,42,14,65,006,45,24,19,133,44,26,23,082,42*60
###2023-11-09 13:06:58.644678$GBGSV,2,2,06,28,43,289,47,33,58,302,47,,,,,,,,*6F
###2023-11-09 13:06:58.646143$GNVTG,343.50,T,,M,1.48,N,2.74,K,A*2E
###2023-11-09 13:06:58.730626$GNGGA,130658.90,3611.0482315,N,07544.9778625,W,1,24,0.6,1.167,M,-39.961,M,0.0,*68
###2023-11-09 13:06:58.733216$GPGSV,2,1,07,05,21,090,42,10,18,292,43,13,24,045,41,15,62,037,46*74
###2023-11-09 13:06:58.735475$GPGSV,2,2,07,18,77,281,47,23,50,315,45,24,49,136,46,,,,*40
###2023-11-09 13:06:58.738078$GLGSV,2,1,05,70,50,016,35,71,48,288,48,80,17,091,44,85,58,203,48*6F
###2023-11-09 13:06:58.739688$GLGSV,2,2,05,86,52,309,48,,,,,,,,,,,,*5F
###2023-11-09 13:06:58.742264$GAGSV,1,1,04,07,72,255,45,08,49,042,44,13,64,160,44,26,56,311,45*6C
###2023-11-09 13:06:58.744844$GBGSV,2,1,06,11,24,180,42,14,65,006,46,24,19,133,44,26,23,082,42*63
###2023-11-09 13:06:58.746785$GBGSV,2,2,06,28,43,289,47,33,58,302,47,,,,,,,,*6F
###2023-11-09 13:06:58.748260$GNVTG,340.44,T,,M,1.26,N,2.34,K,A*24
###2023-11-09 13:06:58.831489$GNGGA,130659.00,3611.0482612,N,07544.9778775,W,1,24,0.6,1.153,M,-39.961,M,0.0,*61
###2023-11-09 13:06:58.834072$GPGSV,2,1,07,05,21,090,42,10,18,292,43,13,24,045,41,15,62,037,46*74
###2023-11-09 13:06:58.836314$GPGSV,2,2,07,18,77,281,47,23,50,315,45,24,49,136,46,,,,*40
###2023-11-09 13:06:58.838888$GLGSV,2,1,05,70,50,016,35,71,48,288,48,80,17,091,44,85,58,203,48*6F
###2023-11-09 13:06:58.840488$GLGSV,2,2,05,86,52,309,48,,,,,,,,,,,,*5F
###2023-11-09 13:06:58.843043$GAGSV,1,1,04,07,72,255,45,08,49,042,44,13,64,160,44,26,56,311,45*6C
###2023-11-09 13:06:58.845611$GBGSV,2,1,06,11,24,180,41,14,65,006,46,24,19,133,43,26,23,082,42*67
###2023-11-09 13:06:58.847545$GBGSV,2,2,06,28,43,289,47,33,58,302,47,,,,,,,,*6F
###2023-11-09 13:06:58.849002$GNVTG,336.05,T,,M,1.07,N,1.98,K,A*26
###2023-11-09 13:06:58.931514$GNGGA,130659.10,3611.0482857,N,07544.9778908,W,1,24,0.6,1.141,M,-39.961,M,0.0,*68
###2023-11-09 13:06:58.934127$GPGSV,2,1,07,05,21,090,42,10,18,292,44,13,24,045,41,15,62,037,46*73
###2023-11-09 13:06:58.936390$GPGSV,2,2,07,18,77,281,47,23,50,315,45,24,49,136,45,,,,*43
###2023-11-09 13:06:58.938996$GLGSV,2,1,05,70,50,016,35,71,48,288,48,80,17,091,44,85,58,203,48*6F
###2023-11-09 13:06:58.940615$GLGSV,2,2,05,86,52,309,48,,,,,,,,,,,,*5F
###2023-11-09 13:06:58.943196$GAGSV,1,1,04,07,72,255,45,08,49,042,44,13,64,160,44,26,56,311,45*6C
###2023-11-09 13:06:58.945783$GBGSV,2,1,06,11,24,180,41,14,65,006,46,24,19,133,43,26,23,082,42*67
###2023-11-09 13:06:58.947733$GBGSV,2,2,06,28,43,289,47,33,58,302,47,,,,,,,,*6F
###2023-11-09 13:06:58.949210$GNVTG,336.05,T,,M,0.87,N,1.62,K,A*2A
###2023-11-09 13:06:59.032742$GNGGA,130659.20,3611.0483091,N,07544.9779008,W,1,24,0.6,1.127,M,-39.961,M,0.0,*60
###2023-11-09 13:06:59.035327$GPGSV,2,1,07,05,21,090,42,10,18,292,44,13,24,045,41,15,62,037,46*73
###2023-11-09 13:06:59.037606$GPGSV,2,2,07,18,77,281,47,23,50,315,45,24,49,136,45,,,,*43
###2023-11-09 13:06:59.040182$GLGSV,2,1,05,70,50,016,35,71,48,288,48,80,17,091,44,85,58,203,48*6F
###2023-11-09 13:06:59.042094$GLGSV,2,2,05,86,52,309,48,,,,,,,,,,,,*5F
###2023-11-09 13:06:59.044665$GAGSV,1,1,04,07,72,255,45,08,49,042,44,13,64,160,44,26,56,311,45*6C
###2023-11-09 13:06:59.047255$GBGSV,2,1,06,11,24,180,41,14,65,006,46,24,19,133,43,26,23,082,42*67
###2023-11-09 13:06:59.049196$GBGSV,2,2,06,28,43,289,47,33,58,302,47,,,,,,,,*6F
###2023-11-09 13:06:59.050665$GNVTG,336.05,T,,M,0.93,N,1.73,K,A*2F
###2023-11-09 13:06:59.129499$GNGGA,130659.30,3611.0483347,N,07544.9779075,W,1,24,0.6,1.113,M,-39.961,M,0.0,*64
###2023-11-09 13:06:59.132092$GPGSV,2,1,07,05,21,090,42,10,18,292,44,13,24,045,41,15,62,037,46*73
###2023-11-09 13:06:59.134348$GPGSV,2,2,07,18,77,281,47,23,50,315,45,24,49,136,46,,,,*40
###2023-11-09 13:06:59.136918$GLGSV,2,1,05,70,50,016,35,71,48,288,48,80,17,091,43,85,58,203,48*68
###2023-11-09 13:06:59.138529$GLGSV,2,2,05,86,52,309,48,,,,,,,,,,,,*5F
