###2023-11-09 13:08:42.735656$GLGSV,2,1,05,70,50,017,35,71,48,290,49,80,18,090,42,85,57,203,49*60
###2023-11-09 13:08:42.737317$GLGSV,2,2,05,86,53,308,47,,,,,,,,,,,,*50
###2023-11-09 13:08:42.739900$GAGSV,1,1,04,07,72,258,45,08,48,043,44,13,64,160,45,26,57,310,45*60
###2023-11-09 13:08:42.742492$GBGSV,2,1,06,11,23,180,42,14,65,008,45,24,20,132,44,26,23,081,42*61
###2023-11-09 13:08:42.744431$GBGSV,2,2,06,28,43,287,47,33,59,304,47,,,,,,,,*66
###2023-11-09 13:08:42.745867$GNVTG,91.03,T,,M,5.11,N,9.47,K,A*17
###2023-11-09 13:08:42.833140$GNGGA,130843.00,3611.0194800,N,07545.0086562,W,1,24,0.6,0.761,M,-39.962,M,0.0,*64
###2023-11-09 13:08:42.835740$GPGSV,2,1,07,05,20,090,41,10,19,293,44,13,24,045,42,15,61,037,45*72
###2023-11-09 13:08:42.838024$GPGSV,2,2,07,18,78,277,47,23,50,316,45,24,50,135,46,,,,*4E
###2023-11-09 13:08:42.840607$GLGSV,2,1,05,70,50,017,35,71,48,290,49,80,18,090,42,85,57,203,49*60
###2023-11-09 13:08:42.842213$GLGSV,2,2,05,86,53,308,47,,,,,,,,,,,,*50
###2023-11-09 13:08:42.844786$GAGSV,1,1,04,07,72,258,45,08,48,043,45,13,64,160,45,26,57,310,45*61
###2023-11-09 13:08:42.847375$GBGSV,2,1,06,11,23,180,42,14,65,008,45,24,20,132,44,26,23,081,42*61
###2023-11-09 13:08:42.849314$GBGSV,2,2,06,28,43,287,47,33,59,304,47,,,,,,,,*66
###2023-11-09 13:08:42.850752$GNVTG,89.88,T,,M,5.21,N,9.65,K,A*1E
###2023-11-09 13:08:42.928875$GNGGA,130843.10,3611.0194768,N,07545.0084758,W,1,24,0.6,0.750,M,-39.962,M,0.0,*6F
###2023-11-09 13:08:42.931462$GPGSV,2,1,07,05,20,090,41,10,19,293,44,13,24,045,42,15,61,037,45*72
###2023-11-09 13:08:42.933713$GPGSV,2,2,07,18,78,277,47,23,50,316,45,24,50,135,46,,,,*4E
###2023-11-09 13:08:42.936295$GLGSV,2,1,05,70,50,017,35,71,48,290,49,80,18,090,42,85,57,203,48*61
###2023-11-09 13:08:42.937919$GLGSV,2,2,05,86,53,308,47,,,,,,,,,,,,*50
###2023-11-09 13:08:42.940490$GAGSV,1,1,04,07,72,258,45,08,48,043,45,13,64,160,45,26,57,310,45*61
###2023-11-09 13:08:42.943063$GBGSV,2,1,06,11,23,180,41,14,65,008,45,24,20,132,44,26,23,081,43*63
###2023-11-09 13:08:42.944991$GBGSV,2,2,06,28,43,287,47,33,59,304,47,,,,,,,,*66
###2023-11-09 13:08:42.946419$GNVTG,92.59,T,,M,5.35,N,9.90,K,A*17
###2023-11-09 13:08:43.029901$GNGGA,130843.20,3611.0194677,N,07545.0082933,W,1,24,0.6,0.735,M,-39.962,M,0.0,*65
###2023-11-09 13:08:43.032491$GPGSV,2,1,07,05,20,090,41,10,19,293,44,13,24,045,42,15,61,037,45*72
###2023-11-09 13:08:43.034744$GPGSV,2,2,07,18,78,277,47,23,50,316,45,24,50,135,46,,,,*4E
###2023-11-09 13:08:43.037318$GLGSV,2,1,05,70,50,017,35,71,48,290,48,80,18,090,42,85,57,203,48*60
###2023-11-09 13:08:43.038926$GLGSV,2,2,05,86,53,308,47,,,,,,,,,,,,*50
###2023-11-09 13:08:43.041486$GAGSV,1,1,04,07,72,258,45,08,48,043,45,13,64,160,45,26,57,310,45*61
###2023-11-09 13:08:43.044041$GBGSV,2,1,06,11,23,180,41,14,65,008,45,24,20,132,44,26,23,081,43*63
###2023-11-09 13:08:43.045970$GBGSV,2,2,06,28,43,287,47,33,59,304,47,,,,,,,,*66
###2023-11-09 13:08:43.047412$GNVTG,94.58,T,,M,5.37,N,9.94,K,A*16
###2023-11-09 13:08:43.128899$GNGGA,130843.30,3611.0194558,N,07545.0081091,W,1,24,0.6,0.724,M,-39.962,M,0.0,*68
###2023-11-09 13:08:43.131502$GPGSV,2,1,07,05,20,090,41,10,19,293,44,13,24,045,42,15,61,037,45*72
###2023-11-09 13:08:43.133764$GPGSV,2,2,07,18,78,277,47,23,50,316,45,24,50,135,46,,,,*4E
###2023-11-09 13:08:43.136336$GLGSV,2,1,05,70,50,017,35,71,48,290,48,80,18,090,42,85,57,203,48*60
###2023-11-09 13:08:43.137968$GLGSV,2,2,05,86,53,308,47,,,,,,,,,,,,*50
###2023-11-09 13:08:43.140540$GAGSV,1,1,04,07,72,258,45,08,48,043,45,13,64,160,45,26,57,310,45*61
###2023-11-09 13:08:43.143126$GBGSV,2,1,06,11,23,180,41,14,65,008,45,24,20,132,44,26,23,081,43*63
###2023-11-09 13:08:43.145057$GBGSV,2,2,06,28,43,287,47,33,59,304,47,,,,,,,,*66
###2023-11-09 13:08:43.146519$GNVTG,94.46,T,,M,5.44,N,10.08,K,A*20
###2023-11-09 13:08:43.227872$GNGGA,130843.40,3611.0194450,N,07545.0079222,W,1,24,0.6,0.714,M,-39.962,M,0.0,*68
###2023-11-09 13:08:43.230450$GPGSV,2,1,07,05,20,090,41,10,19,293,43,13,24,045,42,15,61,037,45*75
###2023-11-09 13:08:43.232694$GPGSV,2,2,07,18,78,277,47,23,50,316,45,24,50,135,46,,,,*4E
###2023-11-09 13:08:43.235260$GLGSV,2,1,05,70,50,017,35,71,48,290,48,80,18,090,42,85,57,203,49*61
###2023-11-09 13:08:43.236872$GLGSV,2,2,05,86,53,308,47,,,,,,,,,,,,*50
###2023-11-09 13:08:43.239436$GAGSV,1,1,04,07,72,258,45,08,48,043,45,13,64,160,45,26,57,310,45*61
###2023-11-09 13:08:43.241998$GBGSV,2,1,06,11,23,180,42,14,65,008,45,24,20,132,43,26,23,081,43*67
###2023-11-09 13:08:43.243921$GBGSV,2,2,06,28,43,287,47,33,59,304,47,,,,,,,,*66
###2023-11-09 13:08:43.245381$GNVTG,93.83,T,,M,5.52,N,10.22,K,A*21
###2023-11-09 13:08:43.328864$GNGGA,130843.50,3611.0194384,N,07545.0077321,W,1,24,0.6,0.706,M,-39.962,M,0.0,*68
###2023-11-09 13:08:43.331453$GPGSV,2,1,07,05,20,090,40,10,19,293,43,13,24,045,40,15,61,037,45*76
###2023-11-09 13:08:43.333703$GPGSV,2,2,07,18,78,277,47,23,50,316,45,24,50,135,46,,,,*4E
###2023-11-09 13:08:43.336279$GLGSV,2,1,05,70,50,017,35,71,48,290,48,80,18,090,41,85,57,203,49*62
###2023-11-09 13:08:43.337894$GLGSV,2,2,05,86,53,308,47,,,,,,,,,,,,*50
###2023-11-09 13:08:43.340475$GAGSV,1,1,04,07,72,258,45,08,48,043,45,13,64,160,45,26,57,310,45*61
###2023-11-09 13:08:43.343050$GBGSV,2,1,06,11,23,180,42,14,65,008,45,24,20,132,43,26,23,081,43*67
###2023-11-09 13:08:43.344989$GBGSV,2,2,06,28,43,287,47,33,59,304,47,,,,,,,,*66
###2023-11-09 13:08:43.346447$GNVTG,91.24,T,,M,5.62,N,10.40,K,A*29
###2023-11-09 13:08:43.428905$GNGGA,130843.60,3611.0194372,N,07545.0075377,W,1,24,0.6,0.699,M,-39.962,M,0.0,*64
###2023-11-09 13:08:43.431503$GPGSV,2,1,07,05,20,090,40,10,19,293,43,13,24,045,40,15,61,037,45*76
###2023-11-09 13:08:43.433764$GPGSV,2,2,07,18,78,277,47,23,50,316,45,24,50,135,46,,,,*4E
###2023-11-09 13:08:43.436343$GLGSV,2,1,05,70,50,017,35,71,48,290,48,80,18,090,41,85,57,203,49*62
###2023-11-09 13:08:43.437966$GLGSV,2,2,05,86,53,308,47,,,,,,,,,,,,*50
###2023-11-09 13:08:43.440541$GAGSV,1,1,04,07,72,258,45,08,48,043,45,13,64,160,45,26,57,310,45*61
###2023-11-09 13:08:43.443126$GBGSV,2,1,06,11,23,180,42,14,65,008,45,24,20,132,43,26,23,081,43*67
###2023-11-09 13:08:43.445065$GBGSV,2,2,06,28,43,287,46,33,59,304,47,,,,,,,,*67
###2023-11-09 13:08:43.446527$GNVTG,89.78,T,,M,5.75,N,10.66,K,A*2B
###2023-11-09 13:08:43.528855$GNGGA,130843.70,3611.0194390,N,07545.0073427,W,1,24,0.6,0.682,M,-39.962,M,0.0,*67
###2023-11-09 13:08:43.531435$GPGSV,2,1,07,05,20,090,40,10,19,293,43,13,24,045,40,15,61,037,45*76
###2023-11-09 13:08:43.533684$GPGSV,2,2,07,18,78,277,47,23,50,316,45,24,50,135,46,,,,*4E
###2023-11-09 13:08:43.536254$GLGSV,2,1,05,70,50,017,35,71,48,290,48,80,18,090,41,85,57,203,49*62
###2023-11-09 13:08:43.537872$GLGSV,2,2,05,86,53,308,47,,,,,,,,,,,,*50
###2023-11-09 13:08:43.540443$GAGSV,1,1,04,07,72,258,45,08,48,043,45,13,64,160,45,26,57,310,45*61
###2023-11-09 13:08:43.543008$GBGSV,2,1,06,11,23,180,42,14,65,008,45,24,20,132,43,26,23,081,43*67
###2023-11-09 13:08:43.544940$GBGSV,2,2,06,28,43,287,46,33,59,304,47,,,,,,,,*67
###2023-11-09 13:08:43.546403$GNVTG,89.23,T,,M,5.68,N,10.51,K,A*2D
###2023-11-09 13:08:43.627916$GNGGA,130843.80,3611.0194409,N,07545.0071492,W,1,24,0.6,0.670,M,-39.962,M,0.0,*6E
###2023-11-09 13:08:43.630526$GPGSV,2,1,07,05,20,090,40,10,19,293,43,13,24,045,40,15,61,037,45*76
###2023-11-09 13:08:43.632784$GPGSV,2,2,07,18,78,277,47,23,50,316,45,24,50,135,46,,,,*4E
###2023-11-09 13:08:43.635370$GLGSV,2,1,05,70,50,017,35,71,48,290,48,80,18,090,42,85,57,203,48*60
###2023-11-09 13:08:43.636991$GLGSV,2,2,05,86,53,308,47,,,,,,,,,,,,*50
###2023-11-09 13:08:43.639569$GAGSV,1,1,04,07,72,258,45,08,48,043,45,13,64,160,45,26,57,310,45*61
###2023-11-09 13:08:43.642161$GBGSV,2,1,06,11,23,180,42,14,65,008,45,24,20,132,43,26,23,081,42*66
###2023-11-09 13:08:43.644103$GBGSV,2,2,06,28,43,287,46,33,59,304,47,,,,,,,,*67
###2023-11-09 13:08:43.645562$GNVTG,89.64,T,,M,5.66,N,10.48,K,A*28
###2023-11-09 13:08:43.728883$GNGGA,130843.90,3611.0194405,N,07545.0069550,W,1,24,0.6,0.676,M,-39.962,M,0.0,*63
###2023-11-09 13:08:43.731475$GPGSV,2,1,07,05,20,090,40,10,19,293,43,13,24,045,40,15,61,037,45*76
###2023-11-09 13:08:43.733732$GPGSV,2,2,07,18,78,277,47,23,50,316,45,24,50,135,46,,,,*4E
###2023-11-09 13:08:43.736604$GLGSV,2,1,05,70,50,017,35,71,48,290,49,80,18,090,42,85,57,203,48*61
###2023-11-09 13:08:43.738247$GLGSV,2,2,05,86,53,308,48,,,,,,,,,,,,*5F
###2023-11-09 13:08:43.740822$GAGSV,1,1,04,07,72,258,45,08,48,043,45,13,64,160,45,26,57,310,45*61
###2023-11-09 13:08:43.743404$GBGSV,2,1,06,11,23,180,42,14,65,008,45,24,20,132,43,26,23,081,42*66
###2023-11-09 13:08:43.745344$GBGSV,2,2,06,28,43,287,46,33,59,304,47,,,,,,,,*67
###2023-11-09 13:08:43.746809$GNVTG,90.74,T,,M,5.71,N,10.58,K,A*26
###2023-11-09 13:08:43.831861$GNGGA,130844.00,3611.0194385,N,07545.0067606,W,1,24,0.6,0.689,M,-39.962,M,0.0,*6C
###2023-11-09 13:08:43.834443$GPGSV,2,1,07,05,20,090,40,10,19,293,44,13,24,045,40,15,61,037,45*71
###2023-11-09 13:08:43.836685$GPGSV,2,2,07,18,78,277,47,23,50,316,45,24,50,135,46,,,,*4E
###2023-11-09 13:08:43.839269$GLGSV,2,1,05,70,50,017,35,71,48,290,48,80,18,090,42,85,57,203,48*60
