###2023-11-09 13:08:36.046689$GBGSV,2,1,06,11,23,180,42,14,65,008,45,24,20,132,41,26,23,081,40*66
###2023-11-09 13:08:36.048678$GBGSV,2,2,06,28,43,287,48,33,59,304,48,,,,,,,,*66
###2023-11-09 13:08:36.050161$GNVTG,132.98,T,,M,2.92,N,5.40,K,A*2A
###2023-11-09 13:08:36.130129$GNGGA,130836.30,3611.0208473,N,07545.0184453,W,1,24,0.6,1.204,M,-39.962,M,0.0,*6C
###2023-11-09 13:08:36.132736$GPGSV,2,1,07,05,20,090,39,10,19,293,42,13,24,045,42,15,61,037,46*78
###2023-11-09 13:08:36.134987$GPGSV,2,2,07,18,78,277,47,23,50,316,46,24,49,136,45,,,,*45
###2023-11-09 13:08:36.137588$GLGSV,2,1,05,70,50,017,36,71,48,290,49,80,18,090,41,85,57,203,48*61
###2023-11-09 13:08:36.139214$GLGSV,2,2,05,86,53,308,48,,,,,,,,,,,,*5F
###2023-11-09 13:08:36.141792$GAGSV,1,1,04,07,72,258,45,08,48,043,44,13,64,160,45,26,57,310,45*60
###2023-11-09 13:08:36.144364$GBGSV,2,1,06,11,23,180,42,14,65,008,45,24,20,132,42,26,23,081,40*65
###2023-11-09 13:08:36.146304$GBGSV,2,2,06,28,43,287,47,33,59,304,48,,,,,,,,*69
###2023-11-09 13:08:36.147798$GNVTG,134.18,T,,M,3.03,N,5.62,K,A*2D
###2023-11-09 13:08:36.231236$GNGGA,130836.40,3611.0207872,N,07545.0183697,W,1,24,0.6,1.192,M,-39.962,M,0.0,*68
###2023-11-09 13:08:36.233822$GPGSV,2,1,07,05,20,090,39,10,19,293,42,13,24,045,42,15,61,037,46*78
###2023-11-09 13:08:36.236092$GPGSV,2,2,07,18,78,277,47,23,50,316,46,24,49,136,46,,,,*46
###2023-11-09 13:08:36.238690$GLGSV,2,1,05,70,50,017,36,71,48,290,49,80,18,090,42,85,57,203,48*62
###2023-11-09 13:08:36.240294$GLGSV,2,2,05,86,53,308,48,,,,,,,,,,,,*5F
###2023-11-09 13:08:36.242869$GAGSV,1,1,04,07,72,258,45,08,48,043,44,13,64,160,45,26,57,310,45*60
###2023-11-09 13:08:36.245441$GBGSV,2,1,06,11,23,180,41,14,65,008,46,24,20,132,42,26,23,081,41*64
###2023-11-09 13:08:36.247387$GBGSV,2,2,06,28,43,287,47,33,59,304,48,,,,,,,,*69
###2023-11-09 13:08:36.248860$GNVTG,135.13,T,,M,3.11,N,5.76,K,A*21
###2023-11-09 13:08:36.330101$GNGGA,130836.50,3611.0207255,N,07545.0182932,W,1,24,0.6,1.141,M,-39.962,M,0.0,*69
###2023-11-09 13:08:36.332670$GPGSV,2,1,07,05,20,090,39,10,19,293,43,13,24,045,42,15,61,037,46*79
###2023-11-09 13:08:36.334913$GPGSV,2,2,07,18,78,277,47,23,50,316,46,24,49,136,46,,,,*46
###2023-11-09 13:08:36.337484$GLGSV,2,1,05,70,50,017,36,71,48,290,49,80,18,090,42,85,57,203,48*62
###2023-11-09 13:08:36.339079$GLGSV,2,2,05,86,53,308,48,,,,,,,,,,,,*5F
###2023-11-09 13:08:36.341627$GAGSV,1,1,04,07,72,258,45,08,48,043,44,13,64,160,45,26,57,310,45*60
###2023-11-09 13:08:36.344189$GBGSV,2,1,06,11,23,180,41,14,65,008,46,24,20,132,42,26,23,081,42*67
###2023-11-09 13:08:36.346110$GBGSV,2,2,06,28,43,287,47,33,59,304,48,,,,,,,,*69
###2023-11-09 13:08:36.347582$GNVTG,135.04,T,,M,3.17,N,5.87,K,A*2F
###2023-11-09 13:08:36.430140$GNGGA,130836.60,3611.0206631,N,07545.0182134,W,1,24,0.6,1.069,M,-39.962,M,0.0,*68
###2023-11-09 13:08:36.432753$GPGSV,2,1,07,05,20,090,40,10,19,293,43,13,24,045,42,15,61,037,46*77
###2023-11-09 13:08:36.435011$GPGSV,2,2,07,18,78,277,46,23,50,316,46,24,49,136,46,,,,*47
###2023-11-09 13:08:36.437621$GLGSV,2,1,05,70,50,017,36,71,48,290,49,80,18,090,42,85,57,203,48*62
###2023-11-09 13:08:36.439243$GLGSV,2,2,05,86,53,308,47,,,,,,,,,,,,*50
###2023-11-09 13:08:36.441822$GAGSV,1,1,04,07,72,258,45,08,48,043,44,13,64,160,45,26,57,310,45*60
###2023-11-09 13:08:36.444413$GBGSV,2,1,06,11,23,180,41,14,65,008,46,24,20,132,43,26,23,081,42*66
###2023-11-09 13:08:36.446364$GBGSV,2,2,06,28,43,287,46,33,59,304,48,,,,,,,,*68
###2023-11-09 13:08:36.447850$GNVTG,133.48,T,,M,3.27,N,6.05,K,A*2B
###2023-11-09 13:08:36.530016$GNGGA,130836.70,3611.0205986,N,07545.0181277,W,1,24,0.6,0.995,M,-39.962,M,0.0,*65
###2023-11-09 13:08:36.532623$GPGSV,2,1,07,05,20,090,40,10,19,293,44,13,24,045,42,15,61,037,46*70
###2023-11-09 13:08:36.534882$GPGSV,2,2,07,18,78,277,46,23,50,316,45,24,49,136,46,,,,*44
###2023-11-09 13:08:36.537479$GLGSV,2,1,05,70,50,017,36,71,48,290,48,80,18,090,42,85,57,203,48*63
###2023-11-09 13:08:36.539083$GLGSV,2,2,05,86,53,308,47,,,,,,,,,,,,*50
###2023-11-09 13:08:36.541652$GAGSV,1,1,04,07,72,258,45,08,48,043,44,13,64,160,45,26,57,310,45*60
###2023-11-09 13:08:36.544226$GBGSV,2,1,06,11,23,180,41,14,65,008,46,24,20,132,43,26,23,081,42*66
###2023-11-09 13:08:36.546169$GBGSV,2,2,06,28,43,287,46,33,59,304,47,,,,,,,,*67
###2023-11-09 13:08:36.547654$GNVTG,132.89,T,,M,3.52,N,6.52,K,A*27
###2023-11-09 13:08:36.630272$GNGGA,130836.80,3611.0205340,N,07545.0180366,W,1,24,0.6,0.922,M,-39.962,M,0.0,*66
###2023-11-09 13:08:36.632871$GPGSV,2,1,07,05,20,090,40,10,19,293,44,13,24,045,42,15,61,037,46*70
###2023-11-09 13:08:36.635116$GPGSV,2,2,07,18,78,277,46,23,50,316,45,24,49,136,46,,,,*44
###2023-11-09 13:08:36.637698$GLGSV,2,1,05,70,50,017,36,71,48,290,48,80,18,090,42,85,57,203,48*63
###2023-11-09 13:08:36.639316$GLGSV,2,2,05,86,53,308,47,,,,,,,,,,,,*50
###2023-11-09 13:08:36.641890$GAGSV,1,1,04,07,72,258,45,08,48,043,44,13,64,160,45,26,57,310,45*60
###2023-11-09 13:08:36.644477$GBGSV,2,1,06,11,23,180,41,14,65,008,46,24,20,132,43,26,23,081,42*66
###2023-11-09 13:08:36.646428$GBGSV,2,2,06,28,43,287,46,33,59,304,47,,,,,,,,*67
###2023-11-09 13:08:36.647904$GNVTG,129.93,T,,M,3.52,N,6.52,K,A*26
###2023-11-09 13:08:36.735327$GNGGA,130836.90,3611.0204717,N,07545.0179411,W,1,24,0.6,0.868,M,-39.962,M,0.0,*6E
###2023-11-09 13:08:36.737981$GPGSV,2,1,07,05,20,090,40,10,19,293,44,13,24,045,42,15,61,037,46*70
###2023-11-09 13:08:36.740250$GPGSV,2,2,07,18,78,277,46,23,50,316,45,24,49,136,46,,,,*44
###2023-11-09 13:08:36.742851$GLGSV,2,1,05,70,50,017,36,71,48,290,48,80,18,090,43,85,57,203,48*62
###2023-11-09 13:08:36.744470$GLGSV,2,2,05,86,53,308,48,,,,,,,,,,,,*5F
###2023-11-09 13:08:36.747068$GAGSV,1,1,04,07,72,258,45,08,48,043,44,13,64,160,45,26,57,310,45*60
###2023-11-09 13:08:36.749660$GBGSV,2,1,06,11,23,180,41,14,65,008,46,24,20,132,43,26,23,081,42*66
###2023-11-09 13:08:36.751601$GBGSV,2,2,06,28,43,287,46,33,59,304,47,,,,,,,,*67
###2023-11-09 13:08:36.753069$GNVTG,128.22,T,,M,3.60,N,6.66,K,A*2B
###2023-11-09 13:08:36.832636$GNGGA,130837.00,3611.0204108,N,07545.0178399,W,1,24,0.6,0.839,M,-39.962,M,0.0,*6C
###2023-11-09 13:08:36.835233$GPGSV,2,1,07,05,20,090,41,10,19,293,45,13,24,045,42,15,61,037,46*70
###2023-11-09 13:08:36.837517$GPGSV,2,2,07,18,78,277,46,23,50,316,46,24,49,136,46,,,,*47
###2023-11-09 13:08:36.840108$GLGSV,2,1,05,70,50,017,36,71,48,290,49,80,18,090,43,85,57,203,48*63
###2023-11-09 13:08:36.841721$GLGSV,2,2,05,86,53,308,48,,,,,,,,,,,,*5F
###2023-11-09 13:08:36.844301$GAGSV,1,1,04,07,72,258,45,08,48,043,44,13,64,160,44,26,57,310,45*61
###2023-11-09 13:08:36.846884$GBGSV,2,1,06,11,23,180,41,14,65,008,46,24,20,132,43,26,23,081,42*66
###2023-11-09 13:08:36.848843$GBGSV,2,2,06,28,43,287,47,33,59,304,47,,,,,,,,*66
###2023-11-09 13:08:36.850316$GNVTG,125.48,T,,M,3.71,N,6.88,K,A*2A
###2023-11-09 13:08:36.931245$GNGGA,130837.10,3611.0203523,N,07545.0177338,W,1,24,0.6,0.842,M,-39.962,M,0.0,*6F
###2023-11-09 13:08:36.933840$GPGSV,2,1,07,05,20,090,41,10,19,293,45,13,24,045,42,15,61,037,46*70
###2023-11-09 13:08:36.936096$GPGSV,2,2,07,18,78,277,46,23,50,316,46,24,50,135,46,,,,*4C
###2023-11-09 13:08:36.938688$GLGSV,2,1,05,70,50,017,36,71,48,290,49,80,18,090,43,85,57,203,48*63
###2023-11-09 13:08:36.940298$GLGSV,2,2,05,86,53,308,48,,,,,,,,,,,,*5F
###2023-11-09 13:08:36.942861$GAGSV,1,1,04,07,72,258,45,08,48,043,44,13,64,160,44,26,57,310,45*61
###2023-11-09 13:08:36.945420$GBGSV,2,1,06,11,23,180,41,14,65,008,46,24,20,132,43,26,23,081,42*66
###2023-11-09 13:08:36.947359$GBGSV,2,2,06,28,43,287,47,33,59,304,47,,,,,,,,*66
###2023-11-09 13:08:36.948824$GNVTG,123.40,T,,M,3.71,N,6.88,K,A*24
###2023-11-09 13:08:37.032131$GNGGA,130837.20,3611.0202946,N,07545.0176258,W,1,24,0.6,0.859,M,-39.962,M,0.0,*6E
###2023-11-09 13:08:37.034725$GPGSV,2,1,07,05,20,090,41,10,19,293,45,13,24,045,42,15,61,037,46*70
###2023-11-09 13:08:37.037006$GPGSV,2,2,07,18,78,277,46,23,50,316,46,24,50,135,45,,,,*4F
###2023-11-09 13:08:37.039584$GLGSV,2,1,05,70,50,017,36,71,48,290,49,80,18,090,43,85,57,203,48*63
###2023-11-09 13:08:37.041196$GLGSV,2,2,05,86,53,308,48,,,,,,,,,,,,*5F
###2023-11-09 13:08:37.043768$GAGSV,1,1,04,07,72,258,45,08,48,043,44,13,64,160,44,26,57,310,44*60
###2023-11-09 13:08:37.046643$GBGSV,2,1,06,11,23,180,41,14,65,008,46,24,20,132,43,26,23,081,41*65
###2023-11-09 13:08:37.048610$GBGSV,2,2,06,28,43,287,47,33,59,304,47,,,,,,,,*66
###2023-11-09 13:08:37.050098$GNVTG,123.84,T,,M,3.77,N,6.98,K,A*2B
###2023-11-09 13:08:37.131238$GNGGA,130837.30,3611.0202335,N,07545.0175193,W,1,24,0.6,0.881,M,-39.962,M,0.0,*63
###2023-11-09 13:08:37.133843$GPGSV,2,1,07,05,20,090,41,10,19,293,44,13,24,045,42,15,61,037,45*72
###2023-11-09 13:08:37.136101$GPGSV,2,2,07,18,78,277,46,23,50,316,46,24,50,135,45,,,,*4F
###2023-11-09 13:08:37.138707$GLGSV,2,1,05,70,50,017,36,71,48,290,49,80,18,090,43,85,57,203,48*63
###2023-11-09 13:08:37.140323$GLGSV,2,2,05,86,53,308,48,,,,,,,,,,,,*5F
###2023-11-09 13:08:37.142899$GAGSV,1,1,04,07,72,258,46,08,48,043,44,13,64,160,44,26,57,310,44*63
###2023-11-09 13:08:37.145498$GBGSV,2,1,06,11,23,180,42,14,65,008,46,24,20,132,43,26,23,081,41*66
