###2023-11-09 13:09:13.937932$GLGSV,2,1,05,70,50,017,36,71,48,290,48,80,18,090,44,85,57,203,49*64
###2023-11-09 13:09:13.939573$GLGSV,2,2,05,86,53,308,48,,,,,,,,,,,,*5F
###2023-11-09 13:09:13.942154$GAGSV,1,1,04,07,73,259,45,08,48,043,44,13,63,161,45,26,57,310,44*67
###2023-11-09 13:09:13.944741$GBGSV,2,1,06,11,23,180,42,14,65,008,44,24,20,132,44,26,23,081,43*61
###2023-11-09 13:09:13.946679$GBGSV,2,2,06,28,43,287,46,33,59,304,47,,,,,,,,*67
###2023-11-09 13:09:13.948126$GNVTG,36.99,T,,M,3.29,N,6.08,K,A*10
###2023-11-09 13:09:14.033110$GNGGA,130914.20,3611.0296366,N,07544.9583425,W,1,24,0.6,0.710,M,-39.962,M,0.0,*63
###2023-11-09 13:09:14.035700$GPGSV,2,1,07,05,20,090,41,10,19,293,44,13,24,045,40,15,61,037,45*70
###2023-11-09 13:09:14.037972$GPGSV,2,2,07,18,78,277,47,23,50,316,45,24,50,134,46,,,,*4F
###2023-11-09 13:09:14.040541$GLGSV,2,1,05,70,50,017,36,71,48,290,48,80,18,090,44,85,57,203,49*64
###2023-11-09 13:09:14.042148$GLGSV,2,2,05,86,53,308,48,,,,,,,,,,,,*5F
###2023-11-09 13:09:14.044707$GAGSV,1,1,04,07,73,259,45,08,48,043,43,13,63,161,45,26,57,310,44*60
###2023-11-09 13:09:14.047286$GBGSV,2,1,06,11,23,180,41,14,65,008,45,24,20,132,43,26,23,081,42*65
###2023-11-09 13:09:14.049223$GBGSV,2,2,06,28,43,287,46,33,59,304,47,,,,,,,,*67
###2023-11-09 13:09:14.050655$GNVTG,43.35,T,,M,3.25,N,6.01,K,A*11
###2023-11-09 13:09:14.133345$GNGGA,130914.30,3611.0296984,N,07544.9582612,W,1,24,0.6,0.690,M,-39.962,M,0.0,*6A
###2023-11-09 13:09:14.135916$GPGSV,2,1,07,05,20,090,41,10,19,293,45,13,24,045,40,15,61,037,45*71
###2023-11-09 13:09:14.138180$GPGSV,2,2,07,18,78,277,47,23,50,316,46,24,50,134,45,,,,*4F
###2023-11-09 13:09:14.140753$GLGSV,2,1,05,70,50,017,36,71,48,290,48,80,18,090,44,85,57,203,49*64
###2023-11-09 13:09:14.142354$GLGSV,2,2,05,86,53,308,48,,,,,,,,,,,,*5F
###2023-11-09 13:09:14.144915$GAGSV,1,1,04,07,73,259,45,08,48,043,43,13,63,161,45,26,57,310,44*60
###2023-11-09 13:09:14.147492$GBGSV,2,1,06,11,23,180,41,14,65,008,45,24,20,132,42,26,23,081,42*64
###2023-11-09 13:09:14.149418$GBGSV,2,2,06,28,43,287,46,33,59,304,47,,,,,,,,*67
###2023-11-09 13:09:14.150846$GNVTG,49.28,T,,M,3.23,N,5.98,K,A*12
###2023-11-09 13:09:14.228019$GNGGA,130914.40,3611.0297539,N,07544.9581734,W,1,24,0.6,0.676,M,-39.962,M,0.0,*68
###2023-11-09 13:09:14.230627$GPGSV,2,1,07,05,20,090,41,10,19,293,45,13,24,045,40,15,61,037,45*71
###2023-11-09 13:09:14.232894$GPGSV,2,2,07,18,78,277,47,23,50,316,46,24,50,134,45,,,,*4F
###2023-11-09 13:09:14.235467$GLGSV,2,1,05,70,50,017,36,71,48,290,48,80,18,090,44,85,57,203,49*64
###2023-11-09 13:09:14.237091$GLGSV,2,2,05,86,53,308,48,,,,,,,,,,,,*5F
###2023-11-09 13:09:14.239676$GAGSV,1,1,04,07,73,259,45,08,48,043,43,13,63,161,45,26,57,310,44*60
###2023-11-09 13:09:14.242265$GBGSV,2,1,06,11,23,180,41,14,65,008,45,24,20,132,42,26,23,081,42*64
###2023-11-09 13:09:14.244210$GBGSV,2,2,06,28,43,287,46,33,59,304,48,,,,,,,,*68
###2023-11-09 13:09:14.245645$GNVTG,53.52,T,,M,3.23,N,5.98,K,A*14
###2023-11-09 13:09:14.328632$GNGGA,130914.50,3611.0298079,N,07544.9580842,W,1,24,0.6,0.671,M,-39.962,M,0.0,*6F
###2023-11-09 13:09:14.331227$GPGSV,2,1,07,05,20,090,42,10,19,293,43,13,24,045,40,15,61,037,46*77
###2023-11-09 13:09:14.333502$GPGSV,2,2,07,18,78,277,47,23,50,316,46,24,50,134,45,,,,*4F
###2023-11-09 13:09:14.336092$GLGSV,2,1,05,70,50,017,36,71,48,290,48,80,18,090,45,85,57,203,49*65
###2023-11-09 13:09:14.337722$GLGSV,2,2,05,86,53,308,48,,,,,,,,,,,,*5F
###2023-11-09 13:09:14.340300$GAGSV,1,1,04,07,73,259,45,08,48,043,44,13,63,161,45,26,57,310,44*67
###2023-11-09 13:09:14.342887$GBGSV,2,1,06,11,23,180,41,14,65,008,45,24,20,132,43,26,23,081,42*65
###2023-11-09 13:09:14.344824$GBGSV,2,2,06,28,43,287,46,33,59,304,48,,,,,,,,*68
###2023-11-09 13:09:14.346256$GNVTG,51.70,T,,M,3.23,N,5.98,K,A*16
###2023-11-09 13:09:14.428128$GNGGA,130914.60,3611.0298674,N,07544.9580025,W,1,24,0.6,0.673,M,-39.962,M,0.0,*6C
###2023-11-09 13:09:14.430714$GPGSV,2,1,07,05,20,090,43,10,19,293,42,13,24,045,40,15,61,037,46*77
###2023-11-09 13:09:14.432954$GPGSV,2,2,07,18,78,277,47,23,50,316,45,24,50,134,45,,,,*4C
###2023-11-09 13:09:14.435519$GLGSV,2,1,05,70,50,017,36,71,48,290,47,80,18,090,45,85,57,203,49*6A
###2023-11-09 13:09:14.437142$GLGSV,2,2,05,86,53,308,48,,,,,,,,,,,,*5F
###2023-11-09 13:09:14.439712$GAGSV,1,1,04,07,73,259,45,08,48,043,44,13,63,161,45,26,57,310,44*67
###2023-11-09 13:09:14.442289$GBGSV,2,1,06,11,23,180,42,14,65,008,45,24,20,132,44,26,23,081,43*60
###2023-11-09 13:09:14.444219$GBGSV,2,2,06,28,43,287,46,33,59,304,47,,,,,,,,*67
###2023-11-09 13:09:14.445642$GNVTG,42.73,T,,M,3.17,N,5.87,K,A*1E
###2023-11-09 13:09:14.528017$GNGGA,130914.70,3611.0299367,N,07544.9579331,W,1,24,0.6,0.674,M,-39.962,M,0.0,*6C
###2023-11-09 13:09:14.530629$GPGSV,2,1,07,05,20,090,43,10,19,293,42,13,24,045,40,15,61,037,46*77
###2023-11-09 13:09:14.532894$GPGSV,2,2,07,18,78,277,47,23,50,316,44,24,50,134,46,,,,*4E
###2023-11-09 13:09:14.535469$GLGSV,2,1,05,70,50,017,36,71,48,290,47,80,18,090,45,85,57,203,49*6A
###2023-11-09 13:09:14.537091$GLGSV,2,2,05,86,53,308,48,,,,,,,,,,,,*5F
###2023-11-09 13:09:14.539673$GAGSV,1,1,04,07,73,259,45,08,48,043,44,13,63,161,45,26,57,310,44*67
###2023-11-09 13:09:14.542262$GBGSV,2,1,06,11,23,180,42,14,65,008,45,24,20,132,45,26,23,081,43*61
###2023-11-09 13:09:14.544209$GBGSV,2,2,06,28,43,287,46,33,59,304,47,,,,,,,,*67
###2023-11-09 13:09:14.545644$GNVTG,34.35,T,,M,3.25,N,6.01,K,A*11
###2023-11-09 13:09:14.628146$GNGGA,130914.80,3611.0300114,N,07544.9578709,W,1,24,0.6,0.678,M,-39.962,M,0.0,*66
###2023-11-09 13:09:14.630752$GPGSV,2,1,07,05,20,090,43,10,19,293,42,13,24,045,40,15,61,037,46*77
###2023-11-09 13:09:14.633027$GPGSV,2,2,07,18,78,277,47,23,50,316,44,24,50,134,46,,,,*4E
###2023-11-09 13:09:14.635618$GLGSV,2,1,05,70,50,017,36,71,48,290,47,80,18,090,45,85,57,203,49*6A
###2023-11-09 13:09:14.637247$GLGSV,2,2,05,86,53,308,48,,,,,,,,,,,,*5F
###2023-11-09 13:09:14.639825$GAGSV,1,1,04,07,73,259,45,08,48,043,44,13,63,161,45,26,57,310,44*67
###2023-11-09 13:09:14.642407$GBGSV,2,1,06,11,23,180,42,14,65,008,45,24,20,132,45,26,23,081,43*61
###2023-11-09 13:09:14.644352$GBGSV,2,2,06,28,43,287,46,33,59,304,47,,,,,,,,*67
###2023-11-09 13:09:14.645788$GNVTG,32.43,T,,M,3.23,N,5.98,K,A*13
###2023-11-09 13:09:14.728003$GNGGA,130914.90,3611.0300872,N,07544.9578099,W,1,24,0.6,0.676,M,-39.962,M,0.0,*6E
###2023-11-09 13:09:14.730580$GPGSV,2,1,07,05,20,090,42,10,19,293,43,13,24,045,40,15,61,037,46*77
###2023-11-09 13:09:14.732831$GPGSV,2,2,07,18,78,277,47,23,50,316,45,24,50,134,45,,,,*4C
###2023-11-09 13:09:14.735397$GLGSV,2,1,05,70,50,017,36,71,48,290,47,80,18,090,44,85,57,203,49*6B
###2023-11-09 13:09:14.737008$GLGSV,2,2,05,86,53,308,48,,,,,,,,,,,,*5F
###2023-11-09 13:09:14.739577$GAGSV,1,1,04,07,73,259,45,08,48,043,44,13,63,161,45,26,57,310,45*66
###2023-11-09 13:09:14.742149$GBGSV,2,1,06,11,23,180,42,14,65,008,45,24,20,132,43,26,23,081,43*67
###2023-11-09 13:09:14.744086$GBGSV,2,2,06,28,43,287,46,33,59,304,48,,,,,,,,*68
###2023-11-09 13:09:14.745512$GNVTG,32.67,T,,M,3.29,N,6.08,K,A*15
###2023-11-09 13:09:14.832131$GNGGA,130915.00,3611.0301621,N,07544.9577450,W,1,24,0.6,0.676,M,-39.962,M,0.0,*61
###2023-11-09 13:09:14.834754$GPGSV,2,1,07,05,20,090,42,10,19,293,43,13,24,045,40,15,61,037,46*77
###2023-11-09 13:09:14.837049$GPGSV,2,2,07,18,78,277,47,23,50,316,46,24,50,134,45,,,,*4F
###2023-11-09 13:09:14.839640$GLGSV,2,1,05,70,50,017,36,71,48,290,48,80,18,090,44,85,57,203,49*64
###2023-11-09 13:09:14.841258$GLGSV,2,2,05,86,53,308,48,,,,,,,,,,,,*5F
###2023-11-09 13:09:14.843835$GAGSV,1,1,04,07,73,259,45,08,48,043,44,13,63,161,45,26,57,310,45*66
###2023-11-09 13:09:14.846429$GBGSV,2,1,06,11,23,180,41,14,65,008,45,24,20,132,42,26,23,081,43*65
###2023-11-09 13:09:14.848383$GBGSV,2,2,06,28,43,287,46,33,59,304,48,,,,,,,,*68
###2023-11-09 13:09:14.849819$GNVTG,35.96,T,,M,3.30,N,6.12,K,A*1F
###2023-11-09 13:09:14.928048$GNGGA,130915.10,3611.0302346,N,07544.9576739,W,1,24,0.6,0.665,M,-39.962,M,0.0,*68
###2023-11-09 13:09:14.930663$GPGSV,2,1,07,05,20,090,41,10,19,293,44,13,24,045,40,15,61,037,46*73
###2023-11-09 13:09:14.932918$GPGSV,2,2,07,18,78,277,47,23,50,316,46,24,50,134,45,,,,*4F
###2023-11-09 13:09:14.935495$GLGSV,2,1,05,70,50,017,36,71,48,290,48,80,18,090,43,85,57,203,49*63
###2023-11-09 13:09:14.937445$GLGSV,2,2,05,86,53,308,49,,,,,,,,,,,,*5E
###2023-11-09 13:09:14.940025$GAGSV,1,1,04,07,73,259,45,08,48,043,44,13,63,161,45,26,57,310,45*66
###2023-11-09 13:09:14.942616$GBGSV,2,1,06,11,23,180,40,14,65,008,45,24,20,132,42,26,23,081,42*65
###2023-11-09 13:09:14.944558$GBGSV,2,2,06,28,43,287,46,33,59,304,48,,,,,,,,*68
###2023-11-09 13:09:14.945993$GNVTG,40.00,T,,M,3.36,N,6.23,K,A*16
###2023-11-09 13:09:15.031103$GNGGA,130915.20,3611.0303033,N,07544.9575940,W,1,24,0.6,0.654,M,-39.962,M,0.0,*6A
###2023-11-09 13:09:15.033691$GPGSV,2,1,07,05,20,090,41,10,19,293,43,13,24,045,40,15,61,037,46*74
###2023-11-09 13:09:15.035934$GPGSV,2,2,07,18,78,277,47,23,50,316,46,24,50,134,45,,,,*4F
###2023-11-09 13:09:15.038527$GLGSV,2,1,05,70,50,017,36,71,48,290,47,80,18,090,43,85,57,203,49*6C
