###2023-11-09 13:08:40.533275$GPGSV,2,1,07,05,20,090,41,10,19,293,44,13,24,045,40,15,61,037,45*70
###2023-11-09 13:08:40.535538$GPGSV,2,2,07,18,78,277,47,23,50,316,44,24,50,135,46,,,,*4F
###2023-11-09 13:08:40.538126$GLGSV,2,1,05,70,50,017,35,71,48,290,48,80,18,090,43,85,57,203,48*61
###2023-11-09 13:08:40.539727$GLGSV,2,2,05,86,53,308,47,,,,,,,,,,,,*50
###2023-11-09 13:08:40.542282$GAGSV,1,1,04,07,72,258,45,08,48,043,45,13,64,160,44,26,57,310,45*60
###2023-11-09 13:08:40.544847$GBGSV,2,1,06,11,23,180,41,14,65,008,45,24,20,132,43,26,23,081,41*66
###2023-11-09 13:08:40.546773$GBGSV,2,2,06,28,43,287,47,33,59,304,47,,,,,,,,*66
###2023-11-09 13:08:40.548217$GNVTG,82.87,T,,M,5.03,N,9.32,K,A*18
###2023-11-09 13:08:40.627904$GNGGA,130840.80,3611.0192542,N,07545.0123703,W,1,24,0.6,0.801,M,-39.962,M,0.0,*60
###2023-11-09 13:08:40.630516$GPGSV,2,1,07,05,20,090,41,10,19,293,44,13,24,045,40,15,61,037,45*70
###2023-11-09 13:08:40.632777$GPGSV,2,2,07,18,78,277,47,23,50,316,44,24,50,135,46,,,,*4F
###2023-11-09 13:08:40.635355$GLGSV,2,1,05,70,50,017,35,71,48,290,48,80,18,090,43,85,57,203,48*61
###2023-11-09 13:08:40.636980$GLGSV,2,2,05,86,53,308,47,,,,,,,,,,,,*50
###2023-11-09 13:08:40.639568$GAGSV,1,1,04,07,72,258,45,08,48,043,45,13,64,160,44,26,57,310,44*61
###2023-11-09 13:08:40.642151$GBGSV,2,1,06,11,23,180,41,14,65,008,45,24,20,132,43,26,23,081,41*66
###2023-11-09 13:08:40.644094$GBGSV,2,2,06,28,43,287,46,33,59,304,47,,,,,,,,*67
###2023-11-09 13:08:40.645533$GNVTG,80.55,T,,M,4.96,N,9.18,K,A*10
###2023-11-09 13:08:40.728886$GNGGA,130840.90,3611.0192769,N,07545.0122033,W,1,24,0.6,0.807,M,-39.962,M,0.0,*69
###2023-11-09 13:08:40.731469$GPGSV,2,1,07,05,20,090,41,10,19,293,44,13,24,045,40,15,61,037,45*70
###2023-11-09 13:08:40.733722$GPGSV,2,2,07,18,78,277,47,23,50,316,44,24,50,135,46,,,,*4F
###2023-11-09 13:08:40.736296$GLGSV,2,1,05,70,50,017,35,71,48,290,48,80,18,090,43,85,57,203,48*61
###2023-11-09 13:08:40.737915$GLGSV,2,2,05,86,53,308,47,,,,,,,,,,,,*50
###2023-11-09 13:08:40.740479$GAGSV,1,1,04,07,72,258,45,08,48,043,45,13,64,160,45,26,57,310,44*60
###2023-11-09 13:08:40.743049$GBGSV,2,1,06,11,23,180,41,14,65,008,45,24,20,132,44,26,23,081,41*61
###2023-11-09 13:08:40.744981$GBGSV,2,2,06,28,43,287,46,33,59,304,47,,,,,,,,*67
###2023-11-09 13:08:40.746411$GNVTG,80.29,T,,M,4.88,N,9.04,K,A*19
###2023-11-09 13:08:40.832001$GNGGA,130841.00,3611.0192977,N,07545.0120361,W,1,24,0.6,0.819,M,-39.962,M,0.0,*69
###2023-11-09 13:08:40.834600$GPGSV,2,1,07,05,20,090,41,10,19,293,44,13,24,045,40,15,61,037,45*70
###2023-11-09 13:08:40.836859$GPGSV,2,2,07,18,78,277,47,23,50,316,44,24,50,135,46,,,,*4F
###2023-11-09 13:08:40.839467$GLGSV,2,1,05,70,50,017,35,71,48,290,48,80,18,090,43,85,57,203,48*61
###2023-11-09 13:08:40.841081$GLGSV,2,2,05,86,53,308,47,,,,,,,,,,,,*50
###2023-11-09 13:08:40.843657$GAGSV,1,1,04,07,72,258,45,08,48,043,44,13,64,160,45,26,57,310,44*61
###2023-11-09 13:08:40.846242$GBGSV,2,1,06,11,23,180,42,14,65,008,45,24,20,132,44,26,23,081,42*61
###2023-11-09 13:08:40.848189$GBGSV,2,2,06,28,43,287,46,33,59,304,47,,,,,,,,*67
###2023-11-09 13:08:40.849622$GNVTG,82.22,T,,M,4.96,N,9.18,K,A*12
###2023-11-09 13:08:40.930884$GNGGA,130841.10,3611.0193162,N,07545.0118658,W,1,24,0.6,0.830,M,-39.962,M,0.0,*6A
###2023-11-09 13:08:40.933492$GPGSV,2,1,07,05,20,090,41,10,19,293,44,13,24,045,40,15,61,037,45*70
###2023-11-09 13:08:40.935773$GPGSV,2,2,07,18,78,277,47,23,50,316,44,24,50,135,46,,,,*4F
###2023-11-09 13:08:40.938388$GLGSV,2,1,05,70,50,017,35,71,48,290,48,80,18,090,43,85,57,203,48*61
###2023-11-09 13:08:40.940012$GLGSV,2,2,05,86,53,308,47,,,,,,,,,,,,*50
###2023-11-09 13:08:40.942599$GAGSV,1,1,04,07,72,258,45,08,48,043,44,13,64,160,45,26,57,310,44*61
###2023-11-09 13:08:40.945189$GBGSV,2,1,06,11,23,180,42,14,65,008,45,24,20,132,44,26,23,081,41*62
###2023-11-09 13:08:40.947137$GBGSV,2,2,06,28,43,287,46,33,59,304,47,,,,,,,,*67
###2023-11-09 13:08:40.948576$GNVTG,82.48,T,,M,5.03,N,9.32,K,A*1B
###2023-11-09 13:08:41.030495$GNGGA,130841.20,3611.0193376,N,07545.0116965,W,1,24,0.6,0.828,M,-39.962,M,0.0,*68
###2023-11-09 13:08:41.033098$GPGSV,2,1,07,05,20,090,41,10,19,293,44,13,24,045,38,15,61,037,45*7F
###2023-11-09 13:08:41.035360$GPGSV,2,2,07,18,78,277,47,23,50,316,44,24,50,135,46,,,,*4F
###2023-11-09 13:08:41.037960$GLGSV,2,1,05,70,50,017,35,71,48,290,48,80,18,090,43,85,57,203,48*61
###2023-11-09 13:08:41.039574$GLGSV,2,2,05,86,53,308,47,,,,,,,,,,,,*50
###2023-11-09 13:08:41.042150$GAGSV,1,1,04,07,72,258,46,08,48,043,45,13,64,160,45,26,57,310,44*63
###2023-11-09 13:08:41.044732$GBGSV,2,1,06,11,23,180,42,14,65,008,45,24,20,132,44,26,23,081,41*62
###2023-11-09 13:08:41.046669$GBGSV,2,2,06,28,43,287,46,33,59,304,47,,,,,,,,*67
###2023-11-09 13:08:41.048119$GNVTG,79.97,T,,M,4.92,N,9.11,K,A*15
###2023-11-09 13:08:41.128894$GNGGA,130841.30,3611.0193612,N,07545.0115302,W,1,24,0.6,0.818,M,-39.962,M,0.0,*65
###2023-11-09 13:08:41.131487$GPGSV,2,1,07,05,20,090,41,10,19,293,44,13,24,045,40,15,61,037,45*70
###2023-11-09 13:08:41.133735$GPGSV,2,2,07,18,78,277,47,23,50,316,44,24,50,135,46,,,,*4F
###2023-11-09 13:08:41.136294$GLGSV,2,1,05,70,50,017,35,71,48,290,48,80,18,090,43,85,57,203,48*61
###2023-11-09 13:08:41.137910$GLGSV,2,2,05,86,53,308,47,,,,,,,,,,,,*50
###2023-11-09 13:08:41.140479$GAGSV,1,1,04,07,72,258,46,08,48,043,45,13,64,160,45,26,57,310,44*63
###2023-11-09 13:08:41.143056$GBGSV,2,1,06,11,23,180,42,14,65,008,45,24,20,132,44,26,23,081,41*62
###2023-11-09 13:08:41.144987$GBGSV,2,2,06,28,43,287,46,33,59,304,47,,,,,,,,*67
###2023-11-09 13:08:41.146414$GNVTG,80.05,T,,M,4.90,N,9.07,K,A*1D
###2023-11-09 13:08:41.228020$GNGGA,130841.40,3611.0193837,N,07545.0113639,W,1,24,0.6,0.809,M,-39.962,M,0.0,*60
###2023-11-09 13:08:41.230619$GPGSV,2,1,07,05,20,090,41,10,19,293,44,13,24,045,40,15,61,037,45*70
###2023-11-09 13:08:41.232876$GPGSV,2,2,07,18,78,277,47,23,50,316,44,24,50,135,46,,,,*4F
###2023-11-09 13:08:41.235448$GLGSV,2,1,05,70,50,017,35,71,48,290,48,80,18,090,43,85,57,203,49*60
###2023-11-09 13:08:41.237072$GLGSV,2,2,05,86,53,308,47,,,,,,,,,,,,*50
###2023-11-09 13:08:41.239648$GAGSV,1,1,04,07,72,258,45,08,48,043,45,13,64,160,45,26,57,310,44*60
###2023-11-09 13:08:41.242236$GBGSV,2,1,06,11,23,180,42,14,65,008,45,24,20,132,44,26,23,081,41*62
###2023-11-09 13:08:41.244173$GBGSV,2,2,06,28,43,287,47,33,59,304,47,,,,,,,,*66
###2023-11-09 13:08:41.245605$GNVTG,80.85,T,,M,4.92,N,9.11,K,A*10
###2023-11-09 13:08:41.328891$GNGGA,130841.50,3611.0194069,N,07545.0111962,W,1,24,0.6,0.806,M,-39.962,M,0.0,*69
###2023-11-09 13:08:41.331484$GPGSV,2,1,07,05,20,090,41,10,19,293,44,13,24,045,40,15,61,037,45*70
###2023-11-09 13:08:41.333742$GPGSV,2,2,07,18,78,277,47,23,50,316,45,24,50,135,46,,,,*4E
###2023-11-09 13:08:41.336320$GLGSV,2,1,05,70,50,017,35,71,48,290,48,80,18,090,43,85,57,203,49*60
###2023-11-09 13:08:41.337946$GLGSV,2,2,05,86,53,308,47,,,,,,,,,,,,*50
###2023-11-09 13:08:41.340533$GAGSV,1,1,04,07,72,258,45,08,48,043,45,13,64,160,45,26,57,310,44*60
###2023-11-09 13:08:41.343128$GBGSV,2,1,06,11,23,180,42,14,65,008,45,24,20,132,44,26,23,081,41*62
###2023-11-09 13:08:41.345070$GBGSV,2,2,06,28,43,287,47,33,59,304,47,,,,,,,,*66
###2023-11-09 13:08:41.346501$GNVTG,79.60,T,,M,5.00,N,9.25,K,A*10
###2023-11-09 13:08:41.427900$GNGGA,130841.60,3611.0194291,N,07545.0110269,W,1,24,0.6,0.809,M,-39.962,M,0.0,*61
###2023-11-09 13:08:41.430490$GPGSV,2,1,07,05,20,090,41,10,19,293,44,13,24,045,40,15,61,037,45*70
###2023-11-09 13:08:41.432747$GPGSV,2,2,07,18,78,277,47,23,50,316,45,24,50,135,46,,,,*4E
###2023-11-09 13:08:41.435329$GLGSV,2,1,05,70,50,017,35,71,48,290,48,80,18,090,43,85,57,203,49*60
###2023-11-09 13:08:41.436948$GLGSV,2,2,05,86,53,308,47,,,,,,,,,,,,*50
###2023-11-09 13:08:41.439516$GAGSV,1,1,04,07,72,258,46,08,48,043,45,13,64,160,45,26,57,310,44*63
###2023-11-09 13:08:41.442081$GBGSV,2,1,06,11,23,180,42,14,65,008,45,24,20,132,44,26,23,081,41*62
###2023-11-09 13:08:41.444011$GBGSV,2,2,06,28,43,287,47,33,59,304,47,,,,,,,,*66
###2023-11-09 13:08:41.445434$GNVTG,81.77,T,,M,5.00,N,9.25,K,A*11
###2023-11-09 13:08:41.527900$GNGGA,130841.70,3611.0194441,N,07545.0108582,W,1,24,0.6,0.812,M,-39.962,M,0.0,*6A
###2023-11-09 13:08:41.530510$GPGSV,2,1,07,05,20,090,41,10,19,293,44,13,24,045,40,15,61,037,45*70
###2023-11-09 13:08:41.533082$GPGSV,2,2,07,18,78,277,47,23,50,316,45,24,50,135,46,,,,*4E
###2023-11-09 13:08:41.535680$GLGSV,2,1,05,70,50,017,35,71,48,290,48,80,18,090,43,85,57,203,48*61
###2023-11-09 13:08:41.537318$GLGSV,2,2,05,86,53,308,47,,,,,,,,,,,,*50
###2023-11-09 13:08:41.539909$GAGSV,1,1,04,07,72,258,46,08,48,043,45,13,64,160,45,26,57,310,44*63
###2023-11-09 13:08:41.542496$GBGSV,2,1,06,11,23,180,42,14,65,008,45,24,20,132,44,26,23,081,41*62
###2023-11-09 13:08:41.544440$GBGSV,2,2,06,28,43,287,47,33,59,304,47,,,,,,,,*66
###2023-11-09 13:08:41.545881$GNVTG,85.38,T,,M,4.90,N,9.07,K,A*16
###2023-11-09 13:08:41.629773$GNGGA,130841.80,3611.0194518,N,07545.0106923,W,1,24,0.6,0.820,M,-39.962,M,0.0,*60
###2023-11-09 13:08:41.632384$GPGSV,2,1,07,05,20,090,41,10,19,293,44,13,24,045,40,15,61,037,45*70
