###2023-11-09 13:09:11.641089$GAGSV,1,1,04,07,73,259,45,08,48,043,44,13,63,161,44,26,57,310,45*67
###2023-11-09 13:09:11.643689$GBGSV,2,1,06,11,23,180,41,14,65,008,45,24,20,132,43,26,23,081,43*64
###2023-11-09 13:09:11.645640$GBGSV,2,2,06,28,43,287,47,33,59,304,48,,,,,,,,*69
###2023-11-09 13:09:11.647097$GNVTG,44.25,T,,M,5.29,N,9.79,K,A*1D
###2023-11-09 13:09:11.733642$GNGGA,130911.90,3611.0278741,N,07544.9605471,W,1,24,0.6,0.989,M,-39.962,M,0.0,*6E
###2023-11-09 13:09:11.736236$GPGSV,2,1,07,05,20,090,42,10,19,293,44,13,24,045,40,15,61,037,45*73
###2023-11-09 13:09:11.738502$GPGSV,2,2,07,18,78,277,47,23,50,316,46,24,50,135,44,,,,*4F
###2023-11-09 13:09:11.741058$GLGSV,2,1,05,70,50,017,36,71,48,290,48,80,18,090,43,85,57,203,48*62
###2023-11-09 13:09:11.742654$GLGSV,2,2,05,86,53,308,49,,,,,,,,,,,,*5E
###2023-11-09 13:09:11.745205$GAGSV,1,1,04,07,73,259,45,08,48,043,44,13,63,161,44,26,57,310,45*67
###2023-11-09 13:09:11.747783$GBGSV,2,1,06,11,23,180,41,14,65,008,45,24,20,132,43,26,23,081,43*64
###2023-11-09 13:09:11.749717$GBGSV,2,2,06,28,43,287,47,33,59,304,48,,,,,,,,*69
###2023-11-09 13:09:11.751140$GNVTG,49.15,T,,M,5.13,N,9.50,K,A*11
###2023-11-09 13:09:11.831876$GNGGA,130912.00,3611.0279643,N,07544.9604115,W,1,24,0.6,0.991,M,-39.962,M,0.0,*69
###2023-11-09 13:09:11.834477$GPGSV,2,1,07,05,20,090,43,10,19,293,42,13,24,045,40,15,61,037,45*74
###2023-11-09 13:09:11.836745$GPGSV,2,2,07,18,78,277,46,23,50,316,46,24,50,135,45,,,,*4F
###2023-11-09 13:09:11.839347$GLGSV,2,1,05,70,50,017,36,71,48,290,47,80,18,090,44,85,57,203,49*6B
###2023-11-09 13:09:11.840966$GLGSV,2,2,05,86,53,308,49,,,,,,,,,,,,*5E
###2023-11-09 13:09:11.843552$GAGSV,1,1,04,07,73,259,46,08,48,043,44,13,63,161,44,26,57,310,45*64
###2023-11-09 13:09:11.846137$GBGSV,2,1,06,11,23,180,41,14,65,008,45,24,20,132,43,26,23,081,43*64
###2023-11-09 13:09:11.848099$GBGSV,2,2,06,28,43,287,47,33,59,304,48,,,,,,,,*69
###2023-11-09 13:09:11.849531$GNVTG,51.82,T,,M,5.07,N,9.40,K,A*12
###2023-11-09 13:09:11.941503$GNGGA,130912.10,3611.0280489,N,07544.9602769,W,1,24,0.6,0.996,M,-39.962,M,0.0,*66
###2023-11-09 13:09:11.944101$GPGSV,2,1,07,05,20,090,43,10,19,293,41,13,24,045,40,15,61,037,46*74
###2023-11-09 13:09:11.946372$GPGSV,2,2,07,18,78,277,46,23,50,316,45,24,50,135,45,,,,*4C
###2023-11-09 13:09:11.948978$GLGSV,2,1,05,70,50,017,36,71,48,290,47,80,18,090,45,85,57,203,49*6A
###2023-11-09 13:09:11.950591$GLGSV,2,2,05,86,53,308,48,,,,,,,,,,,,*5F
###2023-11-09 13:09:11.953175$GAGSV,1,1,04,07,73,259,45,08,48,043,43,13,63,161,44,26,57,310,45*60
###2023-11-09 13:09:11.955768$GBGSV,2,1,06,11,23,180,43,14,65,008,45,24,20,132,45,26,23,081,43*60
###2023-11-09 13:09:11.957743$GBGSV,2,2,06,28,43,287,47,33,59,304,48,,,,,,,,*69
###2023-11-09 13:09:11.959181$GNVTG,52.40,T,,M,4.82,N,8.93,K,A*1C
###2023-11-09 13:09:12.031202$GNGGA,130912.20,3611.0281311,N,07544.9601497,W,1,23,0.6,1.013,M,-39.962,M,0.0,*61
###2023-11-09 13:09:12.033776$GPGSV,2,1,07,05,20,090,44,10,19,293,39,13,24,045,40,15,61,037,46*7C
###2023-11-09 13:09:12.036014$GPGSV,2,2,07,18,78,277,46,23,50,316,44,24,50,135,46,,,,*4E
###2023-11-09 13:09:12.038584$GLGSV,1,1,04,71,48,290,47,80,18,090,45,85,57,203,49,86,53,308,47*69
###2023-11-09 13:09:12.041133$GAGSV,1,1,04,07,73,259,45,08,48,043,43,13,63,161,44,26,57,310,44*61
###2023-11-09 13:09:12.043685$GBGSV,2,1,06,11,23,180,44,14,65,008,44,24,20,132,46,26,23,081,44*62
###2023-11-09 13:09:12.045604$GBGSV,2,2,06,28,43,287,46,33,59,304,47,,,,,,,,*67
###2023-11-09 13:09:12.047027$GNVTG,50.27,T,,M,4.65,N,8.60,K,A*1A
###2023-11-09 13:09:12.128281$GNGGA,130912.30,3611.0282180,N,07544.9600355,W,1,23,0.6,1.035,M,-39.962,M,0.0,*65
###2023-11-09 13:09:12.130884$GPGSV,2,1,07,05,20,090,44,10,19,293,39,13,24,045,39,15,61,037,45*71
###2023-11-09 13:09:12.133143$GPGSV,2,2,07,18,78,277,46,23,50,316,43,24,50,135,46,,,,*49
###2023-11-09 13:09:12.135716$GLGSV,1,1,04,71,48,290,46,80,18,090,46,85,57,203,49,86,53,308,47*6B
###2023-11-09 13:09:12.138306$GAGSV,1,1,04,07,73,259,45,08,48,043,43,13,63,161,45,26,57,310,43*67
###2023-11-09 13:09:12.140897$GBGSV,2,1,06,11,23,180,44,14,65,008,44,24,20,132,46,26,23,081,44*62
###2023-11-09 13:09:12.142844$GBGSV,2,2,06,28,43,287,45,33,59,304,46,,,,,,,,*65
###2023-11-09 13:09:12.144275$GNVTG,43.02,T,,M,4.51,N,8.35,K,A*18
###2023-11-09 13:09:12.229021$GNGGA,130912.40,3611.0283108,N,07544.9599343,W,1,23,0.6,1.069,M,-39.962,M,0.0,*6E
###2023-11-09 13:09:12.231610$GPGSV,2,1,07,05,20,090,44,10,19,293,41,13,24,045,39,15,61,037,45*7E
###2023-11-09 13:09:12.233866$GPGSV,2,2,07,18,78,277,46,23,50,316,44,24,50,135,46,,,,*4E
###2023-11-09 13:09:12.236444$GLGSV,1,1,04,71,48,290,47,80,18,090,45,85,57,203,49,86,53,308,47*69
###2023-11-09 13:09:12.239043$GAGSV,1,1,04,07,73,259,45,08,48,043,43,13,63,161,45,26,57,310,44*60
###2023-11-09 13:09:12.241628$GBGSV,2,1,06,11,23,180,44,14,65,008,44,24,20,132,46,26,23,081,44*62
###2023-11-09 13:09:12.243568$GBGSV,2,2,06,28,43,287,46,33,59,304,47,,,,,,,,*67
###2023-11-09 13:09:12.245004$GNVTG,39.08,T,,M,4.39,N,8.14,K,A*12
###2023-11-09 13:09:12.328037$GNGGA,130912.50,3611.0284016,N,07544.9598377,W,1,23,0.6,1.097,M,-39.962,M,0.0,*61
###2023-11-09 13:09:12.330616$GPGSV,2,1,07,05,20,090,44,10,19,293,43,13,24,045,39,15,61,037,46*7F
###2023-11-09 13:09:12.332865$GPGSV,2,2,07,18,78,277,46,23,50,316,45,24,50,135,45,,,,*4C
###2023-11-09 13:09:12.335436$GLGSV,1,1,04,71,48,290,47,80,18,090,44,85,57,203,49,86,53,308,49*66
###2023-11-09 13:09:12.338024$GAGSV,1,1,04,07,73,259,45,08,48,043,43,13,63,161,45,26,57,310,45*61
###2023-11-09 13:09:12.340598$GBGSV,2,1,06,11,23,180,43,14,65,008,45,24,20,132,45,26,23,081,44*67
###2023-11-09 13:09:12.342525$GBGSV,2,2,06,28,43,287,47,33,59,304,48,,,,,,,,*69
###2023-11-09 13:09:12.343947$GNVTG,41.42,T,,M,4.24,N,7.85,K,A*18
###2023-11-09 13:09:12.427671$GNGGA,130912.60,3611.0284870,N,07544.9597400,W,1,23,0.6,1.113,M,-39.962,M,0.0,*6F
###2023-11-09 13:09:12.430284$GPGSV,2,1,07,05,20,090,42,10,19,293,45,13,24,045,41,15,61,037,46*70
###2023-11-09 13:09:12.432545$GPGSV,2,2,07,18,78,277,46,23,50,316,46,24,50,135,45,,,,*4F
###2023-11-09 13:09:12.435124$GLGSV,1,1,04,71,48,290,49,80,18,090,44,85,57,203,48,86,53,308,49*69
###2023-11-09 13:09:12.437715$GAGSV,1,1,04,07,73,259,45,08,48,043,43,13,63,161,45,26,57,310,45*61
###2023-11-09 13:09:12.440314$GBGSV,2,1,06,11,23,180,42,14,65,008,45,24,20,132,44,26,23,081,44*67
###2023-11-09 13:09:12.442262$GBGSV,2,2,06,28,43,287,47,33,59,304,48,,,,,,,,*69
###2023-11-09 13:09:12.443700$GNVTG,43.53,T,,M,4.12,N,7.63,K,A*17
###2023-11-09 13:09:12.529139$GNGGA,130912.70,3611.0285652,N,07544.9596409,W,1,24,0.6,1.130,M,-39.962,M,0.0,*6F
###2023-11-09 13:09:12.531726$GPGSV,2,1,07,05,20,090,42,10,19,293,46,13,24,045,41,15,61,037,46*73
###2023-11-09 13:09:12.533989$GPGSV,2,2,07,18,78,277,46,23,50,316,46,24,50,135,45,,,,*4F
###2023-11-09 13:09:12.536564$GLGSV,2,1,05,70,50,017,36,71,48,290,49,80,18,090,44,85,57,203,48*64
###2023-11-09 13:09:12.538196$GLGSV,2,2,05,86,53,308,49,,,,,,,,,,,,*5E
###2023-11-09 13:09:12.540787$GAGSV,1,1,04,07,73,259,45,08,48,043,43,13,63,161,45,26,57,310,45*61
###2023-11-09 13:09:12.543375$GBGSV,2,1,06,11,23,180,42,14,65,008,45,24,20,132,43,26,23,081,43*67
###2023-11-09 13:09:12.545323$GBGSV,2,2,06,28,43,287,47,33,59,304,48,,,,,,,,*69
###2023-11-09 13:09:12.546765$GNVTG,47.15,T,,M,3.93,N,7.27,K,A*1F
###2023-11-09 13:09:12.628152$GNGGA,130912.80,3611.0286353,N,07544.9595388,W,1,24,0.6,1.142,M,-39.962,M,0.0,*6F
###2023-11-09 13:09:12.630746$GPGSV,2,1,07,05,20,090,42,10,19,293,46,13,24,045,41,15,61,037,46*73
###2023-11-09 13:09:12.632997$GPGSV,2,2,07,18,78,277,46,23,50,316,46,24,50,135,44,,,,*4E
###2023-11-09 13:09:12.635572$GLGSV,2,1,05,70,50,017,36,71,48,290,49,80,18,090,44,85,57,203,48*64
###2023-11-09 13:09:12.637186$GLGSV,2,2,05,86,53,308,49,,,,,,,,,,,,*5E
###2023-11-09 13:09:12.639756$GAGSV,1,1,04,07,73,259,45,08,48,043,44,13,63,161,45,26,57,310,45*66
###2023-11-09 13:09:12.642319$GBGSV,2,1,06,11,23,180,42,14,65,008,45,24,20,132,43,26,23,081,43*67
###2023-11-09 13:09:12.644244$GBGSV,2,2,06,28,43,287,47,33,59,304,48,,,,,,,,*69
###2023-11-09 13:09:12.645664$GNVTG,51.36,T,,M,3.85,N,7.13,K,A*19
###2023-11-09 13:09:12.728277$GNGGA,130912.90,3611.0287023,N,07544.9594345,W,1,24,0.6,1.134,M,-39.962,M,0.0,*6A
###2023-11-09 13:09:12.731176$GPGSV,2,1,07,05,20,090,42,10,19,293,45,13,24,045,41,15,61,037,46*70
###2023-11-09 13:09:12.733446$GPGSV,2,2,07,18,78,277,47,23,50,316,46,24,50,135,45,,,,*4E
###2023-11-09 13:09:12.736031$GLGSV,2,1,05,70,50,017,36,71,48,290,48,80,18,090,44,85,57,203,48*65
###2023-11-09 13:09:12.737664$GLGSV,2,2,05,86,53,308,48,,,,,,,,,,,,*5F
###2023-11-09 13:09:12.740247$GAGSV,1,1,04,07,73,259,45,08,48,043,44,13,63,161,45,26,57,310,45*66
###2023-11-09 13:09:12.742839$GBGSV,2,1,06,11,23,180,42,14,65,008,45,24,20,132,43,26,23,081,43*67
###2023-11-09 13:09:12.744788$GBGSV,2,2,06,28,43,287,47,33,59,304,48,,,,,,,,*69
###2023-11-09 13:09:12.746230$GNVTG,50.78,T,,M,3.87,N,7.16,K,A*15
###2023-11-09 13:09:12.837392$GNGGA,130913.00,3611.0287708,N,07544.9593315,W,1,24,0.6,1.094,M,-39.962,M,0.0,*65
###2023-11-09 13:09:12.839999$GPGSV,2,1,07,05,20,090,42,10,19,293,43,13,24,045,41,15,61,037,46*76
