###2023-11-09 13:06:38.038893$GNGGA,130638.20,3611.0438663,N,07544.9794582,W,1,24,0.6,1.013,M,-39.961,M,0.0,*6E
###2023-11-09 13:06:38.041524$GPGSV,2,1,07,05,21,090,42,10,18,292,43,13,24,045,41,15,62,037,46*74
###2023-11-09 13:06:38.043791$GPGSV,2,2,07,18,77,281,47,23,50,315,45,24,49,137,45,,,,*42
###2023-11-09 13:06:38.046363$GLGSV,2,1,05,70,50,016,36,71,48,288,48,80,17,091,44,85,58,203,48*6C
###2023-11-09 13:06:38.047986$GLGSV,2,2,05,86,52,309,47,,,,,,,,,,,,*50
###2023-11-09 13:06:38.050560$GAGSV,1,1,04,07,72,255,45,08,49,042,44,13,64,160,44,26,56,311,45*6C
###2023-11-09 13:06:38.053141$GBGSV,2,1,06,11,24,180,41,14,65,006,46,24,19,133,43,26,23,082,42*67
###2023-11-09 13:06:38.055071$GBGSV,2,2,06,28,43,289,47,33,58,302,47,,,,,,,,*6F
###2023-11-09 13:06:38.056534$GNVTG,357.38,T,,M,0.70,N,1.30,K,A*2C
###2023-11-09 13:06:38.138243$GNGGA,130638.30,3611.0438826,N,07544.9794610,W,1,24,0.6,1.025,M,-39.961,M,0.0,*6D
###2023-11-09 13:06:38.140827$GPGSV,2,1,07,05,21,090,42,10,18,292,43,13,24,045,41,15,62,037,46*74
###2023-11-09 13:06:38.143070$GPGSV,2,2,07,18,77,281,47,23,50,315,45,24,49,137,46,,,,*41
###2023-11-09 13:06:38.145612$GLGSV,2,1,05,70,50,016,36,71,48,288,48,80,17,091,44,85,58,203,48*6C
###2023-11-09 13:06:38.147217$GLGSV,2,2,05,86,52,309,47,,,,,,,,,,,,*50
###2023-11-09 13:06:38.149767$GAGSV,1,1,04,07,72,255,45,08,49,042,44,13,64,160,44,26,56,311,45*6C
###2023-11-09 13:06:38.152340$GBGSV,2,1,06,11,24,180,41,14,65,006,46,24,19,133,43,26,23,082,42*67
###2023-11-09 13:06:38.154278$GBGSV,2,2,06,28,43,289,47,33,58,302,47,,,,,,,,*6F
###2023-11-09 13:06:38.155744$GNVTG,357.38,T,,M,0.54,N,1.01,K,A*28
###2023-11-09 13:06:38.234722$GNGGA,130638.40,3611.0438959,N,07544.9794637,W,1,24,0.6,1.036,M,-39.961,M,0.0,*64
###2023-11-09 13:06:38.237335$GPGSV,2,1,07,05,21,090,42,10,18,292,43,13,24,045,41,15,62,037,46*74
###2023-11-09 13:06:38.239586$GPGSV,2,2,07,18,77,281,46,23,50,315,45,24,49,137,46,,,,*40
###2023-11-09 13:06:38.242154$GLGSV,2,1,05,70,50,016,36,71,48,288,48,80,17,091,44,85,58,203,48*6C
###2023-11-09 13:06:38.243753$GLGSV,2,2,05,86,52,309,47,,,,,,,,,,,,*50
###2023-11-09 13:06:38.246315$GAGSV,1,1,04,07,72,255,45,08,49,042,44,13,64,160,44,26,56,311,45*6C
###2023-11-09 13:06:38.248904$GBGSV,2,1,06,11,24,180,41,14,65,006,46,24,19,133,43,26,23,082,42*67
###2023-11-09 13:06:38.250837$GBGSV,2,2,06,28,43,289,47,33,58,302,47,,,,,,,,*6F
###2023-11-09 13:06:38.252300$GNVTG,357.38,T,,M,0.49,N,0.90,K,A*2D
###2023-11-09 13:06:38.333743$GNGGA,130638.50,3611.0439107,N,07544.9794645,W,1,24,0.6,1.046,M,-39.961,M,0.0,*65
###2023-11-09 13:06:38.336341$GPGSV,2,1,07,05,21,090,42,10,18,292,43,13,24,045,41,15,62,037,45*77
###2023-11-09 13:06:38.338615$GPGSV,2,2,07,18,77,281,46,23,50,315,45,24,49,137,46,,,,*40
###2023-11-09 13:06:38.341183$GLGSV,2,1,05,70,50,016,36,71,48,288,47,80,17,091,44,85,58,203,48*63
###2023-11-09 13:06:38.342781$GLGSV,2,2,05,86,52,309,47,,,,,,,,,,,,*50
###2023-11-09 13:06:38.345333$GAGSV,1,1,04,07,72,255,45,08,49,042,44,13,64,160,44,26,56,311,45*6C
###2023-11-09 13:06:38.347916$GBGSV,2,1,06,11,24,180,41,14,65,006,45,24,19,133,43,26,23,082,42*64
###2023-11-09 13:06:38.349844$GBGSV,2,2,06,28,43,289,46,33,58,302,47,,,,,,,,*6E
###2023-11-09 13:06:38.351312$GNVTG,357.38,T,,M,0.66,N,1.22,K,A*28
###2023-11-09 13:06:38.433719$GNGGA,130638.60,3611.0439295,N,07544.9794623,W,1,24,0.6,1.057,M,-39.961,M,0.0,*6E
###2023-11-09 13:06:38.436297$GPGSV,2,1,07,05,21,090,42,10,18,292,43,13,24,045,41,15,62,037,45*77
###2023-11-09 13:06:38.438589$GPGSV,2,2,07,18,77,281,46,23,50,315,45,24,49,137,46,,,,*40
###2023-11-09 13:06:38.441154$GLGSV,2,1,05,70,50,016,36,71,48,288,47,80,17,091,44,85,58,203,49*62
###2023-11-09 13:06:38.442764$GLGSV,2,2,05,86,52,309,47,,,,,,,,,,,,*50
###2023-11-09 13:06:38.445324$GAGSV,1,1,04,07,72,255,45,08,49,042,44,13,64,160,44,26,56,311,45*6C
###2023-11-09 13:06:38.447910$GBGSV,2,1,06,11,24,180,43,14,65,006,45,24,19,133,43,26,23,082,42*66
###2023-11-09 13:06:38.449837$GBGSV,2,2,06,28,43,289,46,33,58,302,47,,,,,,,,*6E
###2023-11-09 13:06:38.451303$GNVTG,357.38,T,,M,0.76,N,1.40,K,A*2D
###2023-11-09 13:06:38.533104$GNGGA,130638.70,3611.0439503,N,07544.9794573,W,1,24,0.6,1.068,M,-39.961,M,0.0,*6D
###2023-11-09 13:06:38.535695$GPGSV,2,1,07,05,21,090,42,10,18,292,43,13,24,045,41,15,62,037,45*77
###2023-11-09 13:06:38.537979$GPGSV,2,2,07,18,77,281,46,23,50,315,45,24,49,137,46,,,,*40
###2023-11-09 13:06:38.540556$GLGSV,2,1,05,70,50,016,36,71,48,288,47,80,17,091,44,85,58,203,49*62
###2023-11-09 13:06:38.542162$GLGSV,2,2,05,86,52,309,47,,,,,,,,,,,,*50
###2023-11-09 13:06:38.544720$GAGSV,1,1,04,07,72,255,45,08,49,042,44,13,64,160,44,26,56,311,45*6C
###2023-11-09 13:06:38.547311$GBGSV,2,1,06,11,24,180,42,14,65,006,45,24,19,133,43,26,23,082,42*67
###2023-11-09 13:06:38.549256$GBGSV,2,2,06,28,43,289,47,33,58,302,47,,,,,,,,*6F
###2023-11-09 13:06:38.550722$GNVTG,357.38,T,,M,0.82,N,1.51,K,A*26
###2023-11-09 13:06:38.633126$GNGGA,130638.80,3611.0439696,N,07544.9794505,W,1,24,0.6,1.074,M,-39.961,M,0.0,*61
###2023-11-09 13:06:38.635726$GPGSV,2,1,07,05,21,090,42,10,18,292,43,13,24,045,41,15,62,037,45*77
###2023-11-09 13:06:38.638000$GPGSV,2,2,07,18,77,281,46,23,50,315,45,24,49,137,46,,,,*40
###2023-11-09 13:06:38.640587$GLGSV,2,1,05,70,50,016,36,71,48,288,47,80,17,091,44,85,58,203,47*6C
###2023-11-09 13:06:38.642203$GLGSV,2,2,05,86,52,309,47,,,,,,,,,,,,*50
###2023-11-09 13:06:38.644773$GAGSV,1,1,04,07,72,255,45,08,49,042,44,13,64,160,44,26,56,311,45*6C
###2023-11-09 13:06:38.647361$GBGSV,2,1,06,11,24,180,42,14,65,006,45,24,19,133,43,26,23,082,42*67
###2023-11-09 13:06:38.649304$GBGSV,2,2,06,28,43,289,47,33,58,302,47,,,,,,,,*6F
###2023-11-09 13:06:38.650770$GNVTG,357.38,T,,M,0.66,N,1.22,K,A*28
###2023-11-09 13:06:38.733235$GNGGA,130638.90,3611.0439824,N,07544.9794445,W,1,24,0.6,1.073,M,-39.961,M,0.0,*65
###2023-11-09 13:06:38.735821$GPGSV,2,1,07,05,21,090,42,10,18,292,43,13,24,045,42,15,62,037,46*77
###2023-11-09 13:06:38.738087$GPGSV,2,2,07,18,77,281,46,23,50,315,45,24,49,137,46,,,,*40
###2023-11-09 13:06:38.740651$GLGSV,2,1,05,70,50,016,36,71,48,288,47,80,17,091,44,85,58,203,47*6C
###2023-11-09 13:06:38.742251$GLGSV,2,2,05,86,52,309,47,,,,,,,,,,,,*50
###2023-11-09 13:06:38.744807$GAGSV,1,1,04,07,72,255,45,08,49,042,44,13,64,160,44,26,56,311,45*6C
###2023-11-09 13:06:38.747385$GBGSV,2,1,06,11,24,180,41,14,65,006,46,24,19,133,42,26,23,082,42*66
###2023-11-09 13:06:38.749312$GBGSV,2,2,06,28,43,289,47,33,58,302,47,,,,,,,,*6F
###2023-11-09 13:06:38.750790$GNVTG,357.38,T,,M,0.37,N,0.68,K,A*23
###2023-11-09 13:06:38.837899$GNGGA,130639.00,3611.0439866,N,07544.9794392,W,1,24,0.6,1.076,M,-39.961,M,0.0,*63
###2023-11-09 13:06:38.840504$GPGSV,2,1,07,05,21,090,42,10,18,292,43,13,24,045,42,15,62,037,46*77
###2023-11-09 13:06:38.842769$GPGSV,2,2,07,18,77,281,46,23,50,315,45,24,49,137,46,,,,*40
###2023-11-09 13:06:38.845341$GLGSV,2,1,05,70,50,016,36,71,48,288,47,80,17,091,45,85,58,203,47*6D
###2023-11-09 13:06:38.846967$GLGSV,2,2,05,86,52,309,47,,,,,,,,,,,,*50
###2023-11-09 13:06:38.849538$GAGSV,1,1,04,07,72,255,45,08,49,042,44,13,64,160,44,26,56,311,45*6C
###2023-11-09 13:06:38.852126$GBGSV,2,1,06,11,24,180,41,14,65,006,46,24,19,133,42,26,23,082,42*66
###2023-11-09 13:06:38.854068$GBGSV,2,2,06,28,43,289,47,33,58,302,47,,,,,,,,*6F
###2023-11-09 13:06:38.855538$GNVTG,357.38,T,,M,0.14,N,0.25,K,A*2B
###2023-11-09 13:06:38.933356$GNGGA,130639.10,3611.0439841,N,07544.9794358,W,1,24,0.6,1.077,M,-39.961,M,0.0,*60
###2023-11-09 13:06:38.935942$GPGSV,2,1,07,05,21,090,42,10,18,292,43,13,24,045,42,15,62,037,46*77
###2023-11-09 13:06:38.938244$GPGSV,2,2,07,18,77,281,47,23,50,315,45,24,49,136,46,,,,*40
###2023-11-09 13:06:38.940869$GLGSV,2,1,05,70,50,016,36,71,48,288,48,80,17,091,45,85,58,203,48*6D
###2023-11-09 13:06:38.942497$GLGSV,2,2,05,86,52,309,47,,,,,,,,,,,,*50
###2023-11-09 13:06:38.945063$GAGSV,1,1,04,07,72,255,45,08,49,042,44,13,64,160,44,26,56,311,45*6C
###2023-11-09 13:06:38.947663$GBGSV,2,1,06,11,24,180,41,14,65,006,46,24,19,133,42,26,23,082,42*66
###2023-11-09 13:06:38.949613$GBGSV,2,2,06,28,43,289,47,33,58,302,47,,,,,,,,*6F
###2023-11-09 13:06:38.951084$GNVTG,357.38,T,,M,0.17,N,0.32,K,A*2E
###2023-11-09 13:06:39.032115$GNGGA,130639.20,3611.0439787,N,07544.9794337,W,1,24,0.6,1.077,M,-39.961,M,0.0,*6F
###2023-11-09 13:06:39.034709$GPGSV,2,1,07,05,21,090,42,10,18,292,44,13,24,045,41,15,62,037,46*73
###2023-11-09 13:06:39.036985$GPGSV,2,2,07,18,77,281,47,23,50,315,45,24,49,136,45,,,,*43
###2023-11-09 13:06:39.039547$GLGSV,2,1,05,70,50,016,36,71,48,288,48,80,17,091,45,85,58,203,48*6D
###2023-11-09 13:06:39.041146$GLGSV,2,2,05,86,52,309,47,,,,,,,,,,,,*50
###2023-11-09 13:06:39.043691$GAGSV,1,1,04,07,72,255,45,08,49,042,44,13,64,160,44,26,56,311,45*6C
###2023-11-09 13:06:39.046253$GBGSV,2,1,06,11,24,180,41,14,65,006,46,24,19,133,42,26,23,082,42*66
###2023-11-09 13:06:39.048190$GBGSV,2,2,06,28,43,289,47,33,58,302,47,,,,,,,,*6F
###2023-11-09 13:06:39.049648$GNVTG,357.38,T,,M,0.17,N,0.32,K,A*2E
###2023-11-09 13:06:39.132244$GNGGA,130639.30,3611.0439767,N,07544.9794315,W,1,24,0.6,1.076,M,-39.961,M,0.0,*61
