###2023-11-09 13:10:49.839507$GPGSV,2,2,07,18,78,272,46,23,51,317,45,24,51,133,46,,,,*4D
###2023-11-09 13:10:49.842109$GLGSV,2,1,05,70,49,019,36,71,48,291,49,80,19,089,45,85,56,202,49*6A
###2023-11-09 13:10:49.843725$GLGSV,2,2,05,86,54,306,47,,,,,,,,,,,,*59
###2023-11-09 13:10:49.846281$GAGSV,1,1,04,07,73,261,45,08,47,043,45,13,62,161,45,26,57,310,44*63
###2023-11-09 13:10:49.848900$GBGSV,2,1,06,11,22,180,41,14,65,009,45,24,21,132,43,26,23,080,44*63
###2023-11-09 13:10:49.850842$GBGSV,2,2,06,28,43,286,46,33,59,305,47,,,,,,,,*67
###2023-11-09 13:10:49.852304$GNVTG,327.77,T,,M,4.12,N,7.63,K,A*20
###2023-11-09 13:10:49.932257$GNGGA,131050.10,3611.0746947,N,07544.8935608,W,1,24,0.6,0.297,M,-39.960,M,0.0,*6C
###2023-11-09 13:10:49.934860$GPGSV,2,1,07,05,20,091,43,10,19,294,42,13,23,045,42,15,60,038,46*7A
###2023-11-09 13:10:49.937124$GPGSV,2,2,07,18,78,272,46,23,51,317,45,24,51,133,45,,,,*4E
###2023-11-09 13:10:49.939702$GLGSV,2,1,05,70,49,019,35,71,48,291,49,80,19,089,45,85,56,202,49*69
###2023-11-09 13:10:49.941315$GLGSV,2,2,05,86,54,306,47,,,,,,,,,,,,*59
###2023-11-09 13:10:49.943890$GAGSV,1,1,04,07,73,261,45,08,47,043,45,13,62,161,45,26,57,310,44*63
###2023-11-09 13:10:49.946469$GBGSV,2,1,06,11,22,180,41,14,65,009,45,24,21,132,43,26,23,080,45*62
###2023-11-09 13:10:49.948420$GBGSV,2,2,06,28,43,286,46,33,59,305,47,,,,,,,,*67
###2023-11-09 13:10:49.949884$GNVTG,328.62,T,,M,4.14,N,7.67,K,A*29
###2023-11-09 13:10:50.034366$GNGGA,131050.20,3611.0747907,N,07544.8936346,W,1,24,0.6,0.291,M,-39.960,M,0.0,*60
###2023-11-09 13:10:50.036983$GPGSV,2,1,07,05,20,091,43,10,19,294,42,13,23,045,42,15,60,038,46*7A
###2023-11-09 13:10:50.039248$GPGSV,2,2,07,18,78,272,46,23,51,317,45,24,51,133,46,,,,*4D
###2023-11-09 13:10:50.041820$GLGSV,2,1,05,70,49,019,35,71,48,291,48,80,19,089,45,85,56,202,49*68
###2023-11-09 13:10:50.043426$GLGSV,2,2,05,86,54,306,47,,,,,,,,,,,,*59
###2023-11-09 13:10:50.045996$GAGSV,1,1,04,07,73,261,45,08,47,043,45,13,62,161,45,26,57,310,44*63
###2023-11-09 13:10:50.048592$GBGSV,2,1,06,11,22,180,41,14,65,009,45,24,21,132,43,26,23,080,45*62
###2023-11-09 13:10:50.050530$GBGSV,2,2,06,28,43,286,46,33,59,305,47,,,,,,,,*67
###2023-11-09 13:10:50.051993$GNVTG,327.87,T,,M,3.98,N,7.38,K,A*24
###2023-11-09 13:10:50.134591$GNGGA,131050.30,3611.0748801,N,07544.8937117,W,1,24,0.6,0.288,M,-39.960,M,0.0,*66
###2023-11-09 13:10:50.137202$GPGSV,2,1,07,05,20,091,44,10,19,294,41,13,23,045,43,15,60,038,46*7F
###2023-11-09 13:10:50.139452$GPGSV,2,2,07,18,78,272,46,23,51,317,45,24,51,133,46,,,,*4D
###2023-11-09 13:10:50.142009$GLGSV,2,1,05,70,49,019,35,71,48,291,48,80,19,089,46,85,56,202,48*6A
###2023-11-09 13:10:50.143609$GLGSV,2,2,05,86,54,306,48,,,,,,,,,,,,*56
###2023-11-09 13:10:50.146178$GAGSV,1,1,04,07,73,261,45,08,47,043,45,13,62,161,45,26,57,310,44*63
###2023-11-09 13:10:50.148763$GBGSV,2,1,06,11,22,180,40,14,65,009,45,24,21,132,44,26,23,080,45*64
###2023-11-09 13:10:50.150697$GBGSV,2,2,06,28,43,286,45,33,59,305,47,,,,,,,,*64
###2023-11-09 13:10:50.152154$GNVTG,322.30,T,,M,3.89,N,7.20,K,A*24
###2023-11-09 13:10:50.231722$GNGGA,131050.40,3611.0749595,N,07544.8937969,W,1,24,0.6,0.271,M,-39.960,M,0.0,*67
###2023-11-09 13:10:50.234317$GPGSV,2,1,07,05,20,091,44,10,19,294,41,13,23,045,43,15,60,038,46*7F
###2023-11-09 13:10:50.236570$GPGSV,2,2,07,18,78,272,46,23,51,317,45,24,51,133,45,,,,*4E
###2023-11-09 13:10:50.239165$GLGSV,2,1,05,70,49,019,35,71,48,291,48,80,19,089,46,85,56,202,48*6A
###2023-11-09 13:10:50.240776$GLGSV,2,2,05,86,54,306,48,,,,,,,,,,,,*56
###2023-11-09 13:10:50.243354$GAGSV,1,1,04,07,73,261,44,08,47,043,45,13,62,161,45,26,57,310,44*62
###2023-11-09 13:10:50.245943$GBGSV,2,1,06,11,22,180,40,14,65,009,45,24,21,132,44,26,23,080,45*64
###2023-11-09 13:10:50.247901$GBGSV,2,2,06,28,43,286,46,33,59,305,47,,,,,,,,*67
###2023-11-09 13:10:50.249373$GNVTG,316.24,T,,M,3.69,N,6.84,K,A*27
###2023-11-09 13:10:50.332983$GNGGA,131050.50,3611.0750282,N,07544.8938872,W,1,24,0.6,0.248,M,-39.960,M,0.0,*61
###2023-11-09 13:10:50.335573$GPGSV,2,1,07,05,20,091,43,10,19,294,41,13,23,045,43,15,60,038,46*78
###2023-11-09 13:10:50.337851$GPGSV,2,2,07,18,78,272,47,23,51,317,45,24,51,133,45,,,,*4F
###2023-11-09 13:10:50.340428$GLGSV,2,1,05,70,49,019,35,71,48,291,48,80,19,089,46,85,56,202,48*6A
###2023-11-09 13:10:50.342039$GLGSV,2,2,05,86,54,306,48,,,,,,,,,,,,*56
###2023-11-09 13:10:50.344618$GAGSV,1,1,04,07,73,261,44,08,47,043,45,13,62,161,45,26,57,310,45*63
###2023-11-09 13:10:50.347203$GBGSV,2,1,06,11,22,180,40,14,65,009,45,24,21,132,43,26,23,080,44*62
###2023-11-09 13:10:50.349134$GBGSV,2,2,06,28,43,286,46,33,59,305,47,,,,,,,,*67
###2023-11-09 13:10:50.350595$GNVTG,310.57,T,,M,3.54,N,6.55,K,A*27
###2023-11-09 13:10:50.431835$GNGGA,131050.60,3611.0750914,N,07544.8939788,W,1,24,0.6,0.218,M,-39.960,M,0.0,*68
###2023-11-09 13:10:50.434406$GPGSV,2,1,07,05,20,091,42,10,19,294,41,13,23,045,41,15,60,038,46*7B
###2023-11-09 13:10:50.436645$GPGSV,2,2,07,18,78,272,46,23,51,317,45,24,51,133,46,,,,*4D
###2023-11-09 13:10:50.439210$GLGSV,2,1,05,70,49,019,35,71,48,291,48,80,19,089,45,85,56,202,49*68
###2023-11-09 13:10:50.440804$GLGSV,2,2,05,86,54,306,48,,,,,,,,,,,,*56
###2023-11-09 13:10:50.443350$GAGSV,1,1,04,07,73,261,45,08,47,043,44,13,62,161,45,26,57,310,45*63
###2023-11-09 13:10:50.445903$GBGSV,2,1,06,11,22,180,42,14,65,009,45,24,21,132,44,26,23,080,44*67
###2023-11-09 13:10:50.447834$GBGSV,2,2,06,28,43,286,46,33,59,305,47,,,,,,,,*67
###2023-11-09 13:10:50.449288$GNVTG,310.83,T,,M,3.46,N,6.41,K,A*28
###2023-11-09 13:10:50.531624$GNGGA,131050.70,3611.0751610,N,07544.8940634,W,1,24,0.6,0.199,M,-39.960,M,0.0,*61
###2023-11-09 13:10:50.534231$GPGSV,2,1,07,05,20,091,42,10,19,294,43,13,23,045,41,15,60,038,45*7A
###2023-11-09 13:10:50.536484$GPGSV,2,2,07,18,78,272,46,23,51,317,45,24,51,133,46,,,,*4D
###2023-11-09 13:10:50.539089$GLGSV,2,1,05,70,49,019,35,71,48,291,48,80,19,089,45,85,56,202,50*60
###2023-11-09 13:10:50.540698$GLGSV,2,2,05,86,54,306,48,,,,,,,,,,,,*56
###2023-11-09 13:10:50.543260$GAGSV,1,1,04,07,73,261,45,08,47,043,44,13,62,161,46,26,57,310,45*60
###2023-11-09 13:10:50.545827$GBGSV,2,1,06,11,22,180,43,14,65,009,45,24,21,132,45,26,23,080,43*60
###2023-11-09 13:10:50.547775$GBGSV,2,2,06,28,43,286,46,33,59,305,47,,,,,,,,*67
###2023-11-09 13:10:50.549238$GNVTG,320.16,T,,M,3.60,N,6.66,K,A*26
###2023-11-09 13:10:50.631606$GNGGA,131050.80,3611.0752438,N,07544.8941404,W,1,24,0.6,0.198,M,-39.960,M,0.0,*64
###2023-11-09 13:10:50.634179$GPGSV,2,1,07,05,20,091,42,10,19,294,42,13,23,045,41,15,60,038,46*78
###2023-11-09 13:10:50.636436$GPGSV,2,2,07,18,78,272,46,23,51,317,45,24,51,133,46,,,,*4D
###2023-11-09 13:10:50.639025$GLGSV,2,1,05,70,49,019,35,71,48,291,48,80,19,089,45,85,56,202,50*60
###2023-11-09 13:10:50.640627$GLGSV,2,2,05,86,54,306,48,,,,,,,,,,,,*56
###2023-11-09 13:10:50.643199$GAGSV,1,1,04,07,73,261,45,08,47,043,44,13,62,161,46,26,57,310,45*60
###2023-11-09 13:10:50.645788$GBGSV,2,1,06,11,22,180,43,14,65,009,45,24,21,132,45,26,23,080,44*67
###2023-11-09 13:10:50.647738$GBGSV,2,2,06,28,43,286,46,33,59,305,47,,,,,,,,*67
###2023-11-09 13:10:50.649209$GNVTG,325.90,T,,M,3.87,N,7.16,K,A*22
###2023-11-09 13:10:50.731592$GNGGA,131050.90,3611.0753324,N,07544.8942154,W,1,24,0.6,0.205,M,-39.960,M,0.0,*6A
###2023-11-09 13:10:50.734173$GPGSV,2,1,07,05,20,091,44,10,19,294,42,13,23,045,43,15,60,038,46*7C
###2023-11-09 13:10:50.736421$GPGSV,2,2,07,18,78,272,46,23,51,317,45,24,51,133,46,,,,*4D
###2023-11-09 13:10:50.739031$GLGSV,2,1,05,70,49,019,35,71,48,291,48,80,19,089,45,85,56,202,49*68
###2023-11-09 13:10:50.740640$GLGSV,2,2,05,86,54,306,48,,,,,,,,,,,,*56
###2023-11-09 13:10:50.743199$GAGSV,1,1,04,07,73,261,45,08,47,043,45,13,62,161,45,26,57,310,45*62
###2023-11-09 13:10:50.745769$GBGSV,2,1,06,11,22,180,42,14,65,009,45,24,21,132,45,26,23,080,45*67
###2023-11-09 13:10:50.747709$GBGSV,2,2,06,28,43,286,46,33,59,305,47,,,,,,,,*67
###2023-11-09 13:10:50.749173$GNVTG,325.43,T,,M,3.87,N,7.16,K,A*2C
###2023-11-09 13:10:50.832606$GNGGA,131051.00,3611.0754171,N,07544.8942955,W,1,24,0.6,0.211,M,-39.960,M,0.0,*6B
###2023-11-09 13:10:50.835192$GPGSV,2,1,07,05,20,091,44,10,19,294,41,13,23,045,44,15,60,038,46*78
###2023-11-09 13:10:50.837765$GPGSV,2,2,07,18,78,272,46,23,51,317,45,24,51,133,46,,,,*4D
###2023-11-09 13:10:50.840335$GLGSV,2,1,05,70,49,019,35,71,48,291,48,80,19,089,46,85,56,202,48*6A
###2023-11-09 13:10:50.841940$GLGSV,2,2,05,86,54,306,48,,,,,,,,,,,,*56
###2023-11-09 13:10:50.844507$GAGSV,1,1,04,07,73,261,45,08,47,043,46,13,62,161,45,26,57,310,45*61
###2023-11-09 13:10:50.847096$GBGSV,2,1,06,11,22,180,40,14,65,009,45,24,21,132,44,26,23,080,45*64
###2023-11-09 13:10:50.849038$GBGSV,2,2,06,28,43,286,46,33,59,305,47,,,,,,,,*67
###2023-11-09 13:10:50.850506$GNVTG,319.93,T,,M,3.85,N,7.13,K,A*29
###2023-11-09 13:10:50.931607$GNGGA,131051.10,3611.0754919,N,07544.8943860,W,1,24,0.6,0.215,M,-39.960,M,0.0,*6E
###2023-11-09 13:10:50.934189$GPGSV,2,1,07,05,20,091,44,10,19,294,41,13,23,045,44,15,60,038,47*79
###2023-11-09 13:10:50.936444$GPGSV,2,2,07,18,78,272,46,23,51,317,46,24,51,133,45,,,,*4D
