###2023-11-09 13:09:31.744456$GBGSV,2,1,06,11,22,180,41,14,65,008,45,24,20,132,41,26,23,081,42*66
###2023-11-09 13:09:31.746424$GBGSV,2,2,06,28,43,287,47,33,59,304,47,,,,,,,,*66
###2023-11-09 13:09:31.747923$GNVTG,92.49,T,,M,2.90,N,5.36,K,A*1E
###2023-11-09 13:09:31.832633$GNGGA,130932.00,3611.0338883,N,07544.9428430,W,1,24,0.6,0.657,M,-39.961,M,0.0,*65
###2023-11-09 13:09:31.835222$GPGSV,2,1,07,05,20,090,41,10,19,293,42,13,24,045,41,15,61,037,45*77
###2023-11-09 13:09:31.837486$GPGSV,2,2,07,18,78,277,47,23,50,316,45,24,50,134,45,,,,*4C
###2023-11-09 13:09:31.840057$GLGSV,2,1,05,70,50,017,35,71,48,290,48,80,18,090,42,85,57,203,49*61
###2023-11-09 13:09:31.841657$GLGSV,2,2,05,86,53,308,47,,,,,,,,,,,,*50
###2023-11-09 13:09:31.844218$GAGSV,1,1,04,07,73,259,45,08,48,043,44,13,63,161,44,26,57,310,44*66
###2023-11-09 13:09:31.846793$GBGSV,2,1,06,11,22,180,41,14,65,008,45,24,20,132,43,26,23,081,42*64
###2023-11-09 13:09:31.848740$GBGSV,2,2,06,28,43,287,47,33,59,304,47,,,,,,,,*66
###2023-11-09 13:09:31.850170$GNVTG,90.66,T,,M,2.92,N,5.40,K,A*12
###2023-11-09 13:09:31.938643$GNGGA,130932.10,3611.0338913,N,07544.9427448,W,1,24,0.6,0.625,M,-39.961,M,0.0,*69
###2023-11-09 13:09:31.941250$GPGSV,2,1,07,05,20,090,41,10,19,293,42,13,24,045,41,15,61,037,45*77
###2023-11-09 13:09:31.943517$GPGSV,2,2,07,18,78,277,47,23,50,316,45,24,50,134,46,,,,*4F
###2023-11-09 13:09:31.946094$GLGSV,2,1,05,70,50,017,35,71,48,290,48,80,18,090,42,85,57,203,50*69
###2023-11-09 13:09:31.947742$GLGSV,2,2,05,86,53,308,46,,,,,,,,,,,,*51
###2023-11-09 13:09:31.950309$GAGSV,1,1,04,07,73,259,45,08,48,043,44,13,63,161,44,26,57,310,44*66
###2023-11-09 13:09:31.952884$GBGSV,2,1,06,11,22,180,43,14,65,009,45,24,20,132,44,26,23,081,42*60
###2023-11-09 13:09:31.954810$GBGSV,2,2,06,28,43,287,47,33,59,304,47,,,,,,,,*66
###2023-11-09 13:09:31.956240$GNVTG,84.02,T,,M,2.86,N,5.29,K,A*1F
###2023-11-09 13:09:32.033876$GNGGA,130932.20,3611.0339037,N,07544.9426482,W,1,24,0.6,0.603,M,-39.961,M,0.0,*67
###2023-11-09 13:09:32.036473$GPGSV,2,1,07,05,20,090,41,10,19,293,42,13,24,045,41,15,61,037,45*77
###2023-11-09 13:09:32.038754$GPGSV,2,2,07,18,78,277,47,23,50,316,45,24,50,134,46,,,,*4F
###2023-11-09 13:09:32.041323$GLGSV,2,1,05,70,50,017,35,71,48,290,47,80,18,090,43,85,57,203,50*67
###2023-11-09 13:09:32.042928$GLGSV,2,2,05,86,53,308,47,,,,,,,,,,,,*50
###2023-11-09 13:09:32.045487$GAGSV,1,1,04,07,73,259,45,08,48,043,44,13,63,161,44,26,57,310,44*66
###2023-11-09 13:09:32.048080$GBGSV,2,1,06,11,22,180,43,14,65,009,45,24,20,132,45,26,23,081,42*61
###2023-11-09 13:09:32.050020$GBGSV,2,2,06,28,43,287,47,33,59,304,47,,,,,,,,*66
###2023-11-09 13:09:32.051452$GNVTG,77.35,T,,M,2.90,N,5.36,K,A*1E
###2023-11-09 13:09:32.133207$GNGGA,130932.30,3611.0339221,N,07544.9425525,W,1,23,0.6,0.596,M,-39.961,M,0.0,*64
###2023-11-09 13:09:32.135769$GPGSV,2,1,07,05,20,090,41,10,19,293,43,13,24,045,41,15,61,037,45*76
###2023-11-09 13:09:32.138026$GPGSV,2,2,07,18,78,277,47,23,50,316,45,24,50,134,46,,,,*4F
###2023-11-09 13:09:32.140581$GLGSV,1,1,04,71,48,290,47,80,18,090,43,85,57,203,49,86,53,308,47*6F
###2023-11-09 13:09:32.143140$GAGSV,1,1,04,07,73,259,45,08,48,043,44,13,63,161,44,26,57,310,44*66
###2023-11-09 13:09:32.145691$GBGSV,2,1,06,11,22,180,42,14,65,009,45,24,20,132,45,26,23,081,42*60
###2023-11-09 13:09:32.147627$GBGSV,2,2,06,28,43,287,47,33,59,304,47,,,,,,,,*66
###2023-11-09 13:09:32.149044$GNVTG,75.21,T,,M,2.90,N,5.36,K,A*19
###2023-11-09 13:09:32.229757$GNGGA,130932.40,3611.0339422,N,07544.9424570,W,1,23,0.6,0.599,M,-39.961,M,0.0,*68
###2023-11-09 13:09:32.232351$GPGSV,2,1,07,05,20,090,41,10,19,293,44,13,24,045,41,15,61,037,45*71
###2023-11-09 13:09:32.234606$GPGSV,2,2,07,18,78,277,47,23,50,316,45,24,50,134,46,,,,*4F
###2023-11-09 13:09:32.237198$GLGSV,1,1,04,71,48,290,49,80,18,090,43,85,57,203,49,86,53,308,47*61
###2023-11-09 13:09:32.239771$GAGSV,1,1,04,07,73,259,45,08,48,043,44,13,63,161,45,26,57,310,44*67
###2023-11-09 13:09:32.242349$GBGSV,2,1,06,11,22,180,41,14,65,009,45,24,20,132,44,26,23,081,42*62
###2023-11-09 13:09:32.244284$GBGSV,2,2,06,28,43,287,47,33,59,304,47,,,,,,,,*66
###2023-11-09 13:09:32.245713$GNVTG,75.01,T,,M,2.90,N,5.36,K,A*1B
###2023-11-09 13:09:32.329249$GNGGA,130932.50,3611.0339587,N,07544.9423596,W,1,24,0.6,0.609,M,-39.961,M,0.0,*65
###2023-11-09 13:09:32.331828$GPGSV,2,1,07,05,20,090,41,10,19,293,45,13,24,045,42,15,61,037,45*73
###2023-11-09 13:09:32.334073$GPGSV,2,2,07,18,78,277,47,23,50,316,45,24,50,134,46,,,,*4F
###2023-11-09 13:09:32.336637$GLGSV,2,1,05,70,50,017,35,71,48,290,48,80,18,090,43,85,57,203,48*61
###2023-11-09 13:09:32.338258$GLGSV,2,2,05,86,53,308,47,,,,,,,,,,,,*50
###2023-11-09 13:09:32.340824$GAGSV,1,1,04,07,73,259,45,08,48,043,44,13,63,161,44,26,57,310,44*66
###2023-11-09 13:09:32.343398$GBGSV,2,1,06,11,22,180,40,14,65,009,45,24,20,132,44,26,23,081,42*63
###2023-11-09 13:09:32.345332$GBGSV,2,2,06,28,43,287,47,33,59,304,47,,,,,,,,*66
###2023-11-09 13:09:32.346759$GNVTG,80.53,T,,M,2.94,N,5.44,K,A*17
###2023-11-09 13:09:32.429252$GNGGA,130932.60,3611.0339675,N,07544.9422603,W,1,24,0.6,0.622,M,-39.961,M,0.0,*6F
###2023-11-09 13:09:32.431841$GPGSV,2,1,07,05,20,090,41,10,19,293,45,13,24,045,42,15,61,037,45*73
###2023-11-09 13:09:32.434099$GPGSV,2,2,07,18,78,277,47,23,50,316,45,24,50,134,45,,,,*4C
###2023-11-09 13:09:32.436666$GLGSV,2,1,05,70,50,017,35,71,48,290,49,80,18,090,43,85,57,203,48*60
###2023-11-09 13:09:32.438277$GLGSV,2,2,05,86,53,308,47,,,,,,,,,,,,*50
###2023-11-09 13:09:32.440829$GAGSV,1,1,04,07,73,259,45,08,48,043,44,13,63,161,44,26,57,310,44*66
###2023-11-09 13:09:32.443399$GBGSV,2,1,06,11,22,180,40,14,65,009,45,24,20,132,43,26,23,081,42*64
###2023-11-09 13:09:32.445342$GBGSV,2,2,06,28,43,287,47,33,59,304,47,,,,,,,,*66
###2023-11-09 13:09:32.446768$GNVTG,86.04,T,,M,2.92,N,5.40,K,A*11
###2023-11-09 13:09:32.528678$GNGGA,130932.70,3611.0339709,N,07544.9421616,W,1,24,0.6,0.642,M,-39.961,M,0.0,*65
###2023-11-09 13:09:32.531283$GPGSV,2,1,07,05,20,090,41,10,19,293,44,13,24,045,42,15,61,037,45*72
###2023-11-09 13:09:32.533540$GPGSV,2,2,07,18,78,277,47,23,50,316,45,24,50,134,45,,,,*4C
###2023-11-09 13:09:32.536115$GLGSV,2,1,05,70,50,017,35,71,48,290,49,80,18,090,43,85,57,203,48*60
###2023-11-09 13:09:32.537733$GLGSV,2,2,05,86,53,308,47,,,,,,,,,,,,*50
###2023-11-09 13:09:32.540305$GAGSV,1,1,04,07,73,259,45,08,48,043,44,13,63,161,44,26,57,310,44*66
###2023-11-09 13:09:32.542890$GBGSV,2,1,06,11,22,180,40,14,65,009,45,24,20,132,43,26,23,081,42*64
###2023-11-09 13:09:32.544829$GBGSV,2,2,06,28,43,287,46,33,59,304,47,,,,,,,,*67
###2023-11-09 13:09:32.546250$GNVTG,88.04,T,,M,2.88,N,5.33,K,A*10
###2023-11-09 13:09:32.629642$GNGGA,130932.80,3611.0339743,N,07544.9420660,W,1,24,0.6,0.655,M,-39.961,M,0.0,*62
###2023-11-09 13:09:32.632235$GPGSV,2,1,07,05,20,090,41,10,19,293,43,13,24,045,41,15,61,037,45*76
###2023-11-09 13:09:32.634494$GPGSV,2,2,07,18,78,277,47,23,50,316,45,24,50,134,45,,,,*4C
###2023-11-09 13:09:32.637077$GLGSV,2,1,05,70,50,017,35,71,48,290,48,80,18,090,43,85,57,203,48*61
###2023-11-09 13:09:32.638685$GLGSV,2,2,05,86,53,308,47,,,,,,,,,,,,*50
###2023-11-09 13:09:32.641251$GAGSV,1,1,04,07,73,259,45,08,48,043,44,13,63,161,44,26,57,310,44*66
###2023-11-09 13:09:32.643831$GBGSV,2,1,06,11,22,180,40,14,65,009,45,24,20,132,43,26,23,081,42*64
###2023-11-09 13:09:32.645768$GBGSV,2,2,06,28,43,287,46,33,59,304,47,,,,,,,,*67
###2023-11-09 13:09:32.647209$GNVTG,85.80,T,,M,2.74,N,5.08,K,A*1A
###2023-11-09 13:09:32.806508$GNGGA,130932.90,3611.0339833,N,07544.9419746,W,1,24,0.6,0.660,M,-39.961,M,0.0,*62
###2023-11-09 13:09:32.809134$GPGSV,2,1,07,05,20,090,41,10,19,293,43,13,24,045,41,15,61,037,45*76
###2023-11-09 13:09:32.811394$GPGSV,2,2,07,18,78,277,47,23,50,316,45,24,50,134,46,,,,*4F
###2023-11-09 13:09:32.813963$GLGSV,2,1,05,70,50,017,35,71,48,290,48,80,18,090,43,85,57,203,48*61
###2023-11-09 13:09:32.815574$GLGSV,2,2,05,86,53,308,47,,,,,,,,,,,,*50
###2023-11-09 13:09:32.818164$GAGSV,1,1,04,07,73,259,45,08,48,043,44,13,63,161,44,26,57,310,44*66
###2023-11-09 13:09:32.820742$GBGSV,2,1,06,11,22,180,41,14,65,009,45,24,20,132,44,26,23,081,42*62
###2023-11-09 13:09:32.822676$GBGSV,2,2,06,28,43,287,47,33,59,304,46,,,,,,,,*67
###2023-11-09 13:09:32.824411$GNVTG,79.35,T,,M,2.66,N,4.93,K,A*17
###2023-11-09 13:09:32.832282$GNGGA,130933.00,3611.0339998,N,07544.9418859,W,1,24,0.6,0.665,M,-39.961,M,0.0,*6F
###2023-11-09 13:09:32.834874$GPGSV,2,1,07,05,20,090,41,10,19,293,42,13,24,045,41,15,61,037,45*77
###2023-11-09 13:09:32.837155$GPGSV,2,2,07,18,78,277,47,23,50,316,45,24,50,134,46,,,,*4F
###2023-11-09 13:09:32.839740$GLGSV,2,1,05,70,50,017,35,71,48,290,48,80,18,090,43,85,57,203,48*61
###2023-11-09 13:09:32.841358$GLGSV,2,2,05,86,53,308,47,,,,,,,,,,,,*50
###2023-11-09 13:09:32.843925$GAGSV,1,1,04,07,73,259,45,08,48,043,44,13,63,161,44,26,57,310,44*66
###2023-11-09 13:09:32.846499$GBGSV,2,1,06,11,22,180,42,14,65,009,44,24,20,132,44,26,23,081,42*60
###2023-11-09 13:09:32.848450$GBGSV,2,2,06,28,43,287,46,33,59,304,46,,,,,,,,*66
###2023-11-09 13:09:32.849885$GNVTG,73.95,T,,M,2.66,N,4.93,K,A*17
