###2023-11-09 13:09:08.336684$GPGSV,2,2,07,18,78,277,47,23,50,316,46,24,50,135,45,,,,*4E
###2023-11-09 13:09:08.339316$GLGSV,2,1,05,70,50,017,36,71,48,290,48,80,18,090,45,85,57,203,48*64
###2023-11-09 13:09:08.340938$GLGSV,2,2,05,86,53,308,48,,,,,,,,,,,,*5F
###2023-11-09 13:09:08.343518$GAGSV,1,1,04,07,73,259,46,08,48,043,44,13,63,161,45,26,57,310,45*65
###2023-11-09 13:09:08.346107$GBGSV,2,1,06,11,23,180,43,14,65,008,45,24,20,132,44,26,23,081,43*61
###2023-11-09 13:09:08.348067$GBGSV,2,2,06,28,43,287,47,33,59,304,48,,,,,,,,*69
###2023-11-09 13:09:08.349548$GNVTG,63.87,T,,M,5.62,N,10.40,K,A*2D
###2023-11-09 13:09:08.430382$GNGGA,130908.60,3611.0251048,N,07544.9655798,W,1,24,0.6,0.744,M,-39.962,M,0.0,*62
###2023-11-09 13:09:08.432998$GPGSV,2,1,07,05,20,090,43,10,19,293,43,13,24,045,41,15,61,037,45*74
###2023-11-09 13:09:08.435268$GPGSV,2,2,07,18,78,277,47,23,50,316,46,24,50,135,45,,,,*4E
###2023-11-09 13:09:08.437861$GLGSV,2,1,05,70,50,017,36,71,48,290,48,80,18,090,45,85,57,203,48*64
###2023-11-09 13:09:08.439477$GLGSV,2,2,05,86,53,308,48,,,,,,,,,,,,*5F
###2023-11-09 13:09:08.442039$GAGSV,1,1,04,07,73,259,46,08,48,043,44,13,63,161,45,26,57,310,45*65
###2023-11-09 13:09:08.444618$GBGSV,2,1,06,11,23,180,43,14,65,008,45,24,20,132,44,26,23,081,43*61
###2023-11-09 13:09:08.446555$GBGSV,2,2,06,28,43,287,47,33,59,304,48,,,,,,,,*69
###2023-11-09 13:09:08.448030$GNVTG,62.97,T,,M,5.64,N,10.44,K,A*2F
###2023-11-09 13:09:08.530772$GNGGA,130908.70,3611.0251770,N,07544.9654092,W,1,24,0.6,0.748,M,-39.962,M,0.0,*6F
###2023-11-09 13:09:08.533376$GPGSV,2,1,07,05,20,090,43,10,19,293,43,13,24,045,41,15,61,037,45*74
###2023-11-09 13:09:08.535643$GPGSV,2,2,07,18,78,277,47,23,50,316,46,24,50,135,45,,,,*4E
###2023-11-09 13:09:08.538251$GLGSV,2,1,05,70,50,017,36,71,48,290,48,80,18,090,45,85,57,203,49*65
###2023-11-09 13:09:08.539871$GLGSV,2,2,05,86,53,308,48,,,,,,,,,,,,*5F
###2023-11-09 13:09:08.542445$GAGSV,1,1,04,07,73,259,46,08,48,043,44,13,63,161,45,26,57,310,45*65
###2023-11-09 13:09:08.545030$GBGSV,2,1,06,11,23,180,43,14,65,008,45,24,20,132,45,26,23,081,43*60
###2023-11-09 13:09:08.546988$GBGSV,2,2,06,28,43,287,47,33,59,304,48,,,,,,,,*69
###2023-11-09 13:09:08.548462$GNVTG,62.01,T,,M,5.62,N,10.40,K,A*22
###2023-11-09 13:09:08.631380$GNGGA,130908.80,3611.0252511,N,07544.9652421,W,1,24,0.6,0.752,M,-39.962,M,0.0,*67
###2023-11-09 13:09:08.633974$GPGSV,2,1,07,05,20,090,43,10,19,293,43,13,24,045,41,15,61,037,45*74
###2023-11-09 13:09:08.636233$GPGSV,2,2,07,18,78,277,47,23,50,316,46,24,50,135,45,,,,*4E
###2023-11-09 13:09:08.638833$GLGSV,2,1,05,70,50,017,36,71,48,290,47,80,18,090,45,85,57,203,49*6A
###2023-11-09 13:09:08.640449$GLGSV,2,2,05,86,53,308,48,,,,,,,,,,,,*5F
###2023-11-09 13:09:08.643034$GAGSV,1,1,04,07,73,259,46,08,48,043,44,13,63,161,45,26,57,310,45*65
###2023-11-09 13:09:08.645620$GBGSV,2,1,06,11,23,180,43,14,65,008,45,24,20,132,45,26,23,081,43*60
###2023-11-09 13:09:08.647582$GBGSV,2,2,06,28,43,287,47,33,59,304,48,,,,,,,,*69
###2023-11-09 13:09:08.649052$GNVTG,60.81,T,,M,5.54,N,10.26,K,A*2D
###2023-11-09 13:09:08.730978$GNGGA,130908.90,3611.0253278,N,07544.9650798,W,1,24,0.6,0.755,M,-39.962,M,0.0,*6B
###2023-11-09 13:09:08.733561$GPGSV,2,1,07,05,20,090,43,10,19,293,43,13,24,045,41,15,61,037,45*74
###2023-11-09 13:09:08.735810$GPGSV,2,2,07,18,78,277,47,23,50,316,46,24,50,135,45,,,,*4E
###2023-11-09 13:09:08.738391$GLGSV,2,1,05,70,50,017,36,71,48,290,47,80,18,090,45,85,57,203,49*6A
###2023-11-09 13:09:08.739992$GLGSV,2,2,05,86,53,308,48,,,,,,,,,,,,*5F
###2023-11-09 13:09:08.742557$GAGSV,1,1,04,07,73,259,46,08,48,043,44,13,63,161,45,26,57,310,45*65
###2023-11-09 13:09:08.745129$GBGSV,2,1,06,11,23,180,43,14,65,008,44,24,20,132,45,26,23,081,43*61
###2023-11-09 13:09:08.747074$GBGSV,2,2,06,28,43,287,47,33,59,304,48,,,,,,,,*69
###2023-11-09 13:09:08.748545$GNVTG,58.86,T,,M,5.46,N,10.12,K,A*25
###2023-11-09 13:09:08.832017$GNGGA,130909.00,3611.0254069,N,07544.9649221,W,1,24,0.6,0.762,M,-39.962,M,0.0,*6D
###2023-11-09 13:09:08.834630$GPGSV,2,1,07,05,20,090,43,10,19,293,43,13,24,045,41,15,61,037,45*74
###2023-11-09 13:09:08.836897$GPGSV,2,2,07,18,78,277,47,23,50,316,46,24,50,135,45,,,,*4E
###2023-11-09 13:09:08.839510$GLGSV,2,1,05,70,50,017,36,71,48,290,47,80,18,090,45,85,57,203,49*6A
###2023-11-09 13:09:08.841126$GLGSV,2,2,05,86,53,308,48,,,,,,,,,,,,*5F
###2023-11-09 13:09:08.843709$GAGSV,1,1,04,07,73,259,46,08,48,043,44,13,63,161,45,26,57,310,45*65
###2023-11-09 13:09:08.846308$GBGSV,2,1,06,11,23,180,43,14,65,008,44,24,20,132,45,26,23,081,43*61
###2023-11-09 13:09:08.848267$GBGSV,2,2,06,28,43,287,47,33,59,304,48,,,,,,,,*69
###2023-11-09 13:09:08.849710$GNVTG,57.80,T,,M,5.38,N,9.97,K,A*10
###2023-11-09 13:09:08.930757$GNGGA,130909.10,3611.0254862,N,07544.9647657,W,1,24,0.6,0.775,M,-39.962,M,0.0,*62
###2023-11-09 13:09:08.933350$GPGSV,2,1,07,05,20,090,43,10,19,293,43,13,24,045,41,15,61,037,45*74
###2023-11-09 13:09:08.935608$GPGSV,2,2,07,18,78,277,47,23,50,316,46,24,50,135,45,,,,*4E
###2023-11-09 13:09:08.938211$GLGSV,2,1,05,70,50,017,36,71,48,290,47,80,18,090,44,85,57,203,49*6B
###2023-11-09 13:09:08.939833$GLGSV,2,2,05,86,53,308,48,,,,,,,,,,,,*5F
###2023-11-09 13:09:08.942408$GAGSV,1,1,04,07,73,259,46,08,48,043,44,13,63,161,45,26,57,310,45*65
###2023-11-09 13:09:08.945002$GBGSV,2,1,06,11,23,180,43,14,65,008,44,24,20,132,45,26,23,081,43*61
###2023-11-09 13:09:08.946964$GBGSV,2,2,06,28,43,287,47,33,59,304,48,,,,,,,,*69
###2023-11-09 13:09:08.948440$GNVTG,58.22,T,,M,5.40,N,10.01,K,A*2F
###2023-11-09 13:09:09.032853$GNGGA,130909.20,3611.0255636,N,07544.9646077,W,1,24,0.6,0.789,M,-39.962,M,0.0,*69
###2023-11-09 13:09:09.035434$GPGSV,2,1,07,05,20,090,43,10,19,293,43,13,24,045,41,15,61,037,45*74
###2023-11-09 13:09:09.037707$GPGSV,2,2,07,18,78,277,47,23,50,316,46,24,50,135,45,,,,*4E
###2023-11-09 13:09:09.040272$GLGSV,2,1,05,70,50,017,36,71,48,290,47,80,18,090,44,85,57,203,49*6B
###2023-11-09 13:09:09.041874$GLGSV,2,2,05,86,53,308,49,,,,,,,,,,,,*5E
###2023-11-09 13:09:09.044442$GAGSV,1,1,04,07,73,259,46,08,48,043,44,13,63,161,45,26,57,310,45*65
###2023-11-09 13:09:09.047022$GBGSV,2,1,06,11,23,180,43,14,65,008,44,24,20,132,45,26,23,081,43*61
###2023-11-09 13:09:09.048954$GBGSV,2,2,06,28,43,287,47,33,59,304,48,,,,,,,,*69
###2023-11-09 13:09:09.050421$GNVTG,59.53,T,,M,5.40,N,10.01,K,A*28
###2023-11-09 13:09:09.129274$GNGGA,130909.30,3611.0256392,N,07544.9644474,W,1,24,0.6,0.794,M,-39.962,M,0.0,*69
###2023-11-09 13:09:09.131890$GPGSV,2,1,07,05,20,090,43,10,19,293,43,13,24,045,41,15,61,037,45*74
###2023-11-09 13:09:09.134158$GPGSV,2,2,07,18,78,277,47,23,50,316,46,24,50,135,45,,,,*4E
###2023-11-09 13:09:09.136743$GLGSV,2,1,05,70,50,017,36,71,48,290,47,80,18,090,44,85,57,203,49*6B
###2023-11-09 13:09:09.138379$GLGSV,2,2,05,86,53,308,49,,,,,,,,,,,,*5E
###2023-11-09 13:09:09.140962$GAGSV,1,1,04,07,73,259,46,08,48,043,44,13,63,161,45,26,57,310,45*65
###2023-11-09 13:09:09.143546$GBGSV,2,1,06,11,23,180,43,14,65,008,44,24,20,132,45,26,23,081,43*61
###2023-11-09 13:09:09.145487$GBGSV,2,2,06,28,43,287,47,33,59,304,48,,,,,,,,*69
###2023-11-09 13:09:09.146968$GNVTG,60.02,T,,M,5.44,N,10.08,K,A*2B
###2023-11-09 13:09:09.230246$GNGGA,130909.40,3611.0257152,N,07544.9642860,W,1,24,0.6,0.783,M,-39.962,M,0.0,*68
###2023-11-09 13:09:09.232854$GPGSV,2,1,07,05,20,090,43,10,19,293,43,13,24,045,41,15,61,037,45*74
###2023-11-09 13:09:09.235129$GPGSV,2,2,07,18,78,277,47,23,50,316,46,24,50,135,45,,,,*4E
###2023-11-09 13:09:09.237732$GLGSV,2,1,05,70,50,017,36,71,48,290,47,80,18,090,45,85,57,203,48*6B
###2023-11-09 13:09:09.239350$GLGSV,2,2,05,86,53,308,48,,,,,,,,,,,,*5F
###2023-11-09 13:09:09.241933$GAGSV,1,1,04,07,73,259,46,08,48,043,44,13,63,161,45,26,57,310,45*65
###2023-11-09 13:09:09.244516$GBGSV,2,1,06,11,23,180,43,14,65,008,45,24,20,132,45,26,23,081,43*60
###2023-11-09 13:09:09.246456$GBGSV,2,2,06,28,43,287,47,33,59,304,48,,,,,,,,*69
###2023-11-09 13:09:09.247947$GNVTG,59.95,T,,M,5.48,N,10.15,K,A*2F
###2023-11-09 13:09:09.329258$GNGGA,130909.50,3611.0257916,N,07544.9641258,W,1,24,0.6,0.772,M,-39.962,M,0.0,*6D
###2023-11-09 13:09:09.331846$GPGSV,2,1,07,05,20,090,43,10,19,293,42,13,24,045,41,15,61,037,45*75
###2023-11-09 13:09:09.334409$GPGSV,2,2,07,18,78,277,47,23,50,316,46,24,50,135,45,,,,*4E
###2023-11-09 13:09:09.337004$GLGSV,2,1,05,70,50,017,36,71,48,290,47,80,18,090,45,85,57,203,48*6B
###2023-11-09 13:09:09.338615$GLGSV,2,2,05,86,53,308,48,,,,,,,,,,,,*5F
###2023-11-09 13:09:09.341180$GAGSV,1,1,04,07,73,259,46,08,48,043,44,13,63,161,45,26,57,310,45*65
###2023-11-09 13:09:09.343754$GBGSV,2,1,06,11,23,180,43,14,65,008,45,24,20,132,45,26,23,081,43*60
###2023-11-09 13:09:09.345685$GBGSV,2,2,06,28,43,287,47,33,59,304,48,,,,,,,,*69
###2023-11-09 13:09:09.347124$GNVTG,59.12,T,,M,5.38,N,9.97,K,A*15
###2023-11-09 13:09:09.430248$GNGGA,130909.60,3611.0258699,N,07544.9639691,W,1,24,0.6,0.762,M,-39.962,M,0.0,*66
###2023-11-09 13:09:09.432853$GPGSV,2,1,07,05,20,090,43,10,19,293,42,13,24,045,41,15,61,037,45*75
###2023-11-09 13:09:09.435111$GPGSV,2,2,07,18,78,277,47,23,50,316,46,24,50,135,45,,,,*4E
