###2023-11-09 13:09:09.438071$GLGSV,2,1,05,70,50,017,36,71,48,290,47,80,18,090,45,85,57,203,48*6B
###2023-11-09 13:09:09.439710$GLGSV,2,2,05,86,53,308,48,,,,,,,,,,,,*5F
###2023-11-09 13:09:09.442287$GAGSV,1,1,04,07,73,259,46,08,48,043,44,13,63,161,45,26,57,310,45*65
###2023-11-09 13:09:09.444872$GBGSV,2,1,06,11,23,180,43,14,65,008,45,24,20,132,45,26,23,081,43*60
###2023-11-09 13:09:09.446815$GBGSV,2,2,06,28,43,287,47,33,59,304,48,,,,,,,,*69
###2023-11-09 13:09:09.448268$GNVTG,57.61,T,,M,5.37,N,9.94,K,A*13
###2023-11-09 13:09:09.530250$GNGGA,130909.70,3611.0259509,N,07544.9638158,W,1,24,0.6,0.756,M,-39.962,M,0.0,*68
###2023-11-09 13:09:09.532850$GPGSV,2,1,07,05,20,090,43,10,19,293,42,13,24,045,41,15,61,037,45*75
###2023-11-09 13:09:09.535108$GPGSV,2,2,07,18,78,277,47,23,50,316,46,24,50,135,45,,,,*4E
###2023-11-09 13:09:09.537704$GLGSV,2,1,05,70,50,017,36,71,48,290,47,80,18,090,45,85,57,203,49*6A
###2023-11-09 13:09:09.539326$GLGSV,2,2,05,86,53,308,48,,,,,,,,,,,,*5F
###2023-11-09 13:09:09.541907$GAGSV,1,1,04,07,73,259,46,08,48,043,44,13,63,161,45,26,57,310,45*65
###2023-11-09 13:09:09.544490$GBGSV,2,1,06,11,23,180,43,14,65,008,45,24,20,132,45,26,23,081,44*67
###2023-11-09 13:09:09.546433$GBGSV,2,2,06,28,43,287,47,33,59,304,48,,,,,,,,*69
###2023-11-09 13:09:09.547885$GNVTG,56.34,T,,M,5.35,N,9.90,K,A*14
###2023-11-09 13:09:09.630860$GNGGA,130909.80,3611.0260343,N,07544.9636643,W,1,24,0.6,0.760,M,-39.962,M,0.0,*63
###2023-11-09 13:09:09.633440$GPGSV,2,1,07,05,20,090,43,10,19,293,42,13,24,045,40,15,61,037,45*74
###2023-11-09 13:09:09.635688$GPGSV,2,2,07,18,78,277,47,23,50,316,46,24,50,135,45,,,,*4E
###2023-11-09 13:09:09.638279$GLGSV,2,1,05,70,50,017,36,71,48,290,47,80,18,090,45,85,57,203,49*6A
###2023-11-09 13:09:09.639876$GLGSV,2,2,05,86,53,308,49,,,,,,,,,,,,*5E
###2023-11-09 13:09:09.642436$GAGSV,1,1,04,07,73,259,46,08,48,043,44,13,63,161,45,26,57,310,45*65
###2023-11-09 13:09:09.645003$GBGSV,2,1,06,11,23,180,43,14,65,008,45,24,20,132,45,26,23,081,44*67
###2023-11-09 13:09:09.646943$GBGSV,2,2,06,28,43,287,47,33,59,304,48,,,,,,,,*69
###2023-11-09 13:09:09.648363$GNVTG,55.32,T,,M,5.37,N,9.94,K,A*17
###2023-11-09 13:09:09.729391$GNGGA,130909.90,3611.0261182,N,07544.9635127,W,1,24,0.6,0.770,M,-39.962,M,0.0,*6B
###2023-11-09 13:09:09.731993$GPGSV,2,1,07,05,20,090,43,10,19,293,43,13,24,045,40,15,61,037,45*75
###2023-11-09 13:09:09.734252$GPGSV,2,2,07,18,78,277,47,23,50,316,46,24,50,135,45,,,,*4E
###2023-11-09 13:09:09.736838$GLGSV,2,1,05,70,50,017,36,71,48,290,47,80,18,090,45,85,57,203,48*6B
###2023-11-09 13:09:09.738459$GLGSV,2,2,05,86,53,308,49,,,,,,,,,,,,*5E
###2023-11-09 13:09:09.741041$GAGSV,1,1,04,07,73,259,46,08,48,043,44,13,63,161,45,26,57,310,45*65
###2023-11-09 13:09:09.743617$GBGSV,2,1,06,11,23,180,43,14,65,008,44,24,20,132,45,26,23,081,44*66
###2023-11-09 13:09:09.745557$GBGSV,2,2,06,28,43,287,47,33,59,304,48,,,,,,,,*69
###2023-11-09 13:09:09.747000$GNVTG,55.97,T,,M,5.37,N,9.94,K,A*18
###2023-11-09 13:09:09.833259$GNGGA,130910.00,3611.0262005,N,07544.9633587,W,1,24,0.6,0.777,M,-39.962,M,0.0,*68
###2023-11-09 13:09:09.835872$GPGSV,2,1,07,05,20,090,43,10,19,293,43,13,24,045,40,15,61,037,45*75
###2023-11-09 13:09:09.838161$GPGSV,2,2,07,18,78,277,47,23,50,316,46,24,50,135,45,,,,*4E
###2023-11-09 13:09:09.840741$GLGSV,2,1,05,70,50,017,36,71,48,290,48,80,18,090,45,85,57,203,48*64
###2023-11-09 13:09:09.842361$GLGSV,2,2,05,86,53,308,49,,,,,,,,,,,,*5E
###2023-11-09 13:09:09.844928$GAGSV,1,1,04,07,73,259,46,08,48,043,44,13,63,161,44,26,57,310,45*64
###2023-11-09 13:09:09.847529$GBGSV,2,1,06,11,23,180,43,14,65,008,44,24,20,132,44,26,23,081,44*67
###2023-11-09 13:09:09.849477$GBGSV,2,2,06,28,43,287,47,33,59,304,48,,,,,,,,*69
###2023-11-09 13:09:09.850950$GNVTG,57.14,T,,M,5.40,N,10.01,K,A*25
###2023-11-09 13:09:09.931337$GNGGA,130910.10,3611.0262819,N,07544.9632026,W,1,24,0.6,0.774,M,-39.962,M,0.0,*60
###2023-11-09 13:09:09.933905$GPGSV,2,1,07,05,20,090,43,10,19,293,43,13,24,045,40,15,61,037,45*75
###2023-11-09 13:09:09.936141$GPGSV,2,2,07,18,78,277,47,23,50,316,46,24,50,135,45,,,,*4E
###2023-11-09 13:09:09.938724$GLGSV,2,1,05,70,50,017,36,71,48,290,48,80,18,090,45,85,57,203,48*64
###2023-11-09 13:09:09.940325$GLGSV,2,2,05,86,53,308,49,,,,,,,,,,,,*5E
###2023-11-09 13:09:09.942882$GAGSV,1,1,04,07,73,259,46,08,48,043,44,13,63,161,45,26,57,310,45*65
###2023-11-09 13:09:09.945456$GBGSV,2,1,06,11,23,180,43,14,65,008,45,24,20,132,44,26,23,081,44*66
###2023-11-09 13:09:09.947391$GBGSV,2,2,06,28,43,287,47,33,59,304,48,,,,,,,,*69
###2023-11-09 13:09:09.948847$GNVTG,57.36,T,,M,5.42,N,10.04,K,A*22
###2023-11-09 13:09:10.029268$GNGGA,130910.20,3611.0263623,N,07544.9630441,W,1,24,0.6,0.765,M,-39.962,M,0.0,*62
###2023-11-09 13:09:10.031868$GPGSV,2,1,07,05,20,090,43,10,19,293,43,13,24,045,41,15,61,037,45*74
###2023-11-09 13:09:10.034123$GPGSV,2,2,07,18,78,277,47,23,50,316,46,24,50,135,45,,,,*4E
###2023-11-09 13:09:10.036689$GLGSV,2,1,05,70,50,017,36,71,48,290,47,80,18,090,44,85,57,203,48*6A
###2023-11-09 13:09:10.038307$GLGSV,2,2,05,86,53,308,49,,,,,,,,,,,,*5E
###2023-11-09 13:09:10.040880$GAGSV,1,1,04,07,73,259,46,08,48,043,44,13,63,161,45,26,57,310,45*65
###2023-11-09 13:09:10.043456$GBGSV,2,1,06,11,23,180,42,14,65,008,45,24,20,132,44,26,23,081,44*67
###2023-11-09 13:09:10.045408$GBGSV,2,2,06,28,43,287,47,33,59,304,48,,,,,,,,*69
###2023-11-09 13:09:10.046914$GNVTG,58.47,T,,M,5.50,N,10.19,K,A*24
###2023-11-09 13:09:10.128264$GNGGA,130910.30,3611.0264420,N,07544.9628830,W,1,24,0.6,0.746,M,-39.962,M,0.0,*67
###2023-11-09 13:09:10.130864$GPGSV,2,1,07,05,20,090,43,10,19,293,41,13,24,045,41,15,61,037,45*76
###2023-11-09 13:09:10.133119$GPGSV,2,2,07,18,78,277,47,23,50,316,46,24,50,135,45,,,,*4E
###2023-11-09 13:09:10.135687$GLGSV,2,1,05,70,50,017,36,71,48,290,47,80,18,090,44,85,57,203,48*6A
###2023-11-09 13:09:10.137310$GLGSV,2,2,05,86,53,308,48,,,,,,,,,,,,*5F
###2023-11-09 13:09:10.139889$GAGSV,1,1,04,07,73,259,46,08,48,043,44,13,63,161,45,26,57,310,45*65
###2023-11-09 13:09:10.142474$GBGSV,2,1,06,11,23,180,42,14,65,008,45,24,20,132,44,26,23,081,44*67
###2023-11-09 13:09:10.144414$GBGSV,2,2,06,28,43,287,47,33,59,304,48,,,,,,,,*69
###2023-11-09 13:09:10.145884$GNVTG,58.51,T,,M,5.46,N,10.12,K,A*2F
###2023-11-09 13:09:10.228240$GNGGA,130910.40,3611.0265202,N,07544.9627218,W,1,24,0.6,0.721,M,-39.962,M,0.0,*69
###2023-11-09 13:09:10.230811$GPGSV,2,1,07,05,20,090,43,10,19,293,41,13,24,045,41,15,61,037,45*76
###2023-11-09 13:09:10.233056$GPGSV,2,2,07,18,78,277,47,23,50,316,46,24,50,135,45,,,,*4E
###2023-11-09 13:09:10.235617$GLGSV,2,1,05,70,50,017,36,71,48,290,47,80,18,090,45,85,57,203,49*6A
###2023-11-09 13:09:10.237220$GLGSV,2,2,05,86,53,308,48,,,,,,,,,,,,*5F
###2023-11-09 13:09:10.239775$GAGSV,1,1,04,07,73,259,46,08,48,043,44,13,63,161,45,26,57,310,45*65
###2023-11-09 13:09:10.242341$GBGSV,2,1,06,11,23,180,43,14,65,008,45,24,20,132,45,26,23,081,43*60
###2023-11-09 13:09:10.244262$GBGSV,2,2,06,28,43,287,47,33,59,304,48,,,,,,,,*69
###2023-11-09 13:09:10.245715$GNVTG,59.66,T,,M,5.44,N,10.08,K,A*23
###2023-11-09 13:09:10.328261$GNGGA,130910.50,3611.0265977,N,07544.9625607,W,1,24,0.6,0.700,M,-39.962,M,0.0,*6A
###2023-11-09 13:09:10.330869$GPGSV,2,1,07,05,20,090,43,10,19,293,41,13,24,045,41,15,61,037,45*76
###2023-11-09 13:09:10.333119$GPGSV,2,2,07,18,78,277,47,23,50,316,45,24,50,135,45,,,,*4D
###2023-11-09 13:09:10.335699$GLGSV,2,1,05,70,50,017,36,71,48,290,47,80,18,090,45,85,57,203,49*6A
###2023-11-09 13:09:10.337325$GLGSV,2,2,05,86,53,308,48,,,,,,,,,,,,*5F
###2023-11-09 13:09:10.339901$GAGSV,1,1,04,07,73,259,46,08,48,043,44,13,63,161,45,26,57,310,45*65
###2023-11-09 13:09:10.342489$GBGSV,2,1,06,11,23,180,43,14,65,008,45,24,20,132,45,26,23,081,44*67
###2023-11-09 13:09:10.344427$GBGSV,2,2,06,28,43,287,47,33,59,304,47,,,,,,,,*66
###2023-11-09 13:09:10.345892$GNVTG,58.84,T,,M,5.42,N,10.04,K,A*24
###2023-11-09 13:09:10.428169$GNGGA,130910.60,3611.0266771,N,07544.9624024,W,1,24,0.6,0.692,M,-39.962,M,0.0,*6E
###2023-11-09 13:09:10.430778$GPGSV,2,1,07,05,20,090,43,10,19,293,41,13,24,045,40,15,61,037,45*77
###2023-11-09 13:09:10.433038$GPGSV,2,2,07,18,78,277,47,23,50,316,45,24,50,135,45,,,,*4D
###2023-11-09 13:09:10.435925$GLGSV,2,1,05,70,50,017,36,71,48,290,47,80,18,090,45,85,57,203,49*6A
###2023-11-09 13:09:10.437580$GLGSV,2,2,05,86,53,308,48,,,,,,,,,,,,*5F
###2023-11-09 13:09:10.440175$GAGSV,1,1,04,07,73,259,45,08,48,043,44,13,63,161,45,26,57,310,45*66
###2023-11-09 13:09:10.442777$GBGSV,2,1,06,11,23,180,43,14,65,008,45,24,20,132,45,26,23,081,44*67
###2023-11-09 13:09:10.444723$GBGSV,2,2,06,28,43,287,47,33,59,304,47,,,,,,,,*66
###2023-11-09 13:09:10.446166$GNVTG,57.38,T,,M,5.37,N,9.94,K,A*1F
###2023-11-09 13:09:10.528375$GNGGA,130910.70,3611.0267587,N,07544.9622478,W,1,24,0.6,0.694,M,-39.962,M,0.0,*68
###2023-11-09 13:09:10.530974$GPGSV,2,1,07,05,20,090,43,10,19,293,41,13,24,045,40,15,61,037,45*77
###2023-11-09 13:09:10.533237$GPGSV,2,2,07,18,78,277,47,23,50,316,45,24,50,135,46,,,,*4E
###2023-11-09 13:09:10.535811$GLGSV,2,1,05,70,50,017,36,71,48,290,47,80,18,090,45,85,57,203,49*6A
