###2023-11-09 13:07:00.245108$GBGSV,2,1,06,11,24,180,41,14,65,006,46,24,19,133,43,26,23,082,42*67
###2023-11-09 13:07:00.247088$GBGSV,2,2,06,28,43,289,47,33,58,302,47,,,,,,,,*6F
###2023-11-09 13:07:00.248525$GNVTG,24.68,T,,M,1.40,N,2.59,K,A*10
###2023-11-09 13:07:00.329634$GNGGA,130700.50,3611.0487211,N,07544.9778087,W,1,24,0.6,0.938,M,-39.961,M,0.0,*65
###2023-11-09 13:07:00.332228$GPGSV,2,1,07,05,21,090,42,10,18,292,43,13,24,045,41,15,62,037,46*74
###2023-11-09 13:07:00.334473$GPGSV,2,2,07,18,77,281,47,23,50,315,45,24,49,136,46,,,,*40
###2023-11-09 13:07:00.337045$GLGSV,2,1,05,70,50,016,35,71,48,288,48,80,17,091,43,85,58,203,48*68
###2023-11-09 13:07:00.338642$GLGSV,2,2,05,86,52,309,47,,,,,,,,,,,,*50
###2023-11-09 13:07:00.341202$GAGSV,1,1,04,07,72,255,45,08,49,042,44,13,64,160,44,26,56,311,45*6C
###2023-11-09 13:07:00.343766$GBGSV,2,1,06,11,24,180,41,14,65,006,46,24,19,133,43,26,23,082,42*67
###2023-11-09 13:07:00.345680$GBGSV,2,2,06,28,43,289,47,33,58,302,47,,,,,,,,*6F
###2023-11-09 13:07:00.347116$GNVTG,25.22,T,,M,1.36,N,2.52,K,A*15
###2023-11-09 13:07:00.428148$GNGGA,130700.60,3611.0487511,N,07544.9777900,W,1,24,0.6,0.919,M,-39.961,M,0.0,*6B
###2023-11-09 13:07:00.430758$GPGSV,2,1,07,05,21,090,42,10,18,292,43,13,24,045,41,15,62,037,46*74
###2023-11-09 13:07:00.433016$GPGSV,2,2,07,18,77,281,47,23,50,315,45,24,49,136,46,,,,*40
###2023-11-09 13:07:00.435588$GLGSV,2,1,05,70,50,016,35,71,48,288,48,80,17,091,44,85,58,203,48*6F
###2023-11-09 13:07:00.437207$GLGSV,2,2,05,86,52,309,47,,,,,,,,,,,,*50
###2023-11-09 13:07:00.439772$GAGSV,1,1,04,07,72,255,45,08,49,042,44,13,64,160,44,26,56,311,45*6C
###2023-11-09 13:07:00.442348$GBGSV,2,1,06,11,24,180,41,14,65,006,46,24,19,133,43,26,23,082,42*67
###2023-11-09 13:07:00.444281$GBGSV,2,2,06,28,43,289,47,33,58,302,47,,,,,,,,*6F
###2023-11-09 13:07:00.445705$GNVTG,29.04,T,,M,1.13,N,2.09,K,A*14
###2023-11-09 13:07:00.529140$GNGGA,130700.70,3611.0487752,N,07544.9777726,W,1,24,0.6,0.902,M,-39.961,M,0.0,*6F
###2023-11-09 13:07:00.531737$GPGSV,2,1,07,05,21,090,42,10,18,292,43,13,24,045,41,15,62,037,46*74
###2023-11-09 13:07:00.533988$GPGSV,2,2,07,18,77,281,47,23,50,315,45,24,49,136,46,,,,*40
###2023-11-09 13:07:00.536555$GLGSV,2,1,05,70,50,016,35,71,48,288,48,80,17,091,44,85,58,203,48*6F
###2023-11-09 13:07:00.538173$GLGSV,2,2,05,86,52,309,47,,,,,,,,,,,,*50
###2023-11-09 13:07:00.540740$GAGSV,1,1,04,07,72,255,45,08,49,042,44,13,64,160,44,26,56,311,44*6D
###2023-11-09 13:07:00.543315$GBGSV,2,1,06,11,24,180,41,14,65,006,46,24,19,133,44,26,23,082,42*60
###2023-11-09 13:07:00.545245$GBGSV,2,2,06,28,43,289,47,33,58,302,47,,,,,,,,*6F
###2023-11-09 13:07:00.546688$GNVTG,29.04,T,,M,0.93,N,1.73,K,A*13
###2023-11-09 13:07:00.629485$GNGGA,130700.80,3611.0487970,N,07544.9777581,W,1,24,0.6,0.897,M,-39.961,M,0.0,*6C
###2023-11-09 13:07:00.632060$GPGSV,2,1,07,05,21,090,42,10,18,292,43,13,24,045,41,15,62,037,46*74
###2023-11-09 13:07:00.634307$GPGSV,2,2,07,18,77,281,47,23,50,315,45,24,49,136,46,,,,*40
###2023-11-09 13:07:00.636870$GLGSV,2,1,05,70,50,016,35,71,48,288,48,80,17,091,44,85,58,203,48*6F
###2023-11-09 13:07:00.638484$GLGSV,2,2,05,86,52,309,47,,,,,,,,,,,,*50
###2023-11-09 13:07:00.641041$GAGSV,1,1,04,07,72,255,45,08,49,042,44,13,64,160,44,26,56,311,44*6D
###2023-11-09 13:07:00.643615$GBGSV,2,1,06,11,24,180,42,14,65,006,46,24,19,133,44,26,23,082,42*63
###2023-11-09 13:07:00.645540$GBGSV,2,2,06,28,43,289,47,33,58,302,47,,,,,,,,*6F
###2023-11-09 13:07:00.646974$GNVTG,29.04,T,,M,0.89,N,1.66,K,A*1C
###2023-11-09 13:07:00.729634$GNGGA,130700.90,3611.0488214,N,07544.9777449,W,1,24,0.6,0.901,M,-39.961,M,0.0,*60
###2023-11-09 13:07:00.732232$GPGSV,2,1,07,05,21,090,42,10,18,292,44,13,24,045,41,15,62,037,46*73
###2023-11-09 13:07:00.734482$GPGSV,2,2,07,18,77,281,47,23,50,315,45,24,49,136,46,,,,*40
###2023-11-09 13:07:00.737080$GLGSV,2,1,05,70,50,016,36,71,48,288,48,80,17,091,44,85,58,203,48*6C
###2023-11-09 13:07:00.738690$GLGSV,2,2,05,86,52,309,47,,,,,,,,,,,,*50
###2023-11-09 13:07:00.741256$GAGSV,1,1,04,07,72,255,45,08,49,042,44,13,64,160,44,26,56,311,45*6C
###2023-11-09 13:07:00.743835$GBGSV,2,1,06,11,24,180,42,14,65,006,46,24,19,133,44,26,23,082,42*63
###2023-11-09 13:07:00.745773$GBGSV,2,2,06,28,43,289,47,33,58,302,47,,,,,,,,*6F
###2023-11-09 13:07:00.747229$GNVTG,22.63,T,,M,1.07,N,1.98,K,A*10
###2023-11-09 13:07:00.831491$GNGGA,130701.00,3611.0488509,N,07544.9777304,W,1,24,0.6,0.913,M,-39.961,M,0.0,*6E
###2023-11-09 13:07:00.834079$GPGSV,2,1,07,05,21,090,42,10,18,292,44,13,24,045,41,15,62,037,46*73
###2023-11-09 13:07:00.836324$GPGSV,2,2,07,18,77,281,47,23,50,315,45,24,49,136,46,,,,*40
###2023-11-09 13:07:00.838917$GLGSV,2,1,05,70,50,016,35,71,48,288,48,80,17,091,44,85,58,203,48*6F
###2023-11-09 13:07:00.840526$GLGSV,2,2,05,86,52,309,47,,,,,,,,,,,,*50
###2023-11-09 13:07:00.843093$GAGSV,1,1,04,07,72,255,45,08,49,042,44,13,64,160,44,26,56,311,45*6C
###2023-11-09 13:07:00.845669$GBGSV,2,1,06,11,24,180,42,14,65,006,46,24,19,133,44,26,23,082,42*63
###2023-11-09 13:07:00.847612$GBGSV,2,2,06,28,43,289,47,33,58,302,47,,,,,,,,*6F
###2023-11-09 13:07:00.849037$GNVTG,20.98,T,,M,1.26,N,2.34,K,A*10
###2023-11-09 13:07:00.930612$GNGGA,130701.10,3611.0488863,N,07544.9777150,W,1,24,0.6,0.927,M,-39.961,M,0.0,*6A
###2023-11-09 13:07:00.933195$GPGSV,2,1,07,05,21,090,42,10,18,292,44,13,24,045,41,15,62,037,46*73
###2023-11-09 13:07:00.935441$GPGSV,2,2,07,18,77,281,47,23,50,315,45,24,49,136,46,,,,*40
###2023-11-09 13:07:00.938142$GLGSV,2,1,05,70,50,016,35,71,48,288,48,80,17,091,44,85,58,203,48*6F
###2023-11-09 13:07:00.939748$GLGSV,2,2,05,86,52,309,47,,,,,,,,,,,,*50
###2023-11-09 13:07:00.942297$GAGSV,1,1,04,07,72,255,45,08,49,042,44,13,64,160,44,26,56,311,45*6C
###2023-11-09 13:07:00.944863$GBGSV,2,1,06,11,24,180,42,14,65,006,46,24,19,133,44,26,23,082,42*63
###2023-11-09 13:07:00.946776$GBGSV,2,2,06,28,43,289,47,33,58,302,47,,,,,,,,*6F
###2023-11-09 13:07:00.948205$GNVTG,18.71,T,,M,1.50,N,2.77,K,A*1A
###2023-11-09 13:07:01.031611$GNGGA,130701.20,3611.0489238,N,07544.9776996,W,1,24,0.6,0.945,M,-39.961,M,0.0,*6B
###2023-11-09 13:07:01.034199$GPGSV,2,1,07,05,21,090,42,10,18,292,44,13,24,045,41,15,62,037,45*70
###2023-11-09 13:07:01.036444$GPGSV,2,2,07,18,77,281,47,23,50,315,45,24,49,136,46,,,,*40
###2023-11-09 13:07:01.039042$GLGSV,2,1,05,70,50,016,35,71,48,288,48,80,17,091,44,85,58,203,48*6F
###2023-11-09 13:07:01.040656$GLGSV,2,2,05,86,52,309,47,,,,,,,,,,,,*50
###2023-11-09 13:07:01.043216$GAGSV,1,1,04,07,72,255,45,08,49,042,44,13,64,160,44,26,56,311,45*6C
###2023-11-09 13:07:01.045795$GBGSV,2,1,06,11,24,180,42,14,65,006,46,24,19,133,43,26,23,082,42*64
###2023-11-09 13:07:01.047744$GBGSV,2,2,06,28,43,289,47,33,58,302,47,,,,,,,,*6F
###2023-11-09 13:07:01.049177$GNVTG,18.60,T,,M,1.42,N,2.63,K,A*1C
###2023-11-09 13:07:01.130738$GNGGA,130701.30,3611.0489585,N,07544.9776847,W,1,24,0.6,0.960,M,-39.961,M,0.0,*61
###2023-11-09 13:07:01.133328$GPGSV,2,1,07,05,21,090,42,10,18,292,43,13,24,045,41,15,62,037,46*74
###2023-11-09 13:07:01.135579$GPGSV,2,2,07,18,77,281,47,23,50,315,45,24,49,136,46,,,,*40
###2023-11-09 13:07:01.138171$GLGSV,2,1,05,70,50,016,35,71,48,288,48,80,17,091,44,85,58,203,48*6F
###2023-11-09 13:07:01.139788$GLGSV,2,2,05,86,52,309,47,,,,,,,,,,,,*50
###2023-11-09 13:07:01.142353$GAGSV,1,1,04,07,72,255,45,08,49,042,44,13,64,160,44,26,56,311,45*6C
###2023-11-09 13:07:01.144935$GBGSV,2,1,06,11,24,180,42,14,65,006,46,24,19,133,43,26,23,082,42*64
###2023-11-09 13:07:01.146877$GBGSV,2,2,06,28,43,289,47,33,58,302,47,,,,,,,,*6F
###2023-11-09 13:07:01.148317$GNVTG,20.75,T,,M,1.28,N,2.38,K,A*11
###2023-11-09 13:07:01.228604$GNGGA,130701.40,3611.0489885,N,07544.9776712,W,1,24,0.6,0.972,M,-39.961,M,0.0,*67
###2023-11-09 13:07:01.231182$GPGSV,2,1,07,05,21,090,42,10,18,292,43,13,24,045,41,15,62,037,46*74
###2023-11-09 13:07:01.233418$GPGSV,2,2,07,18,77,281,47,23,50,315,45,24,49,136,46,,,,*40
###2023-11-09 13:07:01.235977$GLGSV,2,1,05,70,50,016,35,71,48,288,48,80,17,091,44,85,58,203,48*6F
###2023-11-09 13:07:01.237585$GLGSV,2,2,05,86,52,309,47,,,,,,,,,,,,*50
###2023-11-09 13:07:01.240134$GAGSV,1,1,04,07,72,255,45,08,49,042,44,13,64,160,44,26,56,311,45*6C
###2023-11-09 13:07:01.242686$GBGSV,2,1,06,11,24,180,42,14,65,006,46,24,19,133,43,26,23,082,42*64
###2023-11-09 13:07:01.244914$GBGSV,2,2,06,28,43,289,47,33,58,302,47,,,,,,,,*6F
###2023-11-09 13:07:01.246339$GNVTG,20.42,T,,M,1.07,N,1.98,K,A*11
###2023-11-09 13:07:01.328510$GNGGA,130701.50,3611.0490132,N,07544.9776589,W,1,24,0.6,0.981,M,-39.961,M,0.0,*67
###2023-11-09 13:07:01.331117$GPGSV,2,1,07,05,21,090,42,10,18,292,42,13,24,045,42,15,62,037,46*76
###2023-11-09 13:07:01.333379$GPGSV,2,2,07,18,77,281,47,23,50,315,45,24,49,136,46,,,,*40
###2023-11-09 13:07:01.335948$GLGSV,2,1,05,70,50,016,36,71,48,288,48,80,17,091,44,85,58,203,48*6C
###2023-11-09 13:07:01.337585$GLGSV,2,2,05,86,52,309,47,,,,,,,,,,,,*50
###2023-11-09 13:07:01.340168$GAGSV,1,1,04,07,72,255,45,08,49,042,44,13,64,160,44,26,56,311,45*6C
###2023-11-09 13:07:01.342762$GBGSV,2,1,06,11,24,180,42,14,65,006,46,24,19,133,43,26,23,082,42*64
