###2023-11-09 13:08:32.736889$GLGSV,2,1,05,70,50,017,36,71,48,290,48,80,18,090,44,85,57,203,48*65
###2023-11-09 13:08:32.738541$GLGSV,2,2,05,86,53,308,48,,,,,,,,,,,,*5F
###2023-11-09 13:08:32.741108$GAGSV,1,1,04,07,72,258,45,08,48,043,44,13,64,160,45,26,57,310,45*60
###2023-11-09 13:08:32.743677$GBGSV,2,1,06,11,23,180,40,14,65,008,45,24,20,132,42,26,23,081,43*64
###2023-11-09 13:08:32.745594$GBGSV,2,2,06,28,43,287,47,33,59,304,48,,,,,,,,*69
###2023-11-09 13:08:32.747064$GNVTG,175.32,T,,M,5.17,N,9.58,K,A*26
###2023-11-09 13:08:32.833129$GNGGA,130833.00,3611.0236531,N,07545.0211285,W,1,24,0.6,0.817,M,-39.962,M,0.0,*6B
###2023-11-09 13:08:32.835734$GPGSV,2,1,07,05,20,090,42,10,19,293,44,13,24,045,42,15,61,037,46*72
###2023-11-09 13:08:32.838027$GPGSV,2,2,07,18,78,277,46,23,50,315,46,24,49,136,46,,,,*44
###2023-11-09 13:08:32.840621$GLGSV,2,1,05,70,50,017,36,71,48,290,49,80,18,090,44,85,57,203,48*64
###2023-11-09 13:08:32.842237$GLGSV,2,2,05,86,53,308,48,,,,,,,,,,,,*5F
###2023-11-09 13:08:32.844818$GAGSV,1,1,04,07,72,258,45,08,48,043,44,13,64,160,45,26,57,310,45*60
###2023-11-09 13:08:32.847413$GBGSV,2,1,06,11,23,180,40,14,65,008,45,24,20,132,42,26,23,081,43*64
###2023-11-09 13:08:32.849363$GBGSV,2,2,06,28,43,287,47,33,59,304,48,,,,,,,,*69
###2023-11-09 13:08:32.850837$GNVTG,172.83,T,,M,4.92,N,9.11,K,A*2A
###2023-11-09 13:08:32.930358$GNGGA,130833.10,3611.0235211,N,07545.0210997,W,1,24,0.6,0.807,M,-39.962,M,0.0,*64
###2023-11-09 13:08:32.932951$GPGSV,2,1,07,05,20,090,42,10,19,293,44,13,24,045,42,15,61,037,46*72
###2023-11-09 13:08:32.935204$GPGSV,2,2,07,18,78,277,46,23,50,315,46,24,49,136,46,,,,*44
###2023-11-09 13:08:32.937812$GLGSV,2,1,05,70,50,017,36,71,48,290,49,80,18,090,44,85,57,203,48*64
###2023-11-09 13:08:32.939421$GLGSV,2,2,05,86,53,308,49,,,,,,,,,,,,*5E
###2023-11-09 13:08:32.941996$GAGSV,1,1,04,07,72,258,45,08,48,043,44,13,64,160,45,26,57,310,45*60
###2023-11-09 13:08:32.944587$GBGSV,2,1,06,11,23,180,41,14,65,008,45,24,20,132,42,26,23,081,43*65
###2023-11-09 13:08:32.946529$GBGSV,2,2,06,28,43,287,47,33,59,304,48,,,,,,,,*69
###2023-11-09 13:08:32.948013$GNVTG,166.92,T,,M,4.76,N,8.82,K,A*2E
###2023-11-09 13:08:33.033464$GNGGA,130833.20,3611.0233933,N,07545.0210599,W,1,24,0.6,0.812,M,-39.962,M,0.0,*6C
###2023-11-09 13:08:33.036052$GPGSV,2,1,07,05,20,090,43,10,19,293,44,13,24,045,42,15,61,037,46*73
###2023-11-09 13:08:33.038319$GPGSV,2,2,07,18,78,277,46,23,50,315,46,24,49,136,46,,,,*44
###2023-11-09 13:08:33.040896$GLGSV,2,1,05,70,50,017,35,71,48,290,49,80,18,090,44,85,57,203,48*67
###2023-11-09 13:08:33.042515$GLGSV,2,2,05,86,53,308,49,,,,,,,,,,,,*5E
###2023-11-09 13:08:33.045091$GAGSV,1,1,04,07,72,258,45,08,48,043,45,13,64,160,45,26,57,310,45*61
###2023-11-09 13:08:33.047685$GBGSV,2,1,06,11,23,180,41,14,65,008,45,24,20,132,42,26,23,081,43*65
###2023-11-09 13:08:33.049620$GBGSV,2,2,06,28,43,287,47,33,59,304,48,,,,,,,,*69
###2023-11-09 13:08:33.051086$GNVTG,164.64,T,,M,4.74,N,8.78,K,A*22
###2023-11-09 13:08:33.129267$GNGGA,130833.30,3611.0232669,N,07545.0210172,W,1,24,0.6,0.822,M,-39.962,M,0.0,*6E
###2023-11-09 13:08:33.131872$GPGSV,2,1,07,05,20,090,43,10,19,293,44,13,24,045,43,15,61,037,47*73
###2023-11-09 13:08:33.134133$GPGSV,2,2,07,18,78,277,46,23,50,315,46,24,49,136,46,,,,*44
###2023-11-09 13:08:33.136716$GLGSV,2,1,05,70,50,017,35,71,48,290,49,80,18,090,44,85,57,203,48*67
###2023-11-09 13:08:33.138346$GLGSV,2,2,05,86,53,308,49,,,,,,,,,,,,*5E
###2023-11-09 13:08:33.140920$GAGSV,1,1,04,07,72,258,45,08,48,043,45,13,64,160,45,26,57,310,45*61
###2023-11-09 13:08:33.143501$GBGSV,2,1,06,11,23,180,41,14,65,008,46,24,20,132,42,26,23,081,44*61
###2023-11-09 13:08:33.145442$GBGSV,2,2,06,28,43,287,47,33,59,304,48,,,,,,,,*69
###2023-11-09 13:08:33.146922$GNVTG,164.46,T,,M,4.70,N,8.71,K,A*2F
###2023-11-09 13:08:33.230142$GNGGA,130833.40,3611.0231423,N,07545.0209717,W,1,24,0.6,0.829,M,-39.962,M,0.0,*60
###2023-11-09 13:08:33.232744$GPGSV,2,1,07,05,20,090,43,10,19,293,44,13,24,045,43,15,61,037,47*73
###2023-11-09 13:08:33.235009$GPGSV,2,2,07,18,78,277,46,23,50,315,46,24,49,136,45,,,,*47
###2023-11-09 13:08:33.237600$GLGSV,2,1,05,70,50,017,35,71,48,290,49,80,18,090,44,85,57,203,48*67
###2023-11-09 13:08:33.239210$GLGSV,2,2,05,86,53,308,49,,,,,,,,,,,,*5E
###2023-11-09 13:08:33.241790$GAGSV,1,1,04,07,72,258,45,08,48,043,45,13,64,160,45,26,57,310,45*61
###2023-11-09 13:08:33.244378$GBGSV,2,1,06,11,23,180,41,14,65,008,46,24,20,132,42,26,23,081,44*61
###2023-11-09 13:08:33.246326$GBGSV,2,2,06,28,43,287,47,33,59,304,48,,,,,,,,*69
###2023-11-09 13:08:33.247812$GNVTG,162.46,T,,M,4.67,N,8.64,K,A*2B
###2023-11-09 13:08:33.329118$GNGGA,130833.50,3611.0230194,N,07545.0209198,W,1,24,0.6,0.821,M,-39.962,M,0.0,*60
###2023-11-09 13:08:33.331684$GPGSV,2,1,07,05,20,090,43,10,19,293,44,13,24,045,43,15,61,037,47*73
###2023-11-09 13:08:33.333919$GPGSV,2,2,07,18,78,277,46,23,50,315,46,24,49,136,45,,,,*47
###2023-11-09 13:08:33.336469$GLGSV,2,1,05,70,50,017,35,71,48,290,49,80,18,090,44,85,57,203,48*67
###2023-11-09 13:08:33.338076$GLGSV,2,2,05,86,53,308,48,,,,,,,,,,,,*5F
###2023-11-09 13:08:33.340630$GAGSV,1,1,04,07,72,258,45,08,48,043,46,13,64,160,45,26,57,310,45*62
###2023-11-09 13:08:33.343193$GBGSV,2,1,06,11,23,180,41,14,65,008,46,24,20,132,42,26,23,081,43*66
###2023-11-09 13:08:33.345117$GBGSV,2,2,06,28,43,287,47,33,59,304,48,,,,,,,,*69
###2023-11-09 13:08:33.346578$GNVTG,159.69,T,,M,4.72,N,8.75,K,A*2A
###2023-11-09 13:08:33.429442$GNGGA,130833.60,3611.0229007,N,07545.0208621,W,1,24,0.6,0.795,M,-39.962,M,0.0,*64
###2023-11-09 13:08:33.432057$GPGSV,2,1,07,05,20,090,44,10,19,293,44,13,24,045,42,15,61,037,47*75
###2023-11-09 13:08:33.434328$GPGSV,2,2,07,18,78,277,46,23,50,315,45,24,49,136,45,,,,*44
###2023-11-09 13:08:33.436919$GLGSV,2,1,05,70,50,017,35,71,48,290,49,80,18,090,45,85,57,203,48*66
###2023-11-09 13:08:33.438535$GLGSV,2,2,05,86,53,308,48,,,,,,,,,,,,*5F
###2023-11-09 13:08:33.441109$GAGSV,1,1,04,07,72,258,45,08,48,043,45,13,64,160,45,26,57,310,45*61
###2023-11-09 13:08:33.443699$GBGSV,2,1,06,11,23,180,41,14,65,008,46,24,20,132,42,26,23,081,43*66
###2023-11-09 13:08:33.445640$GBGSV,2,2,06,28,43,287,47,33,59,304,48,,,,,,,,*69
###2023-11-09 13:08:33.447125$GNVTG,157.11,T,,M,4.51,N,8.35,K,A*2E
###2023-11-09 13:08:33.530109$GNGGA,130833.70,3611.0227883,N,07545.0207986,W,1,24,0.6,0.771,M,-39.962,M,0.0,*68
###2023-11-09 13:08:33.532709$GPGSV,2,1,07,05,20,090,44,10,19,293,44,13,24,045,43,15,61,037,47*74
###2023-11-09 13:08:33.534974$GPGSV,2,2,07,18,78,277,46,23,50,315,45,24,49,136,45,,,,*44
###2023-11-09 13:08:33.537568$GLGSV,2,1,05,70,50,017,35,71,48,290,49,80,18,090,45,85,57,203,48*66
###2023-11-09 13:08:33.539183$GLGSV,2,2,05,86,53,308,49,,,,,,,,,,,,*5E
###2023-11-09 13:08:33.541771$GAGSV,1,1,04,07,72,258,45,08,48,043,46,13,64,160,45,26,57,310,45*62
###2023-11-09 13:08:33.544374$GBGSV,2,1,06,11,23,180,41,14,65,008,46,24,20,132,42,26,23,081,44*61
###2023-11-09 13:08:33.546322$GBGSV,2,2,06,28,43,287,47,33,59,304,48,,,,,,,,*69
###2023-11-09 13:08:33.547808$GNVTG,153.73,T,,M,4.43,N,8.21,K,A*28
###2023-11-09 13:08:33.629251$GNGGA,130833.80,3611.0226785,N,07545.0207308,W,1,24,0.6,0.753,M,-39.962,M,0.0,*63
###2023-11-09 13:08:33.631827$GPGSV,2,1,07,05,20,090,44,10,19,293,44,13,24,045,43,15,61,037,47*74
###2023-11-09 13:08:33.634077$GPGSV,2,2,07,18,78,277,46,23,50,315,46,24,49,136,45,,,,*47
###2023-11-09 13:08:33.636649$GLGSV,2,1,05,70,50,017,35,71,48,290,49,80,18,090,45,85,57,203,48*66
###2023-11-09 13:08:33.638268$GLGSV,2,2,05,86,53,308,49,,,,,,,,,,,,*5E
###2023-11-09 13:08:33.640834$GAGSV,1,1,04,07,72,258,45,08,48,043,46,13,64,160,45,26,57,310,45*62
###2023-11-09 13:08:33.643417$GBGSV,2,1,06,11,23,180,41,14,65,008,46,24,20,132,42,26,23,081,45*60
###2023-11-09 13:08:33.645344$GBGSV,2,2,06,28,43,287,47,33,59,304,48,,,,,,,,*69
###2023-11-09 13:08:33.646805$GNVTG,152.89,T,,M,4.45,N,8.24,K,A*2F
###2023-11-09 13:08:33.729155$GNGGA,130833.90,3611.0225705,N,07545.0206601,W,1,24,0.6,0.745,M,-39.962,M,0.0,*63
###2023-11-09 13:08:33.731775$GPGSV,2,1,07,05,20,090,43,10,19,293,44,13,24,045,42,15,61,037,47*72
###2023-11-09 13:08:33.734047$GPGSV,2,2,07,18,78,277,46,23,50,315,46,24,49,136,45,,,,*47
###2023-11-09 13:08:33.736932$GLGSV,2,1,05,70,50,017,35,71,48,290,49,80,18,090,44,85,57,203,48*67
###2023-11-09 13:08:33.738564$GLGSV,2,2,05,86,53,308,49,,,,,,,,,,,,*5E
###2023-11-09 13:08:33.741147$GAGSV,1,1,04,07,72,258,45,08,48,043,46,13,64,160,45,26,57,310,45*62
###2023-11-09 13:08:33.743741$GBGSV,2,1,06,11,23,180,41,14,65,008,46,24,20,132,42,26,23,081,44*61
###2023-11-09 13:08:33.745684$GBGSV,2,2,06,28,43,287,47,33,59,304,48,,,,,,,,*69
###2023-11-09 13:08:33.747177$GNVTG,151.19,T,,M,4.37,N,8.10,K,A*27
###2023-11-09 13:08:33.832248$GNGGA,130834.00,3611.0224654,N,07545.0205840,W,1,24,0.6,0.737,M,-39.962,M,0.0,*64
###2023-11-09 13:08:33.834846$GPGSV,2,1,07,05,20,090,42,10,19,293,44,13,24,045,41,15,61,037,47*70
###2023-11-09 13:08:33.837128$GPGSV,2,2,07,18,78,277,46,23,50,315,46,24,49,136,45,,,,*47
###2023-11-09 13:08:33.839700$GLGSV,2,1,05,70,50,017,35,71,48,290,49,80,18,090,44,85,57,203,48*67
