###2023-11-09 13:07:36.949724$GNVTG,51.87,T,,M,2.02,N,3.74,K,A*18
###2023-11-09 13:07:37.031624$GNGGA,130737.20,3611.0565677,N,07544.9772760,W,1,24,0.6,0.822,M,-39.961,M,0.0,*61
###2023-11-09 13:07:37.034222$GPGSV,2,1,07,05,21,090,41,10,18,292,43,13,24,045,42,15,62,037,45*77
###2023-11-09 13:07:37.036473$GPGSV,2,2,07,18,77,281,47,23,50,315,45,24,49,136,46,,,,*40
###2023-11-09 13:07:37.039057$GLGSV,2,1,05,70,50,016,35,71,48,288,47,80,17,091,43,85,58,203,48*67
###2023-11-09 13:07:37.040672$GLGSV,2,2,05,86,52,309,48,,,,,,,,,,,,*5F
###2023-11-09 13:07:37.043239$GAGSV,1,1,04,07,72,257,45,08,49,042,44,13,64,160,44,26,56,310,45*6F
###2023-11-09 13:07:37.045816$GBGSV,2,1,06,11,23,180,42,14,65,008,45,24,19,133,43,26,23,082,42*6E
###2023-11-09 13:07:37.047770$GBGSV,2,2,06,28,43,289,47,33,58,302,47,,,,,,,,*6F
###2023-11-09 13:07:37.049209$GNVTG,56.40,T,,M,2.04,N,3.78,K,A*1E
###2023-11-09 13:07:37.132599$GNGGA,130737.30,3611.0565967,N,07544.9772148,W,1,24,0.6,0.810,M,-39.961,M,0.0,*63
###2023-11-09 13:07:37.135174$GPGSV,2,1,07,05,21,090,41,10,18,292,43,13,24,045,42,15,62,037,45*77
###2023-11-09 13:07:37.137438$GPGSV,2,2,07,18,77,281,47,23,50,315,45,24,49,136,46,,,,*40
###2023-11-09 13:07:37.140012$GLGSV,2,1,05,70,50,016,35,71,48,288,47,80,17,091,43,85,58,203,48*67
###2023-11-09 13:07:37.141610$GLGSV,2,2,05,86,52,309,48,,,,,,,,,,,,*5F
###2023-11-09 13:07:37.144162$GAGSV,1,1,04,07,72,257,45,08,49,042,44,13,64,160,44,26,56,310,45*6F
###2023-11-09 13:07:37.146728$GBGSV,2,1,06,11,23,180,41,14,65,008,45,24,19,133,43,26,23,082,42*6D
###2023-11-09 13:07:37.148676$GBGSV,2,2,06,28,43,289,47,33,58,302,47,,,,,,,,*6F
###2023-11-09 13:07:37.150120$GNVTG,63.68,T,,M,2.12,N,3.92,K,A*11
###2023-11-09 13:07:37.231751$GNGGA,130737.40,3611.0566209,N,07544.9771480,W,1,24,0.6,0.803,M,-39.961,M,0.0,*64
###2023-11-09 13:07:37.234349$GPGSV,2,1,07,05,21,090,41,10,18,292,43,13,24,045,42,15,62,037,45*77
###2023-11-09 13:07:37.236591$GPGSV,2,2,07,18,77,281,47,23,50,315,45,24,49,136,46,,,,*40
###2023-11-09 13:07:37.239175$GLGSV,2,1,05,70,50,016,35,71,48,288,47,80,17,091,43,85,58,203,48*67
###2023-11-09 13:07:37.240779$GLGSV,2,2,05,86,52,309,48,,,,,,,,,,,,*5F
###2023-11-09 13:07:37.243323$GAGSV,1,1,04,07,72,257,45,08,49,042,44,13,64,160,44,26,56,310,45*6F
###2023-11-09 13:07:37.245886$GBGSV,2,1,06,11,23,180,41,14,65,008,45,24,19,133,43,26,23,082,42*6D
###2023-11-09 13:07:37.247819$GBGSV,2,2,06,28,43,289,47,33,58,302,47,,,,,,,,*6F
###2023-11-09 13:07:37.249246$GNVTG,68.10,T,,M,2.18,N,4.03,K,A*10
###2023-11-09 13:07:37.330492$GNGGA,130737.50,3611.0566423,N,07544.9770760,W,1,24,0.6,0.787,M,-39.961,M,0.0,*64
###2023-11-09 13:07:37.333102$GPGSV,2,1,07,05,21,090,41,10,18,292,43,13,24,045,42,15,62,037,45*77
###2023-11-09 13:07:37.335352$GPGSV,2,2,07,18,77,281,47,23,50,315,45,24,49,136,46,,,,*40
###2023-11-09 13:07:37.338063$GLGSV,2,1,05,70,50,016,35,71,48,288,48,80,17,091,43,85,58,203,48*68
###2023-11-09 13:07:37.339678$GLGSV,2,2,05,86,52,309,47,,,,,,,,,,,,*50
###2023-11-09 13:07:37.342241$GAGSV,1,1,04,07,72,257,45,08,49,042,44,13,64,160,44,26,56,310,45*6F
###2023-11-09 13:07:37.344815$GBGSV,2,1,06,11,23,180,41,14,65,008,45,24,19,133,43,26,23,082,42*6D
###2023-11-09 13:07:37.346745$GBGSV,2,2,06,28,43,289,47,33,58,302,47,,,,,,,,*6F
###2023-11-09 13:07:37.348184$GNVTG,71.65,T,,M,2.33,N,4.32,K,A*11
###2023-11-09 13:07:37.431605$GNGGA,130737.60,3611.0566624,N,07544.9769989,W,1,24,0.6,0.775,M,-39.961,M,0.0,*6E
###2023-11-09 13:07:37.434193$GPGSV,2,1,07,05,21,090,41,10,18,292,43,13,24,045,42,15,62,037,45*77
###2023-11-09 13:07:37.436445$GPGSV,2,2,07,18,77,281,47,23,50,315,45,24,49,136,46,,,,*40
###2023-11-09 13:07:37.439061$GLGSV,2,1,05,70,50,016,35,71,48,288,48,80,17,091,43,85,58,203,48*68
###2023-11-09 13:07:37.440676$GLGSV,2,2,05,86,52,309,47,,,,,,,,,,,,*50
###2023-11-09 13:07:37.443245$GAGSV,1,1,04,07,72,257,45,08,49,042,44,13,64,160,44,26,56,310,45*6F
###2023-11-09 13:07:37.445826$GBGSV,2,1,06,11,23,180,42,14,65,008,45,24,19,133,43,26,23,082,42*6E
###2023-11-09 13:07:37.447776$GBGSV,2,2,06,28,43,289,47,33,58,302,47,,,,,,,,*6F
###2023-11-09 13:07:37.449204$GNVTG,72.76,T,,M,2.41,N,4.46,K,A*16
###2023-11-09 13:07:37.530473$GNGGA,130737.70,3611.0566840,N,07544.9769213,W,1,24,0.6,0.767,M,-39.961,M,0.0,*68
###2023-11-09 13:07:37.533073$GPGSV,2,1,07,05,21,090,41,10,18,292,43,13,24,045,42,15,62,037,45*77
###2023-11-09 13:07:37.535325$GPGSV,2,2,07,18,77,281,47,23,50,315,45,24,49,136,46,,,,*40
###2023-11-09 13:07:37.537915$GLGSV,2,1,05,70,50,016,35,71,48,288,48,80,17,091,43,85,58,203,48*68
###2023-11-09 13:07:37.539522$GLGSV,2,2,05,86,52,309,47,,,,,,,,,,,,*50
###2023-11-09 13:07:37.542089$GAGSV,1,1,04,07,72,257,45,08,49,042,44,13,64,160,44,26,56,310,45*6F
###2023-11-09 13:07:37.544668$GBGSV,2,1,06,11,23,180,43,14,65,008,45,24,19,133,43,26,23,082,42*6F
###2023-11-09 13:07:37.546594$GBGSV,2,2,06,28,43,289,47,33,58,302,47,,,,,,,,*6F
###2023-11-09 13:07:37.548030$GNVTG,69.42,T,,M,2.39,N,4.43,K,A*11
###2023-11-09 13:07:37.630507$GNGGA,130737.80,3611.0567087,N,07544.9768435,W,1,24,0.6,0.765,M,-39.961,M,0.0,*64
###2023-11-09 13:07:37.633102$GPGSV,2,1,07,05,21,090,41,10,18,292,43,13,24,045,41,15,62,037,45*74
###2023-11-09 13:07:37.635356$GPGSV,2,2,07,18,77,281,47,23,50,315,45,24,49,136,46,,,,*40
###2023-11-09 13:07:37.637963$GLGSV,2,1,05,70,50,016,35,71,48,288,48,80,17,091,43,85,58,203,48*68
###2023-11-09 13:07:37.639576$GLGSV,2,2,05,86,52,309,47,,,,,,,,,,,,*50
###2023-11-09 13:07:37.642160$GAGSV,1,1,04,07,72,257,45,08,49,042,44,13,64,160,44,26,56,310,45*6F
###2023-11-09 13:07:37.644744$GBGSV,2,1,06,11,23,180,43,14,65,008,45,24,19,133,43,26,23,082,42*6F
###2023-11-09 13:07:37.646677$GBGSV,2,2,06,28,43,289,47,33,58,302,47,,,,,,,,*6F
###2023-11-09 13:07:37.648122$GNVTG,67.67,T,,M,2.51,N,4.64,K,A*13
###2023-11-09 13:07:37.731620$GNGGA,130737.90,3611.0567364,N,07544.9767640,W,1,24,0.6,0.765,M,-39.961,M,0.0,*64
###2023-11-09 13:07:37.734223$GPGSV,2,1,07,05,21,090,42,10,18,292,43,13,24,045,41,15,62,037,45*77
###2023-11-09 13:07:37.736478$GPGSV,2,2,07,18,77,281,47,23,50,315,45,24,49,136,45,,,,*43
###2023-11-09 13:07:37.739076$GLGSV,2,1,05,70,50,016,35,71,48,288,48,80,17,091,44,85,58,203,48*6F
###2023-11-09 13:07:37.740694$GLGSV,2,2,05,86,52,309,47,,,,,,,,,,,,*50
###2023-11-09 13:07:37.743259$GAGSV,1,1,04,07,72,257,45,08,49,042,44,13,64,160,44,26,56,310,45*6F
###2023-11-09 13:07:37.745837$GBGSV,2,1,06,11,23,180,43,14,65,008,45,24,19,133,43,26,23,082,41*6C
###2023-11-09 13:07:37.747789$GBGSV,2,2,06,28,43,289,47,33,58,302,47,,,,,,,,*6F
###2023-11-09 13:07:37.749223$GNVTG,65.76,T,,M,2.57,N,4.75,K,A*17
###2023-11-09 13:07:37.831461$GNGGA,130738.00,3611.0567645,N,07544.9766848,W,1,24,0.6,0.762,M,-39.961,M,0.0,*64
###2023-11-09 13:07:37.834044$GPGSV,2,1,07,05,21,090,42,10,18,292,43,13,24,045,41,15,62,037,45*77
###2023-11-09 13:07:37.836287$GPGSV,2,2,07,18,77,281,47,23,50,315,45,24,49,136,45,,,,*43
###2023-11-09 13:07:37.838859$GLGSV,2,1,05,70,50,016,35,71,48,288,48,80,17,091,44,85,58,203,48*6F
###2023-11-09 13:07:37.840460$GLGSV,2,2,05,86,52,309,47,,,,,,,,,,,,*50
###2023-11-09 13:07:37.843016$GAGSV,1,1,04,07,72,257,45,08,49,042,44,13,64,160,44,26,56,310,45*6F
###2023-11-09 13:07:37.845586$GBGSV,2,1,06,11,23,180,41,14,65,008,46,24,19,133,42,26,23,082,41*6C
###2023-11-09 13:07:37.847530$GBGSV,2,2,06,28,43,289,47,33,58,302,47,,,,,,,,*6F
###2023-11-09 13:07:37.848944$GNVTG,67.18,T,,M,2.51,N,4.64,K,A*1B
###2023-11-09 13:07:37.933602$GNGGA,130738.10,3611.0567870,N,07544.9766072,W,1,24,0.6,0.757,M,-39.961,M,0.0,*6A
###2023-11-09 13:07:37.936199$GPGSV,2,1,07,05,21,090,42,10,18,292,43,13,24,045,41,15,62,037,45*77
###2023-11-09 13:07:37.938476$GPGSV,2,2,07,18,77,281,47,23,50,315,45,24,49,136,45,,,,*43
###2023-11-09 13:07:37.941060$GLGSV,2,1,05,70,50,016,36,71,48,288,48,80,17,091,44,85,58,203,48*6C
###2023-11-09 13:07:37.942667$GLGSV,2,2,05,86,52,309,47,,,,,,,,,,,,*50
###2023-11-09 13:07:37.945239$GAGSV,1,1,04,07,72,257,45,08,49,042,44,13,64,160,44,26,56,310,45*6F
###2023-11-09 13:07:37.947831$GBGSV,2,1,06,11,23,180,41,14,65,008,46,24,19,133,42,26,23,082,41*6C
###2023-11-09 13:07:37.949772$GBGSV,2,2,06,28,43,289,46,33,58,302,47,,,,,,,,*6E
###2023-11-09 13:07:37.951202$GNVTG,73.95,T,,M,2.33,N,4.32,K,A*1C
###2023-11-09 13:07:38.039273$GNGGA,130738.20,3611.0568038,N,07544.9765314,W,1,24,0.6,0.754,M,-39.961,M,0.0,*61
###2023-11-09 13:07:38.041871$GPGSV,2,1,07,05,21,090,42,10,18,292,43,13,24,045,41,15,62,037,46*74
###2023-11-09 13:07:38.044129$GPGSV,2,2,07,18,77,281,47,23,50,315,45,24,49,136,45,,,,*43
###2023-11-09 13:07:38.046706$GLGSV,2,1,05,70,50,016,36,71,48,288,48,80,17,091,44,85,58,203,47*63
###2023-11-09 13:07:38.048329$GLGSV,2,2,05,86,52,309,47,,,,,,,,,,,,*50
###2023-11-09 13:07:38.050914$GAGSV,1,1,04,07,72,257,45,08,49,042,44,13,64,160,44,26,56,310,45*6F
###2023-11-09 13:07:38.053506$GBGSV,2,1,06,11,23,180,41,14,65,008,46,24,19,133,42,26,23,082,41*6C
###2023-11-09 13:07:38.055448$GBGSV,2,2,06,28,43,289,46,33,58,302,47,,,,,,,,*6E
###2023-11-09 13:07:38.056883$GNVTG,75.35,T,,M,2.25,N,4.18,K,A*1F
