###2023-11-09 13:06:09.431766$GNGGA,130609.60,3611.0390530,N,07544.9829925,W,1,23,0.6,0.804,M,-39.962,M,0.0,*6B
###2023-11-09 13:06:09.434385$GPGSV,2,1,07,05,21,089,42,10,17,292,44,13,25,045,40,15,62,036,46*75
###2023-11-09 13:06:09.436661$GPGSV,2,2,07,18,77,285,46,23,49,314,46,24,49,137,44,,,,*4C
###2023-11-09 13:06:09.439262$GLGSV,1,1,04,71,48,288,50,80,17,091,45,85,59,204,48,86,52,311,48*66
###2023-11-09 13:06:09.441839$GAGSV,1,1,04,07,72,255,45,08,49,042,45,13,64,160,45,26,56,311,45*6C
###2023-11-09 13:06:09.444421$GBGSV,2,1,06,11,24,180,41,14,65,006,45,24,19,133,43,26,23,082,43*65
###2023-11-09 13:06:09.446357$GBGSV,2,2,06,28,43,289,47,33,58,302,48,,,,,,,,*60
###2023-11-09 13:06:09.447796$GNVTG,54.18,T,,M,1.34,N,2.48,K,A*13
###2023-11-09 13:06:09.532751$GNGGA,130609.70,3611.0390747,N,07544.9829566,W,1,23,0.6,0.824,M,-39.962,M,0.0,*61
###2023-11-09 13:06:09.535347$GPGSV,2,1,07,05,21,089,42,10,17,292,43,13,25,045,40,15,62,036,46*72
###2023-11-09 13:06:09.537624$GPGSV,2,2,07,18,77,285,47,23,49,314,45,24,49,137,44,,,,*4E
###2023-11-09 13:06:09.540212$GLGSV,1,1,04,71,48,288,49,80,17,091,45,85,59,204,48,86,52,311,48*6E
###2023-11-09 13:06:09.542782$GAGSV,1,1,04,07,72,255,45,08,49,042,45,13,64,160,45,26,56,311,45*6C
###2023-11-09 13:06:09.545360$GBGSV,2,1,06,11,24,180,40,14,65,006,45,24,19,133,42,26,23,082,43*65
###2023-11-09 13:06:09.547311$GBGSV,2,2,06,28,43,289,47,33,58,302,48,,,,,,,,*60
###2023-11-09 13:06:09.548737$GNVTG,54.00,T,,M,1.24,N,2.30,K,A*14
###2023-11-09 13:06:09.631865$GNGGA,130609.80,3611.0390939,N,07544.9829238,W,1,23,0.6,0.847,M,-39.962,M,0.0,*60
###2023-11-09 13:06:09.634458$GPGSV,2,1,07,05,21,089,43,10,17,292,43,13,25,045,41,15,62,036,46*72
###2023-11-09 13:06:09.636704$GPGSV,2,2,07,18,77,285,47,23,49,314,45,24,49,137,45,,,,*4F
###2023-11-09 13:06:09.639291$GLGSV,1,1,04,71,48,288,49,80,17,091,45,85,59,204,48,86,52,311,48*6E
###2023-11-09 13:06:09.641850$GAGSV,1,1,04,07,72,255,45,08,49,042,45,13,64,160,45,26,56,311,45*6C
###2023-11-09 13:06:09.644429$GBGSV,2,1,06,11,24,180,40,14,65,006,45,24,19,133,42,26,23,082,43*65
###2023-11-09 13:06:09.646363$GBGSV,2,2,06,28,43,289,47,33,58,302,48,,,,,,,,*60
###2023-11-09 13:06:09.647800$GNVTG,55.62,T,,M,1.07,N,1.98,K,A*11
###2023-11-09 13:06:09.731888$GNGGA,130609.90,3611.0391103,N,07544.9828938,W,1,23,0.6,0.867,M,-39.962,M,0.0,*69
###2023-11-09 13:06:09.734497$GPGSV,2,1,07,05,21,089,42,10,17,292,43,13,25,045,40,15,62,036,46*72
###2023-11-09 13:06:09.736747$GPGSV,2,2,07,18,77,285,47,23,49,314,45,24,49,137,45,,,,*4F
###2023-11-09 13:06:09.739355$GLGSV,1,1,04,71,48,288,49,80,17,091,45,85,59,204,48,86,52,311,48*6E
###2023-11-09 13:06:09.741957$GAGSV,1,1,04,07,72,255,45,08,49,042,45,13,64,160,45,26,56,311,45*6C
###2023-11-09 13:06:09.744531$GBGSV,2,1,06,11,24,180,40,14,65,006,45,24,19,133,41,26,23,082,44*61
###2023-11-09 13:06:09.746471$GBGSV,2,2,06,28,43,289,47,33,58,302,48,,,,,,,,*60
###2023-11-09 13:06:09.747913$GNVTG,57.85,T,,M,0.99,N,1.84,K,A*11
###2023-11-09 13:06:09.833751$GNGGA,130610.00,3611.0391242,N,07544.9828657,W,1,23,0.6,0.878,M,-39.962,M,0.0,*66
###2023-11-09 13:06:09.836333$GPGSV,2,1,07,05,21,089,42,10,17,292,43,13,25,045,40,15,62,036,46*72
###2023-11-09 13:06:09.838615$GPGSV,2,2,07,18,77,285,47,23,49,314,45,24,49,137,45,,,,*4F
###2023-11-09 13:06:09.841185$GLGSV,1,1,04,71,48,288,49,80,17,091,45,85,59,204,48,86,52,311,48*6E
###2023-11-09 13:06:09.843765$GAGSV,1,1,04,07,72,255,45,08,49,042,45,13,64,160,45,26,56,311,45*6C
###2023-11-09 13:06:09.846342$GBGSV,2,1,06,11,24,180,40,14,65,006,45,24,19,133,41,26,23,082,44*61
###2023-11-09 13:06:09.848289$GBGSV,2,2,06,28,43,289,47,33,58,302,48,,,,,,,,*60
###2023-11-09 13:06:09.849725$GNVTG,57.85,T,,M,0.89,N,1.66,K,A*1C
###2023-11-09 13:06:09.933479$GNGGA,130610.10,3611.0391364,N,07544.9828385,W,1,23,0.6,0.883,M,-39.962,M,0.0,*6C
###2023-11-09 13:06:09.936058$GPGSV,2,1,07,05,21,089,42,10,17,292,43,13,25,045,40,15,62,036,46*72
###2023-11-09 13:06:09.938317$GPGSV,2,2,07,18,77,285,47,23,49,314,45,24,49,137,45,,,,*4F
###2023-11-09 13:06:09.940888$GLGSV,1,1,04,71,48,288,49,80,17,091,45,85,59,204,48,86,52,311,47*61
###2023-11-09 13:06:09.943455$GAGSV,1,1,04,07,72,255,45,08,49,042,45,13,64,160,45,26,56,311,45*6C
###2023-11-09 13:06:09.946037$GBGSV,2,1,06,11,24,180,40,14,65,006,44,24,19,133,41,26,23,082,43*67
###2023-11-09 13:06:09.947973$GBGSV,2,2,06,28,43,289,47,33,58,302,47,,,,,,,,*6F
###2023-11-09 13:06:09.949387$GNVTG,57.85,T,,M,0.89,N,1.66,K,A*1C
###2023-11-09 13:06:10.029988$GNGGA,130610.20,3611.0391494,N,07544.9828081,W,1,23,0.6,0.886,M,-39.962,M,0.0,*65
###2023-11-09 13:06:10.032583$GPGSV,2,1,07,05,21,089,41,10,17,292,43,13,25,045,40,15,62,036,46*71
###2023-11-09 13:06:10.034842$GPGSV,2,2,07,18,77,285,47,23,49,314,45,24,49,137,45,,,,*4F
###2023-11-09 13:06:10.037441$GLGSV,1,1,04,71,48,288,49,80,17,091,44,85,59,204,48,86,52,311,47*60
###2023-11-09 13:06:10.040002$GAGSV,1,1,04,07,72,255,45,08,49,042,45,13,64,160,45,26,56,311,45*6C
###2023-11-09 13:06:10.042582$GBGSV,2,1,06,11,24,180,40,14,65,006,44,24,19,133,41,26,23,082,43*67
###2023-11-09 13:06:10.044517$GBGSV,2,2,06,28,43,289,47,33,58,302,47,,,,,,,,*6F
###2023-11-09 13:06:10.045946$GNVTG,62.10,T,,M,1.09,N,2.02,K,A*1E
###2023-11-09 13:06:10.131745$GNGGA,130610.30,3611.0391650,N,07544.9827717,W,1,23,0.6,0.888,M,-39.962,M,0.0,*67
###2023-11-09 13:06:10.134334$GPGSV,2,1,07,05,21,089,41,10,17,292,44,13,25,045,40,15,62,036,46*76
###2023-11-09 13:06:10.136582$GPGSV,2,2,07,18,77,285,46,23,49,314,45,24,49,137,45,,,,*4E
###2023-11-09 13:06:10.139179$GLGSV,1,1,04,71,48,288,49,80,17,091,44,85,59,204,48,86,52,311,48*6F
###2023-11-09 13:06:10.141766$GAGSV,1,1,04,07,72,255,45,08,49,042,45,13,64,160,45,26,56,311,45*6C
###2023-11-09 13:06:10.144335$GBGSV,2,1,06,11,24,180,40,14,65,006,44,24,19,133,41,26,23,082,43*67
###2023-11-09 13:06:10.146259$GBGSV,2,2,06,28,43,289,46,33,58,302,48,,,,,,,,*61
###2023-11-09 13:06:10.147707$GNVTG,60.92,T,,M,1.28,N,2.38,K,A*1C
###2023-11-09 13:06:10.228864$GNGGA,130610.40,3611.0391793,N,07544.9827324,W,1,23,0.6,0.885,M,-39.962,M,0.0,*67
###2023-11-09 13:06:10.231440$GPGSV,2,1,07,05,21,089,42,10,17,292,44,13,25,045,40,15,62,036,46*75
###2023-11-09 13:06:10.233684$GPGSV,2,2,07,18,77,285,47,23,49,314,45,24,49,137,45,,,,*4F
###2023-11-09 13:06:10.236248$GLGSV,1,1,04,71,48,288,49,80,17,091,45,85,59,204,48,86,52,311,48*6E
###2023-11-09 13:06:10.238832$GAGSV,1,1,04,07,72,255,45,08,49,042,45,13,64,160,45,26,56,311,45*6C
###2023-11-09 13:06:10.241409$GBGSV,2,1,06,11,24,180,40,14,65,006,44,24,19,133,41,26,23,082,43*67
###2023-11-09 13:06:10.243330$GBGSV,2,2,06,28,43,289,46,33,58,302,48,,,,,,,,*61
###2023-11-09 13:06:10.244753$GNVTG,69.88,T,,M,1.21,N,2.23,K,A*1D
###2023-11-09 13:06:10.327283$GNGGA,130610.50,3611.0391901,N,07544.9826953,W,1,23,0.6,0.880,M,-39.962,M,0.0,*6D
###2023-11-09 13:06:10.329881$GPGSV,2,1,07,05,21,089,43,10,17,292,44,13,25,045,40,15,62,036,46*74
###2023-11-09 13:06:10.332135$GPGSV,2,2,07,18,77,285,47,23,49,314,45,24,49,137,45,,,,*4F
###2023-11-09 13:06:10.334708$GLGSV,1,1,04,71,48,288,49,80,17,091,45,85,59,204,48,86,52,311,48*6E
###2023-11-09 13:06:10.337297$GAGSV,1,1,04,07,72,255,45,08,49,042,45,13,64,160,45,26,56,311,45*6C
###2023-11-09 13:06:10.339874$GBGSV,2,1,06,11,24,180,40,14,65,006,44,24,19,133,42,26,23,082,43*64
###2023-11-09 13:06:10.341798$GBGSV,2,2,06,28,43,289,47,33,58,302,48,,,,,,,,*60
###2023-11-09 13:06:10.343218$GNVTG,69.44,T,,M,1.05,N,1.94,K,A*14
###2023-11-09 13:06:10.429777$GNGGA,130610.60,3611.0391973,N,07544.9826643,W,1,23,0.6,0.877,M,-39.962,M,0.0,*6D
###2023-11-09 13:06:10.432366$GPGSV,2,1,07,05,21,089,43,10,17,292,44,13,25,045,40,15,62,036,46*74
###2023-11-09 13:06:10.434614$GPGSV,2,2,07,18,77,285,47,23,49,314,45,24,49,137,45,,,,*4F
###2023-11-09 13:06:10.437206$GLGSV,1,1,04,71,48,288,49,80,17,091,45,85,59,204,48,86,52,311,48*6E
###2023-11-09 13:06:10.439789$GAGSV,1,1,04,07,72,255,45,08,49,042,46,13,64,160,45,26,56,311,45*6F
###2023-11-09 13:06:10.442365$GBGSV,2,1,06,11,24,180,40,14,65,006,44,24,19,133,42,26,23,082,43*64
###2023-11-09 13:06:10.444294$GBGSV,2,2,06,28,43,289,48,33,58,302,48,,,,,,,,*6F
###2023-11-09 13:06:10.445720$GNVTG,69.44,T,,M,0.80,N,1.48,K,A*19
###2023-11-09 13:06:10.528872$GNGGA,130610.70,3611.0391985,N,07544.9826400,W,1,24,0.6,0.879,M,-39.962,M,0.0,*69
###2023-11-09 13:06:10.531470$GPGSV,2,1,07,05,21,089,43,10,17,292,44,13,25,045,41,15,62,036,46*75
###2023-11-09 13:06:10.533728$GPGSV,2,2,07,18,77,285,47,23,49,314,45,24,49,137,45,,,,*4F
###2023-11-09 13:06:10.536303$GLGSV,2,1,05,70,50,016,35,71,48,288,49,80,17,091,45,85,59,204,48*69
###2023-11-09 13:06:10.537915$GLGSV,2,2,05,86,52,311,47,,,,,,,,,,,,*59
###2023-11-09 13:06:10.540488$GAGSV,1,1,04,07,72,255,45,08,49,042,46,13,64,160,45,26,56,311,45*6F
###2023-11-09 13:06:10.543056$GBGSV,2,1,06,11,24,180,40,14,65,006,45,24,19,133,42,26,23,082,43*65
###2023-11-09 13:06:10.544982$GBGSV,2,2,06,28,43,289,48,33,58,302,48,,,,,,,,*6F
###2023-11-09 13:06:10.546401$GNVTG,69.44,T,,M,0.58,N,1.08,K,A*18
###2023-11-09 13:06:10.627777$GNGGA,130610.80,3611.0391989,N,07544.9826196,W,1,24,0.6,0.878,M,-39.962,M,0.0,*61
###2023-11-09 13:06:10.630380$GPGSV,2,1,07,05,21,089,42,10,17,292,44,13,25,045,40,15,62,036,46*75
###2023-11-09 13:06:10.632646$GPGSV,2,2,07,18,77,285,46,23,49,314,45,24,49,137,45,,,,*4E
