###2023-11-09 13:10:34.246549$GBGSV,2,1,06,11,22,180,40,14,65,009,46,24,21,132,44,26,23,080,44*66
###2023-11-09 13:10:34.248542$GBGSV,2,2,06,28,43,286,46,33,59,305,47,,,,,,,,*67
###2023-11-09 13:10:34.250006$GNVTG,305.35,T,,M,3.09,N,5.72,K,A*29
###2023-11-09 13:10:34.332124$GNGGA,131034.50,3611.0633229,N,07544.8756733,W,1,24,0.6,0.401,M,-39.960,M,0.0,*61
###2023-11-09 13:10:34.334732$GPGSV,2,1,07,05,20,091,44,10,19,294,42,13,23,045,43,15,60,038,46*7C
###2023-11-09 13:10:34.337018$GPGSV,2,2,07,18,78,272,46,23,51,317,45,24,50,134,45,,,,*48
###2023-11-09 13:10:34.339589$GLGSV,2,1,05,70,49,019,35,71,48,291,47,80,19,089,45,85,56,202,48*66
###2023-11-09 13:10:34.341192$GLGSV,2,2,05,86,54,306,48,,,,,,,,,,,,*56
###2023-11-09 13:10:34.343752$GAGSV,1,1,04,07,73,259,44,08,48,043,45,13,63,161,45,26,57,310,45*66
###2023-11-09 13:10:34.346318$GBGSV,2,1,06,11,22,180,40,14,65,009,45,24,21,132,44,26,23,080,45*64
###2023-11-09 13:10:34.348265$GBGSV,2,2,06,28,43,286,46,33,59,305,47,,,,,,,,*67
###2023-11-09 13:10:34.349737$GNVTG,306.60,T,,M,3.09,N,5.72,K,A*2A
###2023-11-09 13:10:34.431135$GNGGA,131034.60,3611.0633768,N,07544.8757587,W,1,24,0.6,0.397,M,-39.960,M,0.0,*66
###2023-11-09 13:10:34.433742$GPGSV,2,1,07,05,20,091,43,10,19,294,42,13,23,045,41,15,60,038,46*79
###2023-11-09 13:10:34.436012$GPGSV,2,2,07,18,78,272,46,23,51,317,45,24,50,134,45,,,,*48
###2023-11-09 13:10:34.438613$GLGSV,2,1,05,70,49,019,35,71,48,291,47,80,19,089,44,85,56,202,49*66
###2023-11-09 13:10:34.440238$GLGSV,2,2,05,86,54,306,48,,,,,,,,,,,,*56
###2023-11-09 13:10:34.442820$GAGSV,1,1,04,07,73,259,44,08,48,043,45,13,63,161,45,26,57,310,45*66
###2023-11-09 13:10:34.445426$GBGSV,2,1,06,11,22,180,40,14,65,009,45,24,21,132,44,26,23,080,44*65
###2023-11-09 13:10:34.447377$GBGSV,2,2,06,28,43,286,46,33,59,305,47,,,,,,,,*67
###2023-11-09 13:10:34.448852$GNVTG,308.71,T,,M,3.15,N,5.83,K,A*27
###2023-11-09 13:10:34.531620$GNGGA,131034.70,3611.0634365,N,07544.8758433,W,1,24,0.6,0.390,M,-39.960,M,0.0,*6F
###2023-11-09 13:10:34.534194$GPGSV,2,1,07,05,20,091,42,10,19,294,42,13,23,045,41,15,60,038,46*78
###2023-11-09 13:10:34.536437$GPGSV,2,2,07,18,78,272,46,23,51,317,45,24,50,134,45,,,,*48
###2023-11-09 13:10:34.539024$GLGSV,2,1,05,70,49,019,35,71,48,291,47,80,19,089,44,85,56,202,49*66
###2023-11-09 13:10:34.540624$GLGSV,2,2,05,86,54,306,48,,,,,,,,,,,,*56
###2023-11-09 13:10:34.543183$GAGSV,1,1,04,07,73,259,45,08,48,043,45,13,63,161,45,26,57,310,45*67
###2023-11-09 13:10:34.545751$GBGSV,2,1,06,11,22,180,40,14,65,009,45,24,21,132,44,26,23,080,44*65
###2023-11-09 13:10:34.547690$GBGSV,2,2,06,28,43,286,46,33,59,305,47,,,,,,,,*67
###2023-11-09 13:10:34.549154$GNVTG,312.80,T,,M,3.32,N,6.16,K,A*28
###2023-11-09 13:10:34.631002$GNGGA,131034.80,3611.0635018,N,07544.8759271,W,1,24,0.6,0.374,M,-39.960,M,0.0,*63
###2023-11-09 13:10:34.633593$GPGSV,2,1,07,05,20,091,42,10,19,294,42,13,23,045,42,15,60,038,46*7B
###2023-11-09 13:10:34.635857$GPGSV,2,2,07,18,78,272,46,23,51,317,45,24,50,134,45,,,,*48
###2023-11-09 13:10:34.638444$GLGSV,2,1,05,70,49,019,35,71,48,291,47,80,19,089,44,85,56,202,49*66
###2023-11-09 13:10:34.640052$GLGSV,2,2,05,86,54,306,48,,,,,,,,,,,,*56
###2023-11-09 13:10:34.642625$GAGSV,1,1,04,07,73,259,45,08,48,043,45,13,63,161,45,26,57,310,45*67
###2023-11-09 13:10:34.645201$GBGSV,2,1,06,11,22,180,40,14,65,009,45,24,21,132,44,26,23,080,44*65
###2023-11-09 13:10:34.647148$GBGSV,2,2,06,28,43,286,46,33,59,305,47,,,,,,,,*67
###2023-11-09 13:10:34.648615$GNVTG,314.53,T,,M,3.38,N,6.26,K,A*29
###2023-11-09 13:10:34.732109$GNGGA,131034.90,3611.0635672,N,07544.8760096,W,1,24,0.6,0.347,M,-39.960,M,0.0,*69
###2023-11-09 13:10:34.734704$GPGSV,2,1,07,05,20,091,42,10,19,294,42,13,23,045,43,15,60,038,46*7A
###2023-11-09 13:10:34.736976$GPGSV,2,2,07,18,78,272,46,23,51,317,45,24,50,134,46,,,,*4B
###2023-11-09 13:10:34.739550$GLGSV,2,1,05,70,49,019,35,71,48,291,48,80,19,089,44,85,56,202,49*69
###2023-11-09 13:10:34.741151$GLGSV,2,2,05,86,54,306,48,,,,,,,,,,,,*56
###2023-11-09 13:10:34.743709$GAGSV,1,1,04,07,73,259,45,08,48,043,45,13,63,161,45,26,57,310,45*67
###2023-11-09 13:10:34.746288$GBGSV,2,1,06,11,22,180,40,14,65,009,45,24,21,132,44,26,23,080,44*65
###2023-11-09 13:10:34.748243$GBGSV,2,2,06,28,43,286,46,33,59,305,47,,,,,,,,*67
###2023-11-09 13:10:34.749712$GNVTG,313.80,T,,M,3.25,N,6.01,K,A*29
###2023-11-09 13:10:34.832979$GNGGA,131035.00,3611.0636294,N,07544.8760913,W,1,24,0.6,0.329,M,-39.960,M,0.0,*62
###2023-11-09 13:10:34.835555$GPGSV,2,1,07,05,20,091,43,10,19,294,42,13,23,045,43,15,60,038,46*7B
###2023-11-09 13:10:34.837819$GPGSV,2,2,07,18,78,272,46,23,51,317,45,24,50,134,46,,,,*4B
###2023-11-09 13:10:34.840383$GLGSV,2,1,05,70,49,019,35,71,48,291,48,80,19,089,45,85,56,202,49*68
###2023-11-09 13:10:34.841981$GLGSV,2,2,05,86,54,306,48,,,,,,,,,,,,*56
###2023-11-09 13:10:34.844547$GAGSV,1,1,04,07,73,259,45,08,48,043,45,13,63,161,45,26,57,310,45*67
###2023-11-09 13:10:34.847117$GBGSV,2,1,06,11,22,180,40,14,65,009,45,24,21,132,44,26,23,080,44*65
###2023-11-09 13:10:34.849050$GBGSV,2,2,06,28,43,286,46,33,59,305,47,,,,,,,,*67
###2023-11-09 13:10:34.850507$GNVTG,312.19,T,,M,3.23,N,5.98,K,A*2D
###2023-11-09 13:10:34.931753$GNGGA,131035.10,3611.0636893,N,07544.8761748,W,1,24,0.6,0.316,M,-39.960,M,0.0,*63
###2023-11-09 13:10:34.934359$GPGSV,2,1,07,05,20,091,44,10,19,294,42,13,23,045,43,15,60,038,47*7D
###2023-11-09 13:10:34.936632$GPGSV,2,2,07,18,78,272,46,23,51,317,45,24,51,133,46,,,,*4D
###2023-11-09 13:10:34.939238$GLGSV,2,1,05,70,49,019,35,71,48,291,48,80,19,089,45,85,56,202,48*69
###2023-11-09 13:10:34.940852$GLGSV,2,2,05,86,54,306,48,,,,,,,,,,,,*56
###2023-11-09 13:10:34.943435$GAGSV,1,1,04,07,73,259,45,08,48,043,45,13,63,161,45,26,57,310,45*67
###2023-11-09 13:10:34.946027$GBGSV,2,1,06,11,22,180,40,14,65,009,45,24,21,132,44,26,23,080,45*64
###2023-11-09 13:10:34.947981$GBGSV,2,2,06,28,43,286,47,33,59,305,47,,,,,,,,*66
###2023-11-09 13:10:34.949453$GNVTG,310.60,T,,M,3.19,N,5.90,K,A*20
###2023-11-09 13:10:35.033242$GNGGA,131035.20,3611.0637468,N,07544.8762618,W,1,24,0.6,0.324,M,-39.960,M,0.0,*6F
###2023-11-09 13:10:35.035829$GPGSV,2,1,07,05,20,091,44,10,19,294,42,13,23,045,43,15,60,038,46*7C
###2023-11-09 13:10:35.038098$GPGSV,2,2,07,18,78,272,46,23,51,317,45,24,51,133,46,,,,*4D
###2023-11-09 13:10:35.040665$GLGSV,2,1,05,70,49,019,35,71,48,291,48,80,19,089,45,85,56,202,48*69
###2023-11-09 13:10:35.042267$GLGSV,2,2,05,86,54,306,48,,,,,,,,,,,,*56
###2023-11-09 13:10:35.044816$GAGSV,1,1,04,07,73,259,45,08,48,043,45,13,63,161,44,26,57,310,45*66
###2023-11-09 13:10:35.047389$GBGSV,2,1,06,11,22,180,40,14,65,009,45,24,21,132,44,26,23,080,45*64
###2023-11-09 13:10:35.049323$GBGSV,2,2,06,28,43,286,47,33,59,305,47,,,,,,,,*66
###2023-11-09 13:10:35.050782$GNVTG,307.25,T,,M,3.30,N,6.12,K,A*25
###2023-11-09 13:10:35.130989$GNGGA,131035.30,3611.0638021,N,07544.8763560,W,1,24,0.6,0.334,M,-39.960,M,0.0,*64
###2023-11-09 13:10:35.133564$GPGSV,2,1,07,05,20,091,44,10,19,294,41,13,23,045,43,15,60,038,46*7F
###2023-11-09 13:10:35.135804$GPGSV,2,2,07,18,78,272,46,23,51,317,45,24,51,133,46,,,,*4D
###2023-11-09 13:10:35.138374$GLGSV,2,1,05,70,49,019,35,71,48,291,48,80,19,089,45,85,56,202,48*69
###2023-11-09 13:10:35.139969$GLGSV,2,2,05,86,54,306,48,,,,,,,,,,,,*56
###2023-11-09 13:10:35.142519$GAGSV,1,1,04,07,73,259,45,08,48,043,45,13,63,161,45,26,57,310,45*67
###2023-11-09 13:10:35.145084$GBGSV,2,1,06,11,22,180,40,14,65,009,45,24,21,132,44,26,23,080,45*64
###2023-11-09 13:10:35.147014$GBGSV,2,2,06,28,43,286,46,33,59,305,47,,,,,,,,*67
###2023-11-09 13:10:35.148476$GNVTG,304.38,T,,M,3.40,N,6.30,K,A*2D
###2023-11-09 13:10:35.232113$GNGGA,131035.40,3611.0638562,N,07544.8764536,W,1,24,0.6,0.334,M,-39.960,M,0.0,*65
###2023-11-09 13:10:35.234710$GPGSV,2,1,07,05,20,091,44,10,19,294,41,13,23,045,43,15,60,038,46*7F
###2023-11-09 13:10:35.236984$GPGSV,2,2,07,18,78,272,46,23,51,317,45,24,51,133,46,,,,*4D
###2023-11-09 13:10:35.239560$GLGSV,2,1,05,70,49,019,35,71,48,291,48,80,19,089,45,85,56,202,48*69
###2023-11-09 13:10:35.241169$GLGSV,2,2,05,86,54,306,48,,,,,,,,,,,,*56
###2023-11-09 13:10:35.243733$GAGSV,1,1,04,07,73,259,45,08,48,043,45,13,63,161,45,26,57,310,45*67
###2023-11-09 13:10:35.246600$GBGSV,2,1,06,11,22,180,40,14,65,009,45,24,21,132,44,26,23,080,44*65
###2023-11-09 13:10:35.248568$GBGSV,2,2,06,28,43,286,46,33,59,305,47,,,,,,,,*67
###2023-11-09 13:10:35.250042$GNVTG,304.21,T,,M,3.40,N,6.30,K,A*25
###2023-11-09 13:10:35.332104$GNGGA,131035.50,3611.0639122,N,07544.8765513,W,1,24,0.6,0.325,M,-39.960,M,0.0,*63
###2023-11-09 13:10:35.334688$GPGSV,2,1,07,05,20,091,44,10,19,294,41,13,23,045,43,15,60,038,46*7F
###2023-11-09 13:10:35.336960$GPGSV,2,2,07,18,78,272,46,23,51,317,45,24,51,133,46,,,,*4D
###2023-11-09 13:10:35.339531$GLGSV,2,1,05,70,49,019,35,71,48,291,48,80,19,089,45,85,56,202,48*69
###2023-11-09 13:10:35.341130$GLGSV,2,2,05,86,54,306,48,,,,,,,,,,,,*56
###2023-11-09 13:10:35.343686$GAGSV,1,1,04,07,73,259,45,08,48,043,45,13,63,161,45,26,57,310,45*67
###2023-11-09 13:10:35.346255$GBGSV,2,1,06,11,22,180,41,14,65,009,45,24,21,132,44,26,23,080,43*63
