###2023-11-09 13:07:20.336147$GPGSV,2,2,07,18,77,281,47,23,50,315,45,24,49,136,46,,,,*40
###2023-11-09 13:07:20.338776$GLGSV,2,1,05,70,50,016,35,71,48,288,47,80,17,091,43,85,58,203,48*67
###2023-11-09 13:07:20.340404$GLGSV,2,2,05,86,52,309,48,,,,,,,,,,,,*5F
###2023-11-09 13:07:20.342977$GAGSV,1,1,04,07,72,257,45,08,49,042,45,13,64,160,44,26,56,310,45*6E
###2023-11-09 13:07:20.345565$GBGSV,2,1,06,11,24,180,41,14,65,006,45,24,19,133,43,26,23,082,43*65
###2023-11-09 13:07:20.347521$GBGSV,2,2,06,28,43,289,47,33,58,302,47,,,,,,,,*6F
###2023-11-09 13:07:20.348960$GNVTG,21.05,T,,M,1.01,N,1.87,K,A*1B
###2023-11-09 13:07:20.430113$GNGGA,130720.60,3611.0528375,N,07544.9774668,W,1,24,0.6,1.056,M,-39.961,M,0.0,*68
###2023-11-09 13:07:20.432703$GPGSV,2,1,07,05,21,090,42,10,18,292,43,13,24,045,43,15,62,037,45*75
###2023-11-09 13:07:20.434948$GPGSV,2,2,07,18,77,281,47,23,50,315,46,24,49,136,45,,,,*40
###2023-11-09 13:07:20.437562$GLGSV,2,1,05,70,50,016,35,71,48,288,48,80,17,091,43,85,58,203,48*68
###2023-11-09 13:07:20.439171$GLGSV,2,2,05,86,52,309,48,,,,,,,,,,,,*5F
###2023-11-09 13:07:20.441734$GAGSV,1,1,04,07,72,257,45,08,49,042,45,13,64,160,44,26,56,310,45*6E
###2023-11-09 13:07:20.444301$GBGSV,2,1,06,11,24,180,41,14,65,006,45,24,19,133,43,26,23,082,43*65
###2023-11-09 13:07:20.446225$GBGSV,2,2,06,28,43,289,47,33,58,302,47,,,,,,,,*6F
###2023-11-09 13:07:20.447663$GNVTG,21.05,T,,M,0.64,N,1.19,K,A*1E
###2023-11-09 13:07:20.529996$GNGGA,130720.70,3611.0528501,N,07544.9774566,W,1,24,0.6,1.057,M,-39.961,M,0.0,*60
###2023-11-09 13:07:20.532594$GPGSV,2,1,07,05,21,090,42,10,18,292,43,13,24,045,43,15,62,037,46*76
###2023-11-09 13:07:20.534859$GPGSV,2,2,07,18,77,281,47,23,50,315,46,24,49,136,45,,,,*40
###2023-11-09 13:07:20.537468$GLGSV,2,1,05,70,50,016,35,71,48,288,48,80,17,091,44,85,58,203,48*6F
###2023-11-09 13:07:20.539089$GLGSV,2,2,05,86,52,309,48,,,,,,,,,,,,*5F
###2023-11-09 13:07:20.541657$GAGSV,1,1,04,07,72,257,45,08,49,042,45,13,64,160,44,26,56,310,45*6E
###2023-11-09 13:07:20.544232$GBGSV,2,1,06,11,24,180,41,14,65,006,45,24,19,133,43,26,23,082,43*65
###2023-11-09 13:07:20.546183$GBGSV,2,2,06,28,43,289,47,33,58,302,47,,,,,,,,*6F
###2023-11-09 13:07:20.547646$GNVTG,21.05,T,,M,0.45,N,0.83,K,A*1F
###2023-11-09 13:07:20.630141$GNGGA,130720.80,3611.0528623,N,07544.9774471,W,1,24,0.6,1.057,M,-39.961,M,0.0,*6B
###2023-11-09 13:07:20.632736$GPGSV,2,1,07,05,21,090,42,10,18,292,42,13,24,045,41,15,62,037,46*75
###2023-11-09 13:07:20.635003$GPGSV,2,2,07,18,77,281,47,23,50,315,45,24,49,136,45,,,,*43
###2023-11-09 13:07:20.637614$GLGSV,2,1,05,70,50,016,35,71,48,288,48,80,17,091,44,85,58,203,48*6F
###2023-11-09 13:07:20.639243$GLGSV,2,2,05,86,52,309,47,,,,,,,,,,,,*50
###2023-11-09 13:07:20.641824$GAGSV,1,1,04,07,72,257,45,08,49,042,45,13,64,160,44,26,56,310,45*6E
###2023-11-09 13:07:20.644414$GBGSV,2,1,06,11,24,180,41,14,65,006,45,24,19,133,43,26,23,082,43*65
###2023-11-09 13:07:20.646362$GBGSV,2,2,06,28,43,289,47,33,58,302,47,,,,,,,,*6F
###2023-11-09 13:07:20.647813$GNVTG,21.05,T,,M,0.58,N,1.08,K,A*11
###2023-11-09 13:07:20.729984$GNGGA,130720.90,3611.0528808,N,07544.9774377,W,1,24,0.6,1.059,M,-39.961,M,0.0,*62
###2023-11-09 13:07:20.732557$GPGSV,2,1,07,05,21,090,42,10,18,292,42,13,24,045,40,15,62,037,45*77
###2023-11-09 13:07:20.734793$GPGSV,2,2,07,18,77,281,47,23,50,315,45,24,49,136,46,,,,*40
###2023-11-09 13:07:20.737372$GLGSV,2,1,05,70,50,016,35,71,48,288,48,80,17,091,43,85,58,203,48*68
###2023-11-09 13:07:20.738981$GLGSV,2,2,05,86,52,309,47,,,,,,,,,,,,*50
###2023-11-09 13:07:20.741546$GAGSV,1,1,04,07,72,257,45,08,49,042,44,13,64,160,44,26,56,310,45*6F
###2023-11-09 13:07:20.744110$GBGSV,2,1,06,11,24,180,42,14,65,006,45,24,19,133,43,26,23,082,43*66
###2023-11-09 13:07:20.746037$GBGSV,2,2,06,28,43,289,47,33,58,302,47,,,,,,,,*6F
###2023-11-09 13:07:20.747474$GNVTG,21.05,T,,M,0.84,N,1.55,K,A*18
###2023-11-09 13:07:20.831010$GNGGA,130721.00,3611.0529078,N,07544.9774292,W,1,24,0.6,1.054,M,-39.961,M,0.0,*63
###2023-11-09 13:07:20.833607$GPGSV,2,1,07,05,21,090,42,10,18,292,43,13,24,045,40,15,62,037,45*76
###2023-11-09 13:07:20.835871$GPGSV,2,2,07,18,77,281,47,23,50,315,45,24,49,136,46,,,,*40
###2023-11-09 13:07:20.838484$GLGSV,2,1,05,70,50,016,35,71,48,288,48,80,17,091,43,85,58,203,48*68
###2023-11-09 13:07:20.840098$GLGSV,2,2,05,86,52,309,47,,,,,,,,,,,,*50
###2023-11-09 13:07:20.842666$GAGSV,1,1,04,07,72,257,45,08,49,042,44,13,64,160,44,26,56,310,45*6F
###2023-11-09 13:07:20.845239$GBGSV,2,1,06,11,24,180,42,14,65,006,45,24,19,133,43,26,23,082,43*66
###2023-11-09 13:07:20.847186$GBGSV,2,2,06,28,43,289,47,33,58,302,47,,,,,,,,*6F
###2023-11-09 13:07:20.848613$GNVTG,12.77,T,,M,1.13,N,2.09,K,A*18
###2023-11-09 13:07:20.930997$GNGGA,130721.10,3611.0529420,N,07544.9774205,W,1,24,0.6,1.057,M,-39.961,M,0.0,*66
###2023-11-09 13:07:20.933597$GPGSV,2,1,07,05,21,090,42,10,18,292,43,13,24,045,40,15,62,037,45*76
###2023-11-09 13:07:20.935856$GPGSV,2,2,07,18,77,281,47,23,50,315,45,24,49,136,46,,,,*40
###2023-11-09 13:07:20.938460$GLGSV,2,1,05,70,50,016,35,71,48,288,48,80,17,091,43,85,58,203,48*68
###2023-11-09 13:07:20.940068$GLGSV,2,2,05,86,52,309,47,,,,,,,,,,,,*50
###2023-11-09 13:07:20.942642$GAGSV,1,1,04,07,72,257,45,08,49,042,44,13,64,160,44,26,56,310,45*6F
###2023-11-09 13:07:20.945226$GBGSV,2,1,06,11,24,180,42,14,65,006,45,24,19,133,43,26,23,082,43*66
###2023-11-09 13:07:20.947183$GBGSV,2,2,06,28,43,289,47,33,58,302,47,,,,,,,,*6F
###2023-11-09 13:07:20.948624$GNVTG,11.33,T,,M,1.34,N,2.48,K,A*1B
###2023-11-09 13:07:21.031965$GNGGA,130721.20,3611.0529768,N,07544.9774107,W,1,24,0.6,1.063,M,-39.961,M,0.0,*6C
###2023-11-09 13:07:21.034533$GPGSV,2,1,07,05,21,090,42,10,18,292,44,13,24,045,41,15,62,037,45*70
###2023-11-09 13:07:21.036772$GPGSV,2,2,07,18,77,281,47,23,50,315,45,24,49,136,46,,,,*40
###2023-11-09 13:07:21.039343$GLGSV,2,1,05,70,50,016,35,71,48,288,48,80,17,091,43,85,58,203,48*68
###2023-11-09 13:07:21.040938$GLGSV,2,2,05,86,52,309,47,,,,,,,,,,,,*50
###2023-11-09 13:07:21.043493$GAGSV,1,1,04,07,72,257,45,08,49,042,44,13,64,160,45,26,56,310,45*6E
###2023-11-09 13:07:21.046064$GBGSV,2,1,06,11,24,180,42,14,65,006,45,24,19,133,43,26,23,082,43*66
###2023-11-09 13:07:21.048013$GBGSV,2,2,06,28,43,289,47,33,58,302,47,,,,,,,,*6F
###2023-11-09 13:07:21.049447$GNVTG,14.91,T,,M,1.21,N,2.23,K,A*1F
###2023-11-09 13:07:21.130001$GNGGA,130721.30,3611.0530057,N,07544.9773998,W,1,24,0.6,1.070,M,-39.961,M,0.0,*65
###2023-11-09 13:07:21.132594$GPGSV,2,1,07,05,21,090,42,10,18,292,44,13,24,045,43,15,62,037,45*72
###2023-11-09 13:07:21.134852$GPGSV,2,2,07,18,77,281,47,23,50,315,45,24,49,136,46,,,,*40
###2023-11-09 13:07:21.137446$GLGSV,2,1,05,70,50,016,35,71,48,288,48,80,17,091,43,85,58,203,48*68
###2023-11-09 13:07:21.139065$GLGSV,2,2,05,86,52,309,47,,,,,,,,,,,,*50
###2023-11-09 13:07:21.141637$GAGSV,1,1,04,07,72,257,45,08,49,042,44,13,64,160,45,26,56,310,45*6E
###2023-11-09 13:07:21.144224$GBGSV,2,1,06,11,24,180,42,14,65,006,45,24,19,133,43,26,23,082,44*61
###2023-11-09 13:07:21.146162$GBGSV,2,2,06,28,43,289,47,33,58,302,47,,,,,,,,*6F
###2023-11-09 13:07:21.147606$GNVTG,14.91,T,,M,0.95,N,1.76,K,A*12
###2023-11-09 13:07:21.240259$GNGGA,130721.40,3611.0530268,N,07544.9773891,W,1,24,0.6,1.077,M,-39.961,M,0.0,*63
###2023-11-09 13:07:21.242873$GPGSV,2,1,07,05,21,090,42,10,18,292,44,13,24,045,43,15,62,037,46*71
###2023-11-09 13:07:21.245136$GPGSV,2,2,07,18,77,281,47,23,50,315,45,24,49,136,46,,,,*40
###2023-11-09 13:07:21.247741$GLGSV,2,1,05,70,50,016,35,71,48,288,48,80,17,091,43,85,58,203,48*68
###2023-11-09 13:07:21.249349$GLGSV,2,2,05,86,52,309,47,,,,,,,,,,,,*50
###2023-11-09 13:07:21.251915$GAGSV,1,1,04,07,72,257,45,08,49,042,44,13,64,160,45,26,56,310,45*6E
###2023-11-09 13:07:21.254494$GBGSV,2,1,06,11,24,180,41,14,65,006,45,24,19,133,43,26,23,082,43*65
###2023-11-09 13:07:21.256429$GBGSV,2,2,06,28,43,289,47,33,58,302,47,,,,,,,,*6F
###2023-11-09 13:07:21.257879$GNVTG,14.91,T,,M,0.68,N,1.26,K,A*15
###2023-11-09 13:07:21.329961$GNGGA,130721.50,3611.0530412,N,07544.9773788,W,1,24,0.6,1.087,M,-39.961,M,0.0,*61
###2023-11-09 13:07:21.332548$GPGSV,2,1,07,05,21,090,42,10,18,292,44,13,24,045,43,15,62,037,46*71
###2023-11-09 13:07:21.334788$GPGSV,2,2,07,18,77,281,47,23,50,315,45,24,49,136,46,,,,*40
###2023-11-09 13:07:21.337690$GLGSV,2,1,05,70,50,016,35,71,48,288,48,80,17,091,43,85,58,203,48*68
###2023-11-09 13:07:21.339309$GLGSV,2,2,05,86,52,309,47,,,,,,,,,,,,*50
###2023-11-09 13:07:21.341864$GAGSV,1,1,04,07,72,257,45,08,49,042,44,13,64,160,44,26,56,310,45*6F
###2023-11-09 13:07:21.344442$GBGSV,2,1,06,11,24,180,41,14,65,006,45,24,19,133,43,26,23,082,43*65
###2023-11-09 13:07:21.346367$GBGSV,2,2,06,28,43,289,47,33,58,302,47,,,,,,,,*6F
###2023-11-09 13:07:21.347800$GNVTG,14.91,T,,M,0.51,N,0.94,K,A*17
###2023-11-09 13:07:21.430028$GNGGA,130721.60,3611.0530548,N,07544.9773691,W,1,24,0.6,1.089,M,-39.961,M,0.0,*6B
###2023-11-09 13:07:21.432618$GPGSV,2,1,07,05,21,090,40,10,18,292,43,13,24,045,43,15,62,037,46*74
###2023-11-09 13:07:21.434859$GPGSV,2,2,07,18,77,281,47,23,50,315,45,24,49,136,46,,,,*40
