###2023-11-09 13:08:06.046564$GBGSV,2,1,06,11,23,180,41,14,65,008,45,24,20,132,45,26,23,081,44*65
###2023-11-09 13:08:06.048535$GBGSV,2,2,06,28,43,287,47,33,59,304,48,,,,,,,,*69
###2023-11-09 13:08:06.050007$GNVTG,242.22,T,,M,5.11,N,9.47,K,A*28
###2023-11-09 13:08:06.134750$GNGGA,130806.30,3611.0443116,N,07544.9918115,W,1,24,0.6,1.161,M,-39.961,M,0.0,*61
###2023-11-09 13:08:06.137369$GPGSV,2,1,07,05,21,090,43,10,18,292,44,13,24,045,41,15,62,037,46*72
###2023-11-09 13:08:06.139633$GPGSV,2,2,07,18,77,281,46,23,50,315,45,24,49,136,46,,,,*41
###2023-11-09 13:08:06.142202$GLGSV,2,1,05,70,50,017,37,71,48,290,48,80,18,090,46,85,58,203,48*69
###2023-11-09 13:08:06.143811$GLGSV,2,2,05,86,52,309,47,,,,,,,,,,,,*50
###2023-11-09 13:08:06.146386$GAGSV,1,1,04,07,72,258,44,08,49,042,45,13,64,160,45,26,56,310,45*61
###2023-11-09 13:08:06.148991$GBGSV,2,1,06,11,23,180,41,14,65,008,45,24,20,132,45,26,23,081,44*65
###2023-11-09 13:08:06.150934$GBGSV,2,2,06,28,43,287,47,33,59,304,47,,,,,,,,*66
###2023-11-09 13:08:06.152396$GNVTG,241.26,T,,M,5.07,N,9.40,K,A*2F
###2023-11-09 13:08:06.229883$GNGGA,130806.40,3611.0442440,N,07544.9919637,W,1,24,0.6,1.160,M,-39.961,M,0.0,*66
###2023-11-09 13:08:06.232469$GPGSV,2,1,07,05,21,090,44,10,18,292,43,13,24,045,41,15,62,037,46*72
###2023-11-09 13:08:06.234722$GPGSV,2,2,07,18,77,281,46,23,50,315,45,24,49,136,47,,,,*40
###2023-11-09 13:08:06.237305$GLGSV,2,1,05,70,50,017,37,71,48,290,48,80,18,090,46,85,58,203,48*69
###2023-11-09 13:08:06.238914$GLGSV,2,2,05,86,52,309,47,,,,,,,,,,,,*50
###2023-11-09 13:08:06.241470$GAGSV,1,1,04,07,72,258,44,08,49,042,45,13,64,160,45,26,56,310,45*61
###2023-11-09 13:08:06.244039$GBGSV,2,1,06,11,23,180,41,14,65,008,45,24,20,132,45,26,23,081,44*65
###2023-11-09 13:08:06.245967$GBGSV,2,2,06,28,43,287,47,33,59,304,47,,,,,,,,*66
###2023-11-09 13:08:06.247442$GNVTG,241.43,T,,M,5.05,N,9.36,K,A*2F
###2023-11-09 13:08:06.329852$GNGGA,130806.50,3611.0441774,N,07544.9921183,W,1,24,0.6,1.164,M,-39.961,M,0.0,*67
###2023-11-09 13:08:06.332429$GPGSV,2,1,07,05,21,090,44,10,18,292,43,13,24,045,41,15,62,037,46*72
###2023-11-09 13:08:06.334673$GPGSV,2,2,07,18,77,281,46,23,50,315,45,24,49,136,47,,,,*40
###2023-11-09 13:08:06.337248$GLGSV,2,1,05,70,50,017,37,71,48,290,48,80,18,090,46,85,58,203,48*69
###2023-11-09 13:08:06.338847$GLGSV,2,2,05,86,52,309,47,,,,,,,,,,,,*50
###2023-11-09 13:08:06.341400$GAGSV,1,1,04,07,72,258,44,08,49,042,45,13,64,160,45,26,56,310,45*61
###2023-11-09 13:08:06.343980$GBGSV,2,1,06,11,23,180,42,14,65,008,45,24,20,132,45,26,23,081,45*67
###2023-11-09 13:08:06.345919$GBGSV,2,2,06,28,43,287,46,33,59,304,47,,,,,,,,*67
###2023-11-09 13:08:06.347414$GNVTG,242.74,T,,M,5.17,N,9.58,K,A*23
###2023-11-09 13:08:06.430009$GNGGA,130806.60,3611.0441153,N,07544.9922761,W,1,24,0.6,1.169,M,-39.961,M,0.0,*63
###2023-11-09 13:08:06.432606$GPGSV,2,1,07,05,21,090,44,10,18,292,44,13,24,045,41,15,62,037,46*75
###2023-11-09 13:08:06.434863$GPGSV,2,2,07,18,77,281,46,23,50,315,45,24,49,136,47,,,,*40
###2023-11-09 13:08:06.437464$GLGSV,2,1,05,70,50,017,37,71,48,290,48,80,18,090,46,85,58,203,48*69
###2023-11-09 13:08:06.439083$GLGSV,2,2,05,86,52,309,47,,,,,,,,,,,,*50
###2023-11-09 13:08:06.441662$GAGSV,1,1,04,07,72,258,44,08,49,042,45,13,64,160,45,26,56,310,44*60
###2023-11-09 13:08:06.444257$GBGSV,2,1,06,11,23,180,42,14,65,008,45,24,20,132,44,26,23,081,45*66
###2023-11-09 13:08:06.446201$GBGSV,2,2,06,28,43,287,46,33,59,304,47,,,,,,,,*67
###2023-11-09 13:08:06.447680$GNVTG,245.50,T,,M,5.05,N,9.36,K,A*29
###2023-11-09 13:08:06.529910$GNGGA,130806.70,3611.0440589,N,07544.9924359,W,1,24,0.6,1.169,M,-39.961,M,0.0,*69
###2023-11-09 13:08:06.532513$GPGSV,2,1,07,05,21,090,44,10,18,292,44,13,24,045,41,15,62,037,46*75
###2023-11-09 13:08:06.534772$GPGSV,2,2,07,18,77,281,47,23,50,315,45,24,49,136,47,,,,*41
###2023-11-09 13:08:06.537358$GLGSV,2,1,05,70,50,017,37,71,48,290,49,80,18,090,46,85,58,203,48*68
###2023-11-09 13:08:06.538970$GLGSV,2,2,05,86,52,309,48,,,,,,,,,,,,*5F
###2023-11-09 13:08:06.541540$GAGSV,1,1,04,07,72,258,44,08,49,042,45,13,64,160,45,26,56,310,44*60
###2023-11-09 13:08:06.544120$GBGSV,2,1,06,11,23,180,41,14,65,008,45,24,20,132,44,26,23,081,45*65
###2023-11-09 13:08:06.546061$GBGSV,2,2,06,28,43,287,47,33,59,304,47,,,,,,,,*66
###2023-11-09 13:08:06.547536$GNVTG,247.42,T,,M,5.07,N,9.40,K,A*2B
###2023-11-09 13:08:06.629858$GNGGA,130806.80,3611.0440037,N,07544.9925955,W,1,24,0.6,1.172,M,-39.961,M,0.0,*6B
###2023-11-09 13:08:06.632423$GPGSV,2,1,07,05,21,090,43,10,18,292,44,13,24,045,41,15,62,037,46*72
###2023-11-09 13:08:06.634668$GPGSV,2,2,07,18,77,281,46,23,50,315,45,24,49,136,46,,,,*41
###2023-11-09 13:08:06.637255$GLGSV,2,1,05,70,50,017,37,71,48,290,49,80,18,090,45,85,58,203,48*6B
###2023-11-09 13:08:06.638864$GLGSV,2,2,05,86,52,309,48,,,,,,,,,,,,*5F
###2023-11-09 13:08:06.641443$GAGSV,1,1,04,07,72,258,44,08,49,042,45,13,64,160,44,26,56,310,45*60
###2023-11-09 13:08:06.644020$GBGSV,2,1,06,11,23,180,39,14,65,008,45,24,20,132,43,26,23,081,44*6C
###2023-11-09 13:08:06.645958$GBGSV,2,2,06,28,43,287,47,33,59,304,47,,,,,,,,*66
###2023-11-09 13:08:06.647440$GNVTG,246.39,T,,M,5.00,N,9.25,K,A*22
###2023-11-09 13:08:06.729813$GNGGA,130806.90,3611.0439442,N,07544.9927503,W,1,24,0.6,1.183,M,-39.961,M,0.0,*61
###2023-11-09 13:08:06.732435$GPGSV,2,1,07,05,21,090,43,10,18,292,45,13,24,045,41,15,62,037,46*73
###2023-11-09 13:08:06.734711$GPGSV,2,2,07,18,77,281,46,23,50,315,45,24,49,136,45,,,,*42
###2023-11-09 13:08:06.737317$GLGSV,2,1,05,70,50,017,37,71,48,290,49,80,18,090,45,85,58,203,47*64
###2023-11-09 13:08:06.738939$GLGSV,2,2,05,86,52,309,48,,,,,,,,,,,,*5F
###2023-11-09 13:08:06.741523$GAGSV,1,1,04,07,72,258,44,08,49,042,45,13,64,160,44,26,56,310,45*60
###2023-11-09 13:08:06.744127$GBGSV,2,1,06,11,23,180,39,14,65,008,45,24,20,132,43,26,23,081,44*6C
###2023-11-09 13:08:06.746063$GBGSV,2,2,06,28,43,287,47,33,59,304,47,,,,,,,,*66
###2023-11-09 13:08:06.747553$GNVTG,243.07,T,,M,4.98,N,9.22,K,A*2D
###2023-11-09 13:08:06.832002$GNGGA,130807.00,3611.0438762,N,07544.9928983,W,1,24,0.6,1.196,M,-39.961,M,0.0,*66
###2023-11-09 13:08:06.834615$GPGSV,2,1,07,05,21,090,43,10,18,292,44,13,24,045,41,15,62,037,46*72
###2023-11-09 13:08:06.836882$GPGSV,2,2,07,18,77,281,46,23,50,315,45,24,49,136,45,,,,*42
###2023-11-09 13:08:06.839495$GLGSV,2,1,05,70,50,017,37,71,48,290,49,80,18,090,45,85,58,203,47*64
###2023-11-09 13:08:06.841114$GLGSV,2,2,05,86,52,309,48,,,,,,,,,,,,*5F
###2023-11-09 13:08:06.843702$GAGSV,1,1,04,07,72,258,44,08,49,042,45,13,64,160,44,26,56,310,45*60
###2023-11-09 13:08:06.846303$GBGSV,2,1,06,11,23,180,39,14,65,008,45,24,20,132,43,26,23,081,44*6C
###2023-11-09 13:08:06.848281$GBGSV,2,2,06,28,43,287,46,33,59,304,47,,,,,,,,*67
###2023-11-09 13:08:06.849772$GNVTG,238.02,T,,M,4.94,N,9.14,K,A*2D
###2023-11-09 13:08:06.933241$GNGGA,130807.10,3611.0438008,N,07544.9930404,W,1,24,0.6,1.205,M,-39.962,M,0.0,*6D
###2023-11-09 13:08:06.935838$GPGSV,2,1,07,05,21,090,44,10,18,292,44,13,24,045,41,15,62,037,46*75
###2023-11-09 13:08:06.938117$GPGSV,2,2,07,18,77,281,46,23,50,315,45,24,49,136,46,,,,*41
###2023-11-09 13:08:06.940696$GLGSV,2,1,05,70,50,017,37,71,48,290,48,80,18,090,46,85,58,203,48*69
###2023-11-09 13:08:06.942301$GLGSV,2,2,05,86,52,309,48,,,,,,,,,,,,*5F
###2023-11-09 13:08:06.944868$GAGSV,1,1,04,07,72,258,44,08,49,042,45,13,64,160,44,26,56,310,44*61
###2023-11-09 13:08:06.947462$GBGSV,2,1,06,11,23,180,41,14,65,008,45,24,20,132,44,26,23,081,44*64
###2023-11-09 13:08:06.949398$GBGSV,2,2,06,28,43,287,46,33,59,304,47,,,,,,,,*67
###2023-11-09 13:08:06.950864$GNVTG,235.71,T,,M,4.98,N,9.22,K,A*2D
###2023-11-09 13:08:07.030856$GNGGA,130807.20,3611.0437261,N,07544.9931844,W,1,24,0.6,1.199,M,-39.962,M,0.0,*63
###2023-11-09 13:08:07.033442$GPGSV,2,1,07,05,21,090,45,10,18,292,42,13,24,045,41,15,62,037,46*72
###2023-11-09 13:08:07.035701$GPGSV,2,2,07,18,77,281,46,23,50,315,45,24,49,136,47,,,,*40
###2023-11-09 13:08:07.038294$GLGSV,2,1,05,70,50,017,36,71,48,290,48,80,18,090,46,85,58,203,48*68
###2023-11-09 13:08:07.039908$GLGSV,2,2,05,86,52,309,47,,,,,,,,,,,,*50
###2023-11-09 13:08:07.042490$GAGSV,1,1,04,07,72,258,44,08,49,042,45,13,64,160,45,26,56,310,44*60
###2023-11-09 13:08:07.045368$GBGSV,2,1,06,11,23,180,42,14,65,008,45,24,20,132,45,26,23,081,44*66
###2023-11-09 13:08:07.047333$GBGSV,2,2,06,28,43,287,46,33,59,304,46,,,,,,,,*66
###2023-11-09 13:08:07.048806$GNVTG,239.21,T,,M,4.98,N,9.22,K,A*24
###2023-11-09 13:08:07.130861$GNGGA,130807.30,3611.0436606,N,07544.9933355,W,1,24,0.6,1.190,M,-39.962,M,0.0,*66
###2023-11-09 13:08:07.133449$GPGSV,2,1,07,05,21,090,45,10,18,292,41,13,24,045,40,15,62,037,46*70
###2023-11-09 13:08:07.135703$GPGSV,2,2,07,18,77,281,46,23,50,315,45,24,49,136,47,,,,*40
###2023-11-09 13:08:07.138298$GLGSV,2,1,05,70,50,017,36,71,48,290,48,80,18,090,47,85,58,203,48*69
###2023-11-09 13:08:07.139904$GLGSV,2,2,05,86,52,309,47,,,,,,,,,,,,*50
###2023-11-09 13:08:07.142466$GAGSV,1,1,04,07,72,258,44,08,49,042,45,13,64,160,45,26,56,310,44*60
###2023-11-09 13:08:07.145044$GBGSV,2,1,06,11,23,180,42,14,65,008,45,24,20,132,45,26,23,081,45*67
