###2023-11-09 13:09:53.032775$GNGGA,130953.20,3611.0425136,N,07544.9097718,W,1,24,0.6,0.686,M,-39.961,M,0.0,*69
###2023-11-09 13:09:53.035398$GPGSV,2,1,07,05,20,090,44,10,19,293,42,13,24,045,41,15,61,037,46*71
###2023-11-09 13:09:53.037690$GPGSV,2,2,07,18,78,277,47,23,50,316,45,24,50,134,45,,,,*4C
###2023-11-09 13:09:53.040272$GLGSV,2,1,05,70,49,019,36,71,48,290,47,80,18,090,45,85,57,203,49*6C
###2023-11-09 13:09:53.041884$GLGSV,2,2,05,86,53,308,48,,,,,,,,,,,,*5F
###2023-11-09 13:09:53.044449$GAGSV,1,1,04,07,73,259,45,08,48,043,44,13,63,161,46,26,57,310,45*65
###2023-11-09 13:09:53.047049$GBGSV,2,1,06,11,22,180,43,14,65,009,44,24,21,132,45,26,23,080,44*66
###2023-11-09 13:09:53.048981$GBGSV,2,2,06,28,43,286,47,33,59,305,47,,,,,,,,*66
###2023-11-09 13:09:53.050428$GNVTG,54.75,T,,M,4.57,N,8.46,K,A*1C
###2023-11-09 13:09:53.131378$GNGGA,130953.30,3611.0425893,N,07544.9096476,W,1,24,0.6,0.730,M,-39.961,M,0.0,*68
###2023-11-09 13:09:53.133980$GPGSV,2,1,07,05,20,090,43,10,19,293,41,13,24,045,41,15,61,037,46*75
###2023-11-09 13:09:53.136231$GPGSV,2,2,07,18,78,277,47,23,50,316,45,24,50,134,45,,,,*4C
###2023-11-09 13:09:53.138818$GLGSV,2,1,05,70,49,019,35,71,48,290,47,80,18,090,45,85,57,203,49*6F
###2023-11-09 13:09:53.140428$GLGSV,2,2,05,86,53,308,47,,,,,,,,,,,,*50
###2023-11-09 13:09:53.142996$GAGSV,1,1,04,07,73,259,45,08,48,043,44,13,63,161,46,26,57,310,44*64
###2023-11-09 13:09:53.145570$GBGSV,2,1,06,11,22,180,43,14,65,009,44,24,21,132,45,26,23,080,44*66
###2023-11-09 13:09:53.147518$GBGSV,2,2,06,28,43,286,46,33,59,305,47,,,,,,,,*67
###2023-11-09 13:09:53.148948$GNVTG,50.84,T,,M,4.51,N,8.35,K,A*14
###2023-11-09 13:09:53.230271$GNGGA,130953.40,3611.0426705,N,07544.9095314,W,1,24,0.6,0.771,M,-39.961,M,0.0,*69
###2023-11-09 13:09:53.232892$GPGSV,2,1,07,05,20,090,43,10,19,293,42,13,24,045,41,15,61,037,45*75
###2023-11-09 13:09:53.235152$GPGSV,2,2,07,18,78,277,47,23,50,316,45,24,50,134,45,,,,*4C
###2023-11-09 13:09:53.237755$GLGSV,2,1,05,70,49,019,36,71,48,290,47,80,18,090,45,85,57,203,49*6C
###2023-11-09 13:09:53.239367$GLGSV,2,2,05,86,53,308,47,,,,,,,,,,,,*50
###2023-11-09 13:09:53.241946$GAGSV,1,1,04,07,73,259,45,08,48,043,44,13,63,161,46,26,57,310,44*64
###2023-11-09 13:09:53.244533$GBGSV,2,1,06,11,22,180,43,14,65,009,44,24,21,132,44,26,23,080,44*67
###2023-11-09 13:09:53.246477$GBGSV,2,2,06,28,43,286,46,33,59,305,47,,,,,,,,*67
###2023-11-09 13:09:53.247934$GNVTG,47.57,T,,M,4.47,N,8.28,K,A*17
###2023-11-09 13:09:53.330729$GNGGA,130953.50,3611.0427564,N,07544.9094224,W,1,24,0.6,0.809,M,-39.961,M,0.0,*6F
###2023-11-09 13:09:53.333312$GPGSV,2,1,07,05,20,090,43,10,19,293,43,13,24,045,41,15,61,037,46*77
###2023-11-09 13:09:53.335568$GPGSV,2,2,07,18,78,277,47,23,50,316,46,24,50,134,45,,,,*4F
###2023-11-09 13:09:53.338158$GLGSV,2,1,05,70,49,019,36,71,48,290,48,80,18,090,44,85,57,203,49*62
###2023-11-09 13:09:53.339773$GLGSV,2,2,05,86,53,308,47,,,,,,,,,,,,*50
###2023-11-09 13:09:53.342350$GAGSV,1,1,04,07,73,259,45,08,48,043,44,13,63,161,46,26,57,310,44*64
###2023-11-09 13:09:53.344936$GBGSV,2,1,06,11,22,180,42,14,65,009,44,24,21,132,44,26,23,080,44*66
###2023-11-09 13:09:53.346869$GBGSV,2,2,06,28,43,286,47,33,59,305,47,,,,,,,,*66
###2023-11-09 13:09:53.348306$GNVTG,44.20,T,,M,4.43,N,8.21,K,A*19
###2023-11-09 13:09:53.430355$GNGGA,130953.60,3611.0428467,N,07544.9093198,W,1,24,0.6,0.850,M,-39.961,M,0.0,*6E
###2023-11-09 13:09:53.432941$GPGSV,2,1,07,05,20,090,42,10,19,293,44,13,24,045,41,15,61,037,46*71
###2023-11-09 13:09:53.435189$GPGSV,2,2,07,18,78,277,47,23,50,316,46,24,50,134,45,,,,*4F
###2023-11-09 13:09:53.437785$GLGSV,2,1,05,70,49,019,36,71,48,290,48,80,18,090,44,85,57,203,49*62
###2023-11-09 13:09:53.439381$GLGSV,2,2,05,86,53,308,47,,,,,,,,,,,,*50
###2023-11-09 13:09:53.441953$GAGSV,1,1,04,07,73,259,45,08,48,043,44,13,63,161,45,26,57,310,44*67
###2023-11-09 13:09:53.444529$GBGSV,2,1,06,11,22,180,41,14,65,009,45,24,21,132,44,26,23,080,44*64
###2023-11-09 13:09:53.446468$GBGSV,2,2,06,28,43,286,47,33,59,305,47,,,,,,,,*66
###2023-11-09 13:09:53.447906$GNVTG,40.83,T,,M,4.43,N,8.21,K,A*14
###2023-11-09 13:09:53.529763$GNGGA,130953.70,3611.0429404,N,07544.9092209,W,1,24,0.6,0.884,M,-39.961,M,0.0,*68
###2023-11-09 13:09:53.532366$GPGSV,2,1,07,05,20,090,42,10,19,293,44,13,24,045,41,15,61,037,46*71
###2023-11-09 13:09:53.534623$GPGSV,2,2,07,18,78,277,47,23,50,316,46,24,50,134,45,,,,*4F
###2023-11-09 13:09:53.537220$GLGSV,2,1,05,70,49,019,36,71,48,290,48,80,18,090,43,85,57,203,49*65
###2023-11-09 13:09:53.538832$GLGSV,2,2,05,86,53,308,47,,,,,,,,,,,,*50
###2023-11-09 13:09:53.541407$GAGSV,1,1,04,07,73,259,45,08,48,043,44,13,63,161,45,26,57,310,44*67
###2023-11-09 13:09:53.543994$GBGSV,2,1,06,11,22,180,41,14,65,009,45,24,21,132,42,26,23,080,44*62
###2023-11-09 13:09:53.545941$GBGSV,2,2,06,28,43,286,47,33,59,305,47,,,,,,,,*66
###2023-11-09 13:09:53.547396$GNVTG,40.18,T,,M,4.47,N,8.28,K,A*1B
###2023-11-09 13:09:53.631385$GNGGA,130953.80,3611.0430325,N,07544.9091193,W,1,24,0.6,0.914,M,-39.961,M,0.0,*60
###2023-11-09 13:09:53.633993$GPGSV,2,1,07,05,20,090,42,10,19,293,45,13,24,045,41,15,61,037,46*70
###2023-11-09 13:09:53.636264$GPGSV,2,2,07,18,78,277,47,23,50,316,46,24,50,134,45,,,,*4F
###2023-11-09 13:09:53.638882$GLGSV,2,1,05,70,49,019,36,71,48,290,48,80,18,090,43,85,57,203,48*64
###2023-11-09 13:09:53.640499$GLGSV,2,2,05,86,53,308,47,,,,,,,,,,,,*50
###2023-11-09 13:09:53.643075$GAGSV,1,1,04,07,73,259,45,08,48,043,44,13,63,161,45,26,57,310,44*67
###2023-11-09 13:09:53.645663$GBGSV,2,1,06,11,22,180,41,14,65,009,45,24,21,132,42,26,23,080,43*65
###2023-11-09 13:09:53.647617$GBGSV,2,2,06,28,43,286,47,33,59,305,48,,,,,,,,*69
###2023-11-09 13:09:53.649049$GNVTG,43.40,T,,M,4.43,N,8.21,K,A*18
###2023-11-09 13:09:53.730101$GNGGA,130953.90,3611.0431212,N,07544.9090147,W,1,24,0.6,0.939,M,-39.961,M,0.0,*62
###2023-11-09 13:09:53.732671$GPGSV,2,1,07,05,20,090,42,10,19,293,44,13,24,045,41,15,61,037,46*71
###2023-11-09 13:09:53.734911$GPGSV,2,2,07,18,78,277,47,23,50,316,46,24,50,134,45,,,,*4F
###2023-11-09 13:09:53.737494$GLGSV,2,1,05,70,49,019,36,71,48,290,48,80,18,090,43,85,57,203,48*64
###2023-11-09 13:09:53.739097$GLGSV,2,2,05,86,53,308,48,,,,,,,,,,,,*5F
###2023-11-09 13:09:53.741645$GAGSV,1,1,04,07,73,259,46,08,48,043,44,13,63,161,45,26,57,310,45*65
###2023-11-09 13:09:53.744205$GBGSV,2,1,06,11,22,180,41,14,65,009,45,24,21,132,42,26,23,080,43*65
###2023-11-09 13:09:53.746126$GBGSV,2,2,06,28,43,286,47,33,59,305,48,,,,,,,,*69
###2023-11-09 13:09:53.747553$GNVTG,43.95,T,,M,4.43,N,8.21,K,A*10
###2023-11-09 13:09:53.837768$GNGGA,130954.00,3611.0432114,N,07544.9089095,W,1,24,0.6,0.946,M,-39.961,M,0.0,*64
###2023-11-09 13:09:53.840369$GPGSV,2,1,07,05,20,090,42,10,19,293,44,13,24,045,41,15,61,037,45*72
###2023-11-09 13:09:53.842622$GPGSV,2,2,07,18,78,277,47,23,50,316,46,24,50,134,45,,,,*4F
###2023-11-09 13:09:53.845200$GLGSV,2,1,05,70,49,019,36,71,48,290,48,80,18,090,43,85,57,203,48*64
###2023-11-09 13:09:53.846802$GLGSV,2,2,05,86,53,308,48,,,,,,,,,,,,*5F
###2023-11-09 13:09:53.849378$GAGSV,1,1,04,07,73,259,46,08,48,043,44,13,63,161,45,26,57,310,45*65
###2023-11-09 13:09:53.851957$GBGSV,2,1,06,11,22,180,41,14,65,009,45,24,21,132,43,26,23,080,43*64
###2023-11-09 13:09:53.853885$GBGSV,2,2,06,28,43,286,47,33,59,305,48,,,,,,,,*69
###2023-11-09 13:09:53.855317$GNVTG,42.85,T,,M,4.53,N,8.39,K,A*18
###2023-11-09 13:09:53.936597$GNGGA,130954.10,3611.0433039,N,07544.9088056,W,1,24,0.6,0.936,M,-39.961,M,0.0,*63
###2023-11-09 13:09:53.939197$GPGSV,2,1,07,05,20,090,42,10,19,293,43,13,24,045,41,15,61,037,46*76
###2023-11-09 13:09:53.941446$GPGSV,2,2,07,18,78,277,47,23,50,316,45,24,50,134,46,,,,*4F
###2023-11-09 13:09:53.944011$GLGSV,2,1,05,70,49,019,36,71,48,291,47,80,18,090,43,85,57,203,49*6B
###2023-11-09 13:09:53.945616$GLGSV,2,2,05,86,53,308,48,,,,,,,,,,,,*5F
###2023-11-09 13:09:53.948201$GAGSV,1,1,04,07,73,259,46,08,48,043,44,13,63,161,45,26,57,310,45*65
###2023-11-09 13:09:53.950781$GBGSV,2,1,06,11,22,180,41,14,65,009,45,24,21,132,43,26,23,080,43*64
###2023-11-09 13:09:53.952721$GBGSV,2,2,06,28,43,286,47,33,59,305,48,,,,,,,,*69
###2023-11-09 13:09:53.954145$GNVTG,41.82,T,,M,4.49,N,8.32,K,A*1C
###2023-11-09 13:09:54.034851$GNGGA,130954.20,3611.0433984,N,07544.9087028,W,1,24,0.6,0.917,M,-39.961,M,0.0,*6A
###2023-11-09 13:09:54.037748$GPGSV,2,1,07,05,20,090,42,10,19,293,42,13,24,045,41,15,61,037,46*77
###2023-11-09 13:09:54.040003$GPGSV,2,2,07,18,78,277,47,23,50,316,45,24,50,134,46,,,,*4F
###2023-11-09 13:09:54.042557$GLGSV,2,1,05,70,49,019,36,71,48,291,47,80,18,090,43,85,57,203,49*6B
###2023-11-09 13:09:54.044154$GLGSV,2,2,05,86,53,308,48,,,,,,,,,,,,*5F
###2023-11-09 13:09:54.046714$GAGSV,1,1,04,07,73,259,46,08,48,043,44,13,63,161,45,26,57,310,44*64
###2023-11-09 13:09:54.049285$GBGSV,2,1,06,11,22,180,41,14,65,009,44,24,21,132,43,26,23,080,43*65
###2023-11-09 13:09:54.051209$GBGSV,2,2,06,28,43,286,47,33,59,305,47,,,,,,,,*66
###2023-11-09 13:09:54.052630$GNVTG,40.87,T,,M,4.59,N,8.50,K,A*1D
###2023-11-09 13:09:54.130125$GNGGA,130954.30,3611.0434960,N,07544.9085984,W,1,24,0.6,0.876,M,-39.961,M,0.0,*6D
