###2023-11-09 13:07:34.744809$GBGSV,2,1,06,11,23,180,40,14,65,008,45,24,19,133,42,26,23,082,43*6C
###2023-11-09 13:07:34.746782$GBGSV,2,2,06,28,43,289,47,33,58,302,47,,,,,,,,*6F
###2023-11-09 13:07:34.748276$GNVTG,342.75,T,,M,0.47,N,0.86,K,A*29
###2023-11-09 13:07:34.831629$GNGGA,130735.00,3611.0559161,N,07544.9778106,W,1,24,0.6,1.157,M,-39.961,M,0.0,*68
###2023-11-09 13:07:34.834232$GPGSV,2,1,07,05,21,090,42,10,18,292,43,13,24,045,41,15,62,037,46*74
###2023-11-09 13:07:34.836483$GPGSV,2,2,07,18,77,281,47,23,50,315,45,24,49,136,46,,,,*40
###2023-11-09 13:07:34.839079$GLGSV,2,1,05,70,50,016,35,71,48,288,48,80,17,091,43,85,58,203,49*69
###2023-11-09 13:07:34.840684$GLGSV,2,2,05,86,52,309,47,,,,,,,,,,,,*50
###2023-11-09 13:07:34.843248$GAGSV,1,1,04,07,72,257,45,08,49,042,44,13,64,160,45,26,56,310,45*6E
###2023-11-09 13:07:34.845826$GBGSV,2,1,06,11,23,180,41,14,65,008,45,24,19,133,42,26,23,082,43*6D
###2023-11-09 13:07:34.847772$GBGSV,2,2,06,28,43,289,47,33,58,302,47,,,,,,,,*6F
###2023-11-09 13:07:34.849238$GNVTG,342.75,T,,M,0.68,N,1.26,K,A*2F
###2023-11-09 13:07:34.936382$GNGGA,130735.10,3611.0559400,N,07544.9778122,W,1,24,0.6,1.116,M,-39.961,M,0.0,*68
###2023-11-09 13:07:34.939014$GPGSV,2,1,07,05,21,090,40,10,18,292,43,13,24,045,39,15,62,037,46*79
###2023-11-09 13:07:34.941269$GPGSV,2,2,07,18,77,281,47,23,50,315,44,24,49,136,46,,,,*41
###2023-11-09 13:07:34.943841$GLGSV,2,1,05,70,50,016,35,71,48,288,48,80,17,091,42,85,58,203,49*68
###2023-11-09 13:07:34.945446$GLGSV,2,2,05,86,52,309,47,,,,,,,,,,,,*50
###2023-11-09 13:07:34.948033$GAGSV,1,1,04,07,72,257,45,08,49,042,44,13,64,160,45,26,56,310,45*6E
###2023-11-09 13:07:34.950626$GBGSV,2,1,06,11,23,180,41,14,65,008,45,24,19,133,43,26,23,082,43*6C
###2023-11-09 13:07:34.952570$GBGSV,2,2,06,28,43,289,47,33,58,302,46,,,,,,,,*6E
###2023-11-09 13:07:34.953968$GNVTG,3.55,T,,M,0.99,N,1.84,K,A*2D
###2023-11-09 13:07:35.032621$GNGGA,130735.20,3611.0559734,N,07544.9778079,W,1,24,0.6,1.078,M,-39.961,M,0.0,*69
###2023-11-09 13:07:35.035209$GPGSV,2,1,07,05,21,090,40,10,18,292,43,13,24,045,39,15,62,037,45*7A
###2023-11-09 13:07:35.037477$GPGSV,2,2,07,18,77,281,47,23,50,315,45,24,49,136,46,,,,*40
###2023-11-09 13:07:35.040054$GLGSV,2,1,05,70,50,016,35,71,48,288,48,80,17,091,42,85,58,203,49*68
###2023-11-09 13:07:35.041664$GLGSV,2,2,05,86,52,309,47,,,,,,,,,,,,*50
###2023-11-09 13:07:35.044231$GAGSV,1,1,04,07,72,257,45,08,49,042,43,13,64,160,45,26,56,310,45*69
###2023-11-09 13:07:35.046804$GBGSV,2,1,06,11,23,180,42,14,65,008,45,24,19,133,43,26,23,082,43*6F
###2023-11-09 13:07:35.048745$GBGSV,2,2,06,28,43,289,47,33,58,302,47,,,,,,,,*6F
###2023-11-09 13:07:35.050178$GNVTG,10.32,T,,M,1.38,N,2.56,K,A*18
###2023-11-09 13:07:35.130590$GNGGA,130735.30,3611.0560134,N,07544.9777998,W,1,24,0.6,1.034,M,-39.961,M,0.0,*65
###2023-11-09 13:07:35.133148$GPGSV,2,1,07,05,21,090,40,10,18,292,43,13,24,045,41,15,62,037,45*75
###2023-11-09 13:07:35.135386$GPGSV,2,2,07,18,77,281,47,23,50,315,45,24,49,136,46,,,,*40
###2023-11-09 13:07:35.137951$GLGSV,2,1,05,70,50,016,35,71,48,288,48,80,17,091,42,85,58,203,49*68
###2023-11-09 13:07:35.139551$GLGSV,2,2,05,86,52,309,47,,,,,,,,,,,,*50
###2023-11-09 13:07:35.142110$GAGSV,1,1,04,07,72,257,45,08,49,042,43,13,64,160,45,26,56,310,45*69
###2023-11-09 13:07:35.144678$GBGSV,2,1,06,11,23,180,42,14,65,008,45,24,19,133,43,26,23,082,43*6F
###2023-11-09 13:07:35.146600$GBGSV,2,2,06,28,43,289,47,33,58,302,47,,,,,,,,*6F
###2023-11-09 13:07:35.148040$GNVTG,11.73,T,,M,1.50,N,2.77,K,A*11
###2023-11-09 13:07:35.230880$GNGGA,130735.40,3611.0560523,N,07544.9777885,W,1,24,0.6,0.993,M,-39.961,M,0.0,*68
###2023-11-09 13:07:35.233471$GPGSV,2,1,07,05,21,090,41,10,18,292,44,13,24,045,42,15,62,037,45*70
###2023-11-09 13:07:35.235730$GPGSV,2,2,07,18,77,281,47,23,50,315,45,24,49,136,46,,,,*40
###2023-11-09 13:07:35.238326$GLGSV,2,1,05,70,50,016,35,71,48,288,48,80,17,091,43,85,58,203,48*68
###2023-11-09 13:07:35.239941$GLGSV,2,2,05,86,52,309,47,,,,,,,,,,,,*50
###2023-11-09 13:07:35.242507$GAGSV,1,1,04,07,72,257,45,08,49,042,44,13,64,160,45,26,56,310,45*6E
###2023-11-09 13:07:35.245085$GBGSV,2,1,06,11,23,180,42,14,65,008,45,24,19,133,43,26,23,082,43*6F
###2023-11-09 13:07:35.247033$GBGSV,2,2,06,28,43,289,47,33,58,302,47,,,,,,,,*6F
###2023-11-09 13:07:35.248466$GNVTG,18.58,T,,M,1.36,N,2.52,K,A*16
###2023-11-09 13:07:35.332119$GNGGA,130735.50,3611.0560842,N,07544.9777750,W,1,24,0.6,0.955,M,-39.961,M,0.0,*6E
###2023-11-09 13:07:35.334713$GPGSV,2,1,07,05,21,090,41,10,18,292,44,13,24,045,42,15,62,037,46*73
###2023-11-09 13:07:35.336982$GPGSV,2,2,07,18,77,281,47,23,50,315,45,24,49,136,45,,,,*43
###2023-11-09 13:07:35.339559$GLGSV,2,1,05,70,50,016,35,71,48,288,48,80,17,091,43,85,58,203,48*68
###2023-11-09 13:07:35.341161$GLGSV,2,2,05,86,52,309,47,,,,,,,,,,,,*50
###2023-11-09 13:07:35.343721$GAGSV,1,1,04,07,72,257,45,08,49,042,44,13,64,160,45,26,56,310,45*6E
###2023-11-09 13:07:35.346297$GBGSV,2,1,06,11,23,180,41,14,65,008,45,24,19,133,43,26,23,082,43*6C
###2023-11-09 13:07:35.348247$GBGSV,2,2,06,28,43,289,47,33,58,302,47,,,,,,,,*6F
###2023-11-09 13:07:35.349684$GNVTG,24.15,T,,M,1.05,N,1.94,K,A*19
###2023-11-09 13:07:35.430747$GNGGA,130735.60,3611.0561061,N,07544.9777610,W,1,24,0.6,0.926,M,-39.961,M,0.0,*64
###2023-11-09 13:07:35.433329$GPGSV,2,1,07,05,21,090,41,10,18,292,44,13,24,045,43,15,62,037,46*72
###2023-11-09 13:07:35.435573$GPGSV,2,2,07,18,77,281,47,23,50,315,45,24,49,136,45,,,,*43
###2023-11-09 13:07:35.438184$GLGSV,2,1,05,70,50,016,35,71,48,288,48,80,17,091,43,85,58,203,47*67
###2023-11-09 13:07:35.439788$GLGSV,2,2,05,86,52,309,48,,,,,,,,,,,,*5F
###2023-11-09 13:07:35.442343$GAGSV,1,1,04,07,72,257,45,08,49,042,45,13,64,160,45,26,56,310,45*6F
###2023-11-09 13:07:35.444909$GBGSV,2,1,06,11,23,180,41,14,65,008,45,24,19,133,43,26,23,082,43*6C
###2023-11-09 13:07:35.446834$GBGSV,2,2,06,28,43,289,47,33,58,302,47,,,,,,,,*6F
###2023-11-09 13:07:35.448266$GNVTG,24.15,T,,M,0.74,N,1.37,K,A*17
###2023-11-09 13:07:35.529663$GNGGA,130735.70,3611.0561205,N,07544.9777445,W,1,24,0.6,0.908,M,-39.961,M,0.0,*6B
###2023-11-09 13:07:35.532259$GPGSV,2,1,07,05,21,090,41,10,18,292,44,13,24,045,43,15,62,037,46*72
###2023-11-09 13:07:35.534510$GPGSV,2,2,07,18,77,281,47,23,50,315,45,24,49,136,45,,,,*43
###2023-11-09 13:07:35.537097$GLGSV,2,1,05,70,50,016,35,71,48,288,48,80,17,091,43,85,58,203,48*68
###2023-11-09 13:07:35.538713$GLGSV,2,2,05,86,52,309,47,,,,,,,,,,,,*50
###2023-11-09 13:07:35.541295$GAGSV,1,1,04,07,72,257,45,08,49,042,45,13,64,160,45,26,56,310,45*6F
###2023-11-09 13:07:35.543874$GBGSV,2,1,06,11,23,180,41,14,65,008,45,24,19,133,43,26,23,082,43*6C
###2023-11-09 13:07:35.545811$GBGSV,2,2,06,28,43,289,47,33,58,302,47,,,,,,,,*6F
###2023-11-09 13:07:35.547258$GNVTG,24.15,T,,M,0.72,N,1.33,K,A*15
###2023-11-09 13:07:35.630619$GNGGA,130735.80,3611.0561344,N,07544.9777255,W,1,24,0.6,0.894,M,-39.961,M,0.0,*63
###2023-11-09 13:07:35.633217$GPGSV,2,1,07,05,21,090,41,10,18,292,44,13,24,045,41,15,62,037,45*73
###2023-11-09 13:07:35.635470$GPGSV,2,2,07,18,77,281,47,23,50,315,45,24,49,136,45,,,,*43
###2023-11-09 13:07:35.638071$GLGSV,2,1,05,70,50,016,35,71,48,288,48,80,17,091,43,85,58,203,48*68
###2023-11-09 13:07:35.639689$GLGSV,2,2,05,86,52,309,47,,,,,,,,,,,,*50
###2023-11-09 13:07:35.642276$GAGSV,1,1,04,07,72,257,45,08,49,042,44,13,64,160,44,26,56,310,45*6F
###2023-11-09 13:07:35.644851$GBGSV,2,1,06,11,23,180,41,14,65,008,45,24,19,133,43,26,23,082,42*6D
###2023-11-09 13:07:35.646785$GBGSV,2,2,06,28,43,289,47,33,58,302,47,,,,,,,,*6F
###2023-11-09 13:07:35.648237$GNVTG,24.15,T,,M,0.80,N,1.48,K,A*14
###2023-11-09 13:07:35.730851$GNGGA,130735.90,3611.0561551,N,07544.9777054,W,1,24,0.6,0.887,M,-39.961,M,0.0,*61
###2023-11-09 13:07:35.733436$GPGSV,2,1,07,05,21,090,41,10,18,292,44,13,24,045,41,15,62,037,45*73
###2023-11-09 13:07:35.735683$GPGSV,2,2,07,18,77,281,47,23,50,315,45,24,49,136,45,,,,*43
###2023-11-09 13:07:35.738270$GLGSV,2,1,05,70,50,016,35,71,48,288,48,80,17,091,43,85,58,203,48*68
###2023-11-09 13:07:35.739875$GLGSV,2,2,05,86,52,309,47,,,,,,,,,,,,*50
###2023-11-09 13:07:35.742435$GAGSV,1,1,04,07,72,257,45,08,49,042,44,13,64,160,44,26,56,310,45*6F
###2023-11-09 13:07:35.745016$GBGSV,2,1,06,11,23,180,41,14,65,008,45,24,19,133,43,26,23,082,42*6D
###2023-11-09 13:07:35.747263$GBGSV,2,2,06,28,43,289,47,33,58,302,47,,,,,,,,*6F
###2023-11-09 13:07:35.748692$GNVTG,35.07,T,,M,1.13,N,2.09,K,A*1A
###2023-11-09 13:07:35.837659$GNGGA,130736.00,3611.0561866,N,07544.9776841,W,1,24,0.6,0.881,M,-39.961,M,0.0,*69
###2023-11-09 13:07:35.840261$GPGSV,2,1,07,05,21,090,41,10,18,292,44,13,24,045,41,15,62,037,45*73
###2023-11-09 13:07:35.842528$GPGSV,2,2,07,18,77,281,47,23,50,315,45,24,49,136,45,,,,*43
###2023-11-09 13:07:35.845128$GLGSV,2,1,05,70,50,016,35,71,48,288,48,80,17,091,43,85,58,203,48*68
###2023-11-09 13:07:35.846742$GLGSV,2,2,05,86,52,309,47,,,,,,,,,,,,*50
###2023-11-09 13:07:35.849331$GAGSV,1,1,04,07,72,257,45,08,49,042,43,13,64,160,45,26,56,310,45*69
###2023-11-09 13:07:35.851929$GBGSV,2,1,06,11,23,180,42,14,65,008,45,24,19,133,43,26,23,082,42*6E
