###2023-11-09 13:09:57.439684$GLGSV,2,2,05,86,53,308,48,,,,,,,,,,,,*5F
###2023-11-09 13:09:57.442286$GAGSV,1,1,04,07,73,259,46,08,48,043,44,13,63,161,45,26,57,310,45*65
###2023-11-09 13:09:57.444876$GBGSV,2,1,06,11,22,180,42,14,65,009,44,24,21,132,42,26,23,080,43*67
###2023-11-09 13:09:57.446813$GBGSV,2,2,06,28,43,286,47,33,59,305,47,,,,,,,,*66
###2023-11-09 13:09:57.448298$GNVTG,48.94,T,,M,5.13,N,9.50,K,A*19
###2023-11-09 13:09:57.530752$GNGGA,130957.70,3611.0465905,N,07544.9040875,W,1,24,0.6,0.696,M,-39.961,M,0.0,*6B
###2023-11-09 13:09:57.533346$GPGSV,2,1,07,05,20,090,42,10,19,293,43,13,24,045,40,15,61,037,46*77
###2023-11-09 13:09:57.535606$GPGSV,2,2,07,18,78,277,47,23,50,316,45,24,50,134,45,,,,*4C
###2023-11-09 13:09:57.538223$GLGSV,2,1,05,70,49,019,36,71,48,291,48,80,18,090,44,85,57,203,49*63
###2023-11-09 13:09:57.539851$GLGSV,2,2,05,86,53,308,48,,,,,,,,,,,,*5F
###2023-11-09 13:09:57.542437$GAGSV,1,1,04,07,73,259,46,08,48,043,44,13,63,161,45,26,57,310,45*65
###2023-11-09 13:09:57.545039$GBGSV,2,1,06,11,22,180,42,14,65,009,44,24,21,132,43,26,23,080,43*66
###2023-11-09 13:09:57.547000$GBGSV,2,2,06,28,43,286,47,33,59,305,47,,,,,,,,*66
###2023-11-09 13:09:57.548434$GNVTG,49.97,T,,M,5.11,N,9.47,K,A*1F
###2023-11-09 13:09:57.630247$GNGGA,130957.80,3611.0466812,N,07544.9039573,W,1,24,0.6,0.698,M,-39.961,M,0.0,*6B
###2023-11-09 13:09:57.632827$GPGSV,2,1,07,05,20,090,42,10,19,293,42,13,24,045,40,15,61,037,46*76
###2023-11-09 13:09:57.635077$GPGSV,2,2,07,18,78,277,47,23,50,316,45,24,50,134,45,,,,*4C
###2023-11-09 13:09:57.637653$GLGSV,2,1,05,70,49,019,36,71,48,291,48,80,18,090,44,85,57,203,49*63
###2023-11-09 13:09:57.639268$GLGSV,2,2,05,86,53,308,48,,,,,,,,,,,,*5F
###2023-11-09 13:09:57.641840$GAGSV,1,1,04,07,73,259,46,08,48,043,44,13,63,161,45,26,57,310,45*65
###2023-11-09 13:09:57.644424$GBGSV,2,1,06,11,22,180,42,14,65,009,44,24,21,132,45,26,23,080,43*60
###2023-11-09 13:09:57.646355$GBGSV,2,2,06,28,43,286,47,33,59,305,47,,,,,,,,*66
###2023-11-09 13:09:57.647827$GNVTG,49.06,T,,M,4.96,N,9.18,K,A*13
###2023-11-09 13:09:57.730011$GNGGA,130957.90,3611.0467738,N,07544.9038343,W,1,24,0.6,0.705,M,-39.961,M,0.0,*6D
###2023-11-09 13:09:57.732607$GPGSV,2,1,07,05,20,090,42,10,19,293,41,13,24,045,40,15,61,037,46*75
###2023-11-09 13:09:57.734874$GPGSV,2,2,07,18,78,277,47,23,50,316,44,24,50,134,45,,,,*4D
###2023-11-09 13:09:57.737607$GLGSV,2,1,05,70,49,019,36,71,48,291,47,80,18,090,44,85,57,203,49*6C
###2023-11-09 13:09:57.739245$GLGSV,2,2,05,86,53,308,48,,,,,,,,,,,,*5F
###2023-11-09 13:09:57.741826$GAGSV,1,1,04,07,73,259,45,08,48,043,44,13,63,161,45,26,57,310,44*67
###2023-11-09 13:09:57.744430$GBGSV,2,1,06,11,22,180,43,14,65,009,44,24,21,132,45,26,23,080,44*66
###2023-11-09 13:09:57.746383$GBGSV,2,2,06,28,43,286,46,33,59,305,47,,,,,,,,*67
###2023-11-09 13:09:57.747830$GNVTG,45.87,T,,M,4.88,N,9.04,K,A*14
###2023-11-09 13:09:57.833986$GNGGA,130958.00,3611.0468745,N,07544.9037218,W,1,24,0.6,0.720,M,-39.961,M,0.0,*69
###2023-11-09 13:09:57.836589$GPGSV,2,1,07,05,20,090,42,10,19,293,41,13,24,045,40,15,61,037,46*75
###2023-11-09 13:09:57.838884$GPGSV,2,2,07,18,78,277,46,23,50,316,44,24,50,134,45,,,,*4C
###2023-11-09 13:09:57.841478$GLGSV,2,1,05,70,49,019,36,71,48,291,47,80,18,090,45,85,57,203,49*6D
###2023-11-09 13:09:57.843088$GLGSV,2,2,05,86,53,308,47,,,,,,,,,,,,*50
###2023-11-09 13:09:57.845672$GAGSV,1,1,04,07,73,259,45,08,48,043,44,13,63,161,45,26,57,310,44*67
###2023-11-09 13:09:57.848278$GBGSV,2,1,06,11,22,180,43,14,65,009,44,24,21,132,45,26,23,080,44*66
###2023-11-09 13:09:57.850226$GBGSV,2,2,06,28,43,286,46,33,59,305,46,,,,,,,,*66
###2023-11-09 13:09:57.851664$GNVTG,39.26,T,,M,4.96,N,9.18,K,A*16
###2023-11-09 13:09:57.933983$GNGGA,130958.10,3611.0469811,N,07544.9036167,W,1,24,0.6,0.735,M,-39.961,M,0.0,*69
###2023-11-09 13:09:57.936570$GPGSV,2,1,07,05,20,090,42,10,19,293,42,13,24,045,40,15,61,037,46*76
###2023-11-09 13:09:57.938836$GPGSV,2,2,07,18,78,277,46,23,50,316,44,24,50,134,45,,,,*4C
###2023-11-09 13:09:57.941414$GLGSV,2,1,05,70,49,019,36,71,48,291,47,80,18,090,45,85,57,203,49*6D
###2023-11-09 13:09:57.943018$GLGSV,2,2,05,86,53,308,47,,,,,,,,,,,,*50
###2023-11-09 13:09:57.945581$GAGSV,1,1,04,07,73,259,45,08,48,043,44,13,63,161,46,26,57,310,44*64
###2023-11-09 13:09:57.948162$GBGSV,2,1,06,11,22,180,43,14,65,009,44,24,21,132,45,26,23,080,44*66
###2023-11-09 13:09:57.950090$GBGSV,2,2,06,28,43,286,46,33,59,305,46,,,,,,,,*66
###2023-11-09 13:09:57.951528$GNVTG,38.79,T,,M,4.90,N,9.07,K,A*15
###2023-11-09 13:09:58.033013$GNGGA,130958.20,3611.0470854,N,07544.9035096,W,1,24,0.6,0.736,M,-39.961,M,0.0,*6C
###2023-11-09 13:09:58.035627$GPGSV,2,1,07,05,20,090,42,10,19,293,44,13,24,045,40,15,61,037,46*70
###2023-11-09 13:09:58.037922$GPGSV,2,2,07,18,78,277,46,23,50,316,45,24,50,134,45,,,,*4D
###2023-11-09 13:09:58.040500$GLGSV,2,1,05,70,49,019,36,71,48,291,48,80,18,090,45,85,57,203,49*62
###2023-11-09 13:09:58.042116$GLGSV,2,2,05,86,53,308,48,,,,,,,,,,,,*5F
###2023-11-09 13:09:58.044686$GAGSV,1,1,04,07,73,259,46,08,48,043,44,13,63,161,46,26,57,310,44*67
###2023-11-09 13:09:58.047284$GBGSV,2,1,06,11,22,180,42,14,65,009,44,24,21,132,44,26,23,080,43*61
###2023-11-09 13:09:58.049230$GBGSV,2,2,06,28,43,286,46,33,59,305,47,,,,,,,,*67
###2023-11-09 13:09:58.050672$GNVTG,41.45,T,,M,4.90,N,9.07,K,A*14
###2023-11-09 13:09:58.131132$GNGGA,130958.30,3611.0471839,N,07544.9033941,W,1,24,0.6,0.718,M,-39.961,M,0.0,*6E
###2023-11-09 13:09:58.133736$GPGSV,2,1,07,05,20,090,42,10,19,293,44,13,24,045,40,15,61,037,46*70
###2023-11-09 13:09:58.136001$GPGSV,2,2,07,18,78,277,47,23,50,316,46,24,50,134,45,,,,*4F
###2023-11-09 13:09:58.138592$GLGSV,2,1,05,70,49,019,36,71,48,291,48,80,18,090,45,85,57,203,49*62
###2023-11-09 13:09:58.140219$GLGSV,2,2,05,86,53,308,48,,,,,,,,,,,,*5F
###2023-11-09 13:09:58.142819$GAGSV,1,1,04,07,73,259,46,08,48,043,44,13,63,161,45,26,57,310,45*65
###2023-11-09 13:09:58.145409$GBGSV,2,1,06,11,22,180,42,14,65,009,44,24,21,132,43,26,23,080,43*66
###2023-11-09 13:09:58.147398$GBGSV,2,2,06,28,43,286,46,33,59,305,48,,,,,,,,*68
###2023-11-09 13:09:58.148842$GNVTG,46.10,T,,M,4.88,N,9.04,K,A*19
###2023-11-09 13:09:58.231108$GNGGA,130958.40,3611.0472724,N,07544.9032700,W,1,24,0.6,0.694,M,-39.961,M,0.0,*66
###2023-11-09 13:09:58.233677$GPGSV,2,1,07,05,20,090,42,10,19,293,44,13,24,045,40,15,61,037,46*70
###2023-11-09 13:09:58.235912$GPGSV,2,2,07,18,78,277,47,23,50,316,46,24,50,134,45,,,,*4F
###2023-11-09 13:09:58.238489$GLGSV,2,1,05,70,49,019,36,71,48,291,48,80,18,090,45,85,57,203,49*62
###2023-11-09 13:09:58.240088$GLGSV,2,2,05,86,53,308,48,,,,,,,,,,,,*5F
###2023-11-09 13:09:58.242649$GAGSV,1,1,04,07,73,259,46,08,48,043,44,13,63,161,45,26,57,310,45*65
###2023-11-09 13:09:58.245219$GBGSV,2,1,06,11,22,180,42,14,65,009,44,24,21,132,43,26,23,080,43*66
###2023-11-09 13:09:58.247154$GBGSV,2,2,06,28,43,286,46,33,59,305,48,,,,,,,,*68
###2023-11-09 13:09:58.248574$GNVTG,51.70,T,,M,4.76,N,8.82,K,A*17
###2023-11-09 13:09:58.329998$GNGGA,130958.50,3611.0473549,N,07544.9031407,W,1,24,0.6,0.678,M,-39.961,M,0.0,*6A
###2023-11-09 13:09:58.332591$GPGSV,2,1,07,05,20,090,42,10,19,293,44,13,24,045,40,15,61,037,46*70
###2023-11-09 13:09:58.334850$GPGSV,2,2,07,18,78,277,47,23,50,316,46,24,50,134,45,,,,*4F
###2023-11-09 13:09:58.337460$GLGSV,2,1,05,70,49,019,36,71,48,291,48,80,18,090,45,85,57,203,49*62
###2023-11-09 13:09:58.339073$GLGSV,2,2,05,86,53,308,48,,,,,,,,,,,,*5F
###2023-11-09 13:09:58.341639$GAGSV,1,1,04,07,73,259,46,08,48,043,44,13,63,161,45,26,57,310,45*65
###2023-11-09 13:09:58.344226$GBGSV,2,1,06,11,22,180,42,14,65,009,44,24,21,132,44,26,23,080,43*61
###2023-11-09 13:09:58.346153$GBGSV,2,2,06,28,43,286,47,33,59,305,48,,,,,,,,*69
###2023-11-09 13:09:58.347592$GNVTG,52.15,T,,M,4.82,N,8.93,K,A*1C
###2023-11-09 13:09:58.431003$GNGGA,130958.60,3611.0474397,N,07544.9030131,W,1,24,0.6,0.672,M,-39.961,M,0.0,*60
###2023-11-09 13:09:58.433614$GPGSV,2,1,07,05,20,090,42,10,19,293,42,13,24,045,40,15,61,037,46*76
###2023-11-09 13:09:58.435860$GPGSV,2,2,07,18,78,277,47,23,50,316,45,24,50,134,45,,,,*4C
###2023-11-09 13:09:58.438466$GLGSV,2,1,05,70,49,019,36,71,48,291,47,80,18,090,45,85,57,203,49*6D
###2023-11-09 13:09:58.440081$GLGSV,2,2,05,86,53,308,48,,,,,,,,,,,,*5F
###2023-11-09 13:09:58.442956$GAGSV,1,1,04,07,73,259,46,08,48,043,44,13,63,161,45,26,57,310,45*65
###2023-11-09 13:09:58.445542$GBGSV,2,1,06,11,22,180,43,14,65,009,44,24,21,132,44,26,23,080,43*60
###2023-11-09 13:09:58.447501$GBGSV,2,2,06,28,43,286,47,33,59,305,48,,,,,,,,*69
###2023-11-09 13:09:58.448935$GNVTG,49.49,T,,M,4.80,N,8.89,K,A*16
###2023-11-09 13:09:58.530107$GNGGA,130958.70,3611.0475310,N,07544.9028916,W,1,24,0.6,0.671,M,-39.961,M,0.0,*68
###2023-11-09 13:09:58.532685$GPGSV,2,1,07,05,20,090,42,10,19,293,41,13,24,045,40,15,61,037,46*75
###2023-11-09 13:09:58.534922$GPGSV,2,2,07,18,78,277,47,23,50,316,45,24,50,134,45,,,,*4C
###2023-11-09 13:09:58.537507$GLGSV,2,1,05,70,49,019,36,71,48,291,46,80,18,090,45,85,57,203,49*6C
###2023-11-09 13:09:58.539109$GLGSV,2,2,05,86,53,308,48,,,,,,,,,,,,*5F
