###2023-11-09 13:09:26.148732$GBGSV,2,1,06,11,23,180,41,14,65,008,45,24,20,132,43,26,23,081,42*65
###2023-11-09 13:09:26.150687$GBGSV,2,2,06,28,43,287,47,33,59,304,47,,,,,,,,*66
###2023-11-09 13:09:26.152117$GNVTG,78.52,T,,M,3.71,N,6.88,K,A*18
###2023-11-09 13:09:26.229998$GNGGA,130926.40,3611.0335155,N,07544.9479189,W,1,24,0.6,0.395,M,-39.961,M,0.0,*63
###2023-11-09 13:09:26.232600$GPGSV,2,1,07,05,20,090,42,10,19,293,45,13,24,045,41,15,61,037,46*70
###2023-11-09 13:09:26.234855$GPGSV,2,2,07,18,78,277,47,23,50,316,45,24,50,134,46,,,,*4F
###2023-11-09 13:09:26.237455$GLGSV,2,1,05,70,50,017,35,71,48,290,49,80,18,090,44,85,57,203,48*67
###2023-11-09 13:09:26.239068$GLGSV,2,2,05,86,53,308,47,,,,,,,,,,,,*50
###2023-11-09 13:09:26.241640$GAGSV,1,1,04,07,73,259,45,08,48,043,45,13,63,161,45,26,57,310,45*67
###2023-11-09 13:09:26.244237$GBGSV,2,1,06,11,23,180,41,14,65,008,45,24,20,132,43,26,23,081,42*65
###2023-11-09 13:09:26.246183$GBGSV,2,2,06,28,43,287,47,33,59,304,47,,,,,,,,*66
###2023-11-09 13:09:26.247637$GNVTG,79.38,T,,M,3.83,N,7.09,K,A*10
###2023-11-09 13:09:26.330996$GNGGA,130926.50,3611.0335334,N,07544.9477881,W,1,24,0.6,0.410,M,-39.961,M,0.0,*62
###2023-11-09 13:09:26.333590$GPGSV,2,1,07,05,20,090,42,10,19,293,44,13,24,045,41,15,61,037,46*71
###2023-11-09 13:09:26.335853$GPGSV,2,2,07,18,78,277,47,23,50,316,45,24,50,134,46,,,,*4F
###2023-11-09 13:09:26.338451$GLGSV,2,1,05,70,50,017,35,71,48,290,48,80,18,090,43,85,57,203,48*61
###2023-11-09 13:09:26.340059$GLGSV,2,2,05,86,53,308,47,,,,,,,,,,,,*50
###2023-11-09 13:09:26.342623$GAGSV,1,1,04,07,73,259,45,08,48,043,45,13,63,161,44,26,57,310,45*66
###2023-11-09 13:09:26.345202$GBGSV,2,1,06,11,23,180,40,14,65,008,45,24,20,132,43,26,23,081,43*65
###2023-11-09 13:09:26.347149$GBGSV,2,2,06,28,43,287,47,33,59,304,47,,,,,,,,*66
###2023-11-09 13:09:26.348584$GNVTG,80.88,T,,M,3.91,N,7.24,K,A*11
###2023-11-09 13:09:26.429771$GNGGA,130926.60,3611.0335526,N,07544.9476553,W,1,24,0.6,0.417,M,-39.961,M,0.0,*60
###2023-11-09 13:09:26.432365$GPGSV,2,1,07,05,20,090,42,10,19,293,44,13,24,045,41,15,61,037,46*71
###2023-11-09 13:09:26.434608$GPGSV,2,2,07,18,78,277,47,23,50,316,45,24,50,134,46,,,,*4F
###2023-11-09 13:09:26.437208$GLGSV,2,1,05,70,50,017,35,71,48,290,48,80,18,090,42,85,57,203,48*60
###2023-11-09 13:09:26.438812$GLGSV,2,2,05,86,53,308,47,,,,,,,,,,,,*50
###2023-11-09 13:09:26.441375$GAGSV,1,1,04,07,73,259,45,08,48,043,45,13,63,161,44,26,57,310,44*67
###2023-11-09 13:09:26.443939$GBGSV,2,1,06,11,23,180,40,14,65,008,45,24,20,132,43,26,23,081,43*65
###2023-11-09 13:09:26.445863$GBGSV,2,2,06,28,43,287,47,33,59,304,47,,,,,,,,*66
###2023-11-09 13:09:26.447309$GNVTG,78.43,T,,M,3.97,N,7.34,K,A*16
###2023-11-09 13:09:26.529884$GNGGA,130926.70,3611.0335747,N,07544.9475224,W,1,24,0.6,0.409,M,-39.961,M,0.0,*6F
###2023-11-09 13:09:26.532485$GPGSV,2,1,07,05,20,090,40,10,19,293,43,13,24,045,41,15,61,037,46*74
###2023-11-09 13:09:26.534739$GPGSV,2,2,07,18,78,277,47,23,50,316,45,24,50,134,46,,,,*4F
###2023-11-09 13:09:26.537454$GLGSV,2,1,05,70,50,017,35,71,48,290,47,80,18,090,42,85,57,203,48*6F
###2023-11-09 13:09:26.539072$GLGSV,2,2,05,86,53,308,47,,,,,,,,,,,,*50
###2023-11-09 13:09:26.541647$GAGSV,1,1,04,07,73,259,45,08,48,043,45,13,63,161,44,26,57,310,44*67
###2023-11-09 13:09:26.544227$GBGSV,2,1,06,11,23,180,40,14,65,008,45,24,20,132,42,26,23,081,41*66
###2023-11-09 13:09:26.546171$GBGSV,2,2,06,28,43,287,47,33,59,304,47,,,,,,,,*66
###2023-11-09 13:09:26.547621$GNVTG,77.86,T,,M,3.95,N,7.31,K,A*17
###2023-11-09 13:09:26.630869$GNGGA,130926.80,3611.0335992,N,07544.9473898,W,1,24,0.6,0.386,M,-39.961,M,0.0,*6D
###2023-11-09 13:09:26.633471$GPGSV,2,1,07,05,20,090,39,10,19,293,43,13,24,045,39,15,61,037,46*75
###2023-11-09 13:09:26.635728$GPGSV,2,2,07,18,78,277,47,23,50,316,45,24,50,134,46,,,,*4F
###2023-11-09 13:09:26.638319$GLGSV,2,1,05,70,50,017,35,71,48,290,47,80,18,090,42,85,57,203,48*6F
###2023-11-09 13:09:26.639933$GLGSV,2,2,05,86,53,308,47,,,,,,,,,,,,*50
###2023-11-09 13:09:26.642520$GAGSV,1,1,04,07,73,259,45,08,48,043,45,13,63,161,44,26,57,310,44*67
###2023-11-09 13:09:26.645105$GBGSV,2,1,06,11,23,180,40,14,65,008,45,24,20,132,42,26,23,081,41*66
###2023-11-09 13:09:26.647063$GBGSV,2,2,06,28,43,287,47,33,59,304,47,,,,,,,,*66
###2023-11-09 13:09:26.648491$GNVTG,76.17,T,,M,3.98,N,7.38,K,A*1A
###2023-11-09 13:09:26.730012$GNGGA,130926.90,3611.0336252,N,07544.9472578,W,1,24,0.6,0.345,M,-39.961,M,0.0,*65
###2023-11-09 13:09:26.732613$GPGSV,2,1,07,05,20,090,40,10,19,293,43,13,24,045,39,15,61,037,45*78
###2023-11-09 13:09:26.734858$GPGSV,2,2,07,18,78,277,46,23,50,316,45,24,50,134,46,,,,*4E
###2023-11-09 13:09:26.737436$GLGSV,2,1,05,70,50,017,35,71,48,290,47,80,18,090,42,85,57,203,48*6F
###2023-11-09 13:09:26.739040$GLGSV,2,2,05,86,53,308,47,,,,,,,,,,,,*50
###2023-11-09 13:09:26.741591$GAGSV,1,1,04,07,73,259,45,08,48,043,45,13,63,161,45,26,57,310,44*66
###2023-11-09 13:09:26.744149$GBGSV,2,1,06,11,23,180,41,14,65,008,44,24,20,132,42,26,23,081,42*65
###2023-11-09 13:09:26.746068$GBGSV,2,2,06,28,43,287,47,33,59,304,47,,,,,,,,*66
###2023-11-09 13:09:26.747497$GNVTG,76.38,T,,M,3.93,N,7.27,K,A*12
###2023-11-09 13:09:26.831991$GNGGA,130927.00,3611.0336483,N,07544.9471248,W,1,24,0.6,0.316,M,-39.961,M,0.0,*66
###2023-11-09 13:09:26.834595$GPGSV,2,1,07,05,20,090,42,10,19,293,43,13,24,045,40,15,61,037,45*74
###2023-11-09 13:09:26.836849$GPGSV,2,2,07,18,78,277,46,23,50,316,45,24,50,134,46,,,,*4E
###2023-11-09 13:09:26.839446$GLGSV,2,1,05,70,50,017,35,71,48,290,47,80,18,090,42,85,57,203,48*6F
###2023-11-09 13:09:26.841057$GLGSV,2,2,05,86,53,308,47,,,,,,,,,,,,*50
###2023-11-09 13:09:26.843627$GAGSV,1,1,04,07,73,259,45,08,48,043,45,13,63,161,45,26,57,310,44*66
###2023-11-09 13:09:26.846198$GBGSV,2,1,06,11,23,180,41,14,65,008,44,24,20,132,43,26,23,081,41*67
###2023-11-09 13:09:26.848144$GBGSV,2,2,06,28,43,287,47,33,59,304,47,,,,,,,,*66
###2023-11-09 13:09:26.849571$GNVTG,78.86,T,,M,4.00,N,7.42,K,A*17
###2023-11-09 13:09:26.930869$GNGGA,130927.10,3611.0336699,N,07544.9469902,W,1,24,0.6,0.306,M,-39.961,M,0.0,*63
###2023-11-09 13:09:26.933469$GPGSV,2,1,07,05,20,090,41,10,19,293,43,13,24,045,41,15,61,037,45*76
###2023-11-09 13:09:26.935729$GPGSV,2,2,07,18,78,277,46,23,50,316,45,24,50,134,46,,,,*4E
###2023-11-09 13:09:26.938329$GLGSV,2,1,05,70,50,017,35,71,48,290,48,80,18,090,43,85,57,203,48*61
###2023-11-09 13:09:26.939944$GLGSV,2,2,05,86,53,308,47,,,,,,,,,,,,*50
###2023-11-09 13:09:26.942509$GAGSV,1,1,04,07,73,259,45,08,48,043,44,13,63,161,45,26,57,310,44*67
###2023-11-09 13:09:26.945086$GBGSV,2,1,06,11,23,180,41,14,65,008,44,24,20,132,44,26,23,081,41*60
###2023-11-09 13:09:26.947053$GBGSV,2,2,06,28,43,287,47,33,59,304,47,,,,,,,,*66
###2023-11-09 13:09:26.948482$GNVTG,78.17,T,,M,3.98,N,7.38,K,A*14
###2023-11-09 13:09:27.032964$GNGGA,130927.20,3611.0336923,N,07544.9468560,W,1,24,0.6,0.318,M,-39.961,M,0.0,*68
###2023-11-09 13:09:27.035538$GPGSV,2,1,07,05,20,090,41,10,19,293,44,13,24,045,41,15,61,037,46*72
###2023-11-09 13:09:27.037796$GPGSV,2,2,07,18,78,277,46,23,50,316,45,24,50,134,46,,,,*4E
###2023-11-09 13:09:27.040361$GLGSV,2,1,05,70,50,017,35,71,48,290,48,80,18,090,44,85,57,203,48*66
###2023-11-09 13:09:27.041953$GLGSV,2,2,05,86,53,308,47,,,,,,,,,,,,*50
###2023-11-09 13:09:27.044508$GAGSV,1,1,04,07,73,259,45,08,48,043,44,13,63,161,45,26,57,310,44*67
###2023-11-09 13:09:27.047082$GBGSV,2,1,06,11,23,180,41,14,65,008,45,24,20,132,44,26,23,081,42*62
###2023-11-09 13:09:27.049009$GBGSV,2,2,06,28,43,287,47,33,59,304,47,,,,,,,,*66
###2023-11-09 13:09:27.050431$GNVTG,78.12,T,,M,4.00,N,7.42,K,A*1A
###2023-11-09 13:09:27.129903$GNGGA,130927.30,3611.0337140,N,07544.9467226,W,1,24,0.6,0.351,M,-39.961,M,0.0,*62
###2023-11-09 13:09:27.132510$GPGSV,2,1,07,05,20,090,42,10,19,293,45,13,24,045,41,15,61,037,46*70
###2023-11-09 13:09:27.134763$GPGSV,2,2,07,18,78,277,46,23,50,316,45,24,50,134,46,,,,*4E
###2023-11-09 13:09:27.137353$GLGSV,2,1,05,70,50,017,35,71,48,290,48,80,18,090,45,85,57,203,48*67
###2023-11-09 13:09:27.138967$GLGSV,2,2,05,86,53,308,47,,,,,,,,,,,,*50
###2023-11-09 13:09:27.141540$GAGSV,1,1,04,07,73,259,45,08,48,043,44,13,63,161,45,26,57,310,44*67
###2023-11-09 13:09:27.144113$GBGSV,2,1,06,11,23,180,41,14,65,008,45,24,20,132,43,26,23,081,42*65
###2023-11-09 13:09:27.146378$GBGSV,2,2,06,28,43,287,47,33,59,304,47,,,,,,,,*66
###2023-11-09 13:09:27.147833$GNVTG,78.70,T,,M,3.93,N,7.27,K,A*10
###2023-11-09 13:09:27.230989$GNGGA,130927.40,3611.0337344,N,07544.9465929,W,1,24,0.6,0.394,M,-39.961,M,0.0,*6C
###2023-11-09 13:09:27.233591$GPGSV,2,1,07,05,20,090,43,10,19,293,45,13,24,045,41,15,61,037,46*71
###2023-11-09 13:09:27.235849$GPGSV,2,2,07,18,78,277,46,23,50,316,45,24,50,134,46,,,,*4E
###2023-11-09 13:09:27.238448$GLGSV,2,1,05,70,50,017,35,71,48,290,48,80,18,090,45,85,57,203,48*67
###2023-11-09 13:09:27.240062$GLGSV,2,2,05,86,53,308,48,,,,,,,,,,,,*5F
###2023-11-09 13:09:27.242637$GAGSV,1,1,04,07,73,259,45,08,48,043,44,13,63,161,44,26,57,310,44*66
###2023-11-09 13:09:27.245225$GBGSV,2,1,06,11,23,180,41,14,65,008,45,24,20,132,43,26,23,081,42*65
