###2023-11-09 13:07:35.854184$GBGSV,2,2,06,28,43,289,47,33,58,302,47,,,,,,,,*6F
###2023-11-09 13:07:35.855647$GNVTG,27.75,T,,M,1.46,N,2.70,K,A*12
###2023-11-09 13:07:35.940640$GNGGA,130736.10,3611.0562265,N,07544.9776625,W,1,24,0.6,0.881,M,-39.961,M,0.0,*6E
###2023-11-09 13:07:35.943252$GPGSV,2,1,07,05,21,090,41,10,18,292,43,13,24,045,41,15,62,037,45*74
###2023-11-09 13:07:35.945520$GPGSV,2,2,07,18,77,281,47,23,50,315,45,24,49,136,46,,,,*40
###2023-11-09 13:07:35.948120$GLGSV,2,1,05,70,50,016,35,71,48,288,47,80,17,091,43,85,58,203,48*67
###2023-11-09 13:07:35.949737$GLGSV,2,2,05,86,52,309,47,,,,,,,,,,,,*50
###2023-11-09 13:07:35.952312$GAGSV,1,1,04,07,72,257,45,08,49,042,43,13,64,160,45,26,56,310,45*69
###2023-11-09 13:07:35.954896$GBGSV,2,1,06,11,23,180,42,14,65,008,45,24,19,133,43,26,23,082,42*6E
###2023-11-09 13:07:35.956836$GBGSV,2,2,06,28,43,289,47,33,58,302,47,,,,,,,,*6F
###2023-11-09 13:07:35.958292$GNVTG,23.17,T,,M,1.67,N,3.10,K,A*16
###2023-11-09 13:07:36.034491$GNGGA,130736.20,3611.0562694,N,07544.9776409,W,1,24,0.6,0.879,M,-39.961,M,0.0,*6C
###2023-11-09 13:07:36.037100$GPGSV,2,1,07,05,21,090,41,10,18,292,43,13,24,045,41,15,62,037,45*74
###2023-11-09 13:07:36.039347$GPGSV,2,2,07,18,77,281,47,23,50,315,45,24,49,136,46,,,,*40
###2023-11-09 13:07:36.041900$GLGSV,2,1,05,70,50,016,35,71,48,288,47,80,17,091,43,85,58,203,48*67
###2023-11-09 13:07:36.043493$GLGSV,2,2,05,86,52,309,47,,,,,,,,,,,,*50
###2023-11-09 13:07:36.046045$GAGSV,1,1,04,07,72,257,45,08,49,042,44,13,64,160,45,26,56,310,45*6E
###2023-11-09 13:07:36.048620$GBGSV,2,1,06,11,23,180,41,14,65,008,45,24,19,133,43,26,23,082,42*6D
###2023-11-09 13:07:36.050547$GBGSV,2,2,06,28,43,289,47,33,58,302,47,,,,,,,,*6F
###2023-11-09 13:07:36.051987$GNVTG,24.13,T,,M,1.67,N,3.10,K,A*15
###2023-11-09 13:07:36.130728$GNGGA,130736.30,3611.0563084,N,07544.9776187,W,1,24,0.6,0.873,M,-39.961,M,0.0,*62
###2023-11-09 13:07:36.133335$GPGSV,2,1,07,05,21,090,41,10,18,292,43,13,24,045,42,15,62,037,45*77
###2023-11-09 13:07:36.135596$GPGSV,2,2,07,18,77,281,47,23,50,315,45,24,49,136,45,,,,*43
###2023-11-09 13:07:36.138204$GLGSV,2,1,05,70,50,016,35,71,48,288,47,80,17,091,43,85,58,203,48*67
###2023-11-09 13:07:36.139820$GLGSV,2,2,05,86,52,309,47,,,,,,,,,,,,*50
###2023-11-09 13:07:36.142401$GAGSV,1,1,04,07,72,257,45,08,49,042,44,13,64,160,44,26,56,310,45*6F
###2023-11-09 13:07:36.144983$GBGSV,2,1,06,11,23,180,40,14,65,008,45,24,19,133,43,26,23,082,43*6D
###2023-11-09 13:07:36.146933$GBGSV,2,2,06,28,43,289,47,33,58,302,47,,,,,,,,*6F
###2023-11-09 13:07:36.148375$GNVTG,27.26,T,,M,1.44,N,2.66,K,A*11
###2023-11-09 13:07:36.231874$GNGGA,130736.40,3611.0563393,N,07544.9775952,W,1,24,0.6,0.869,M,-39.961,M,0.0,*68
###2023-11-09 13:07:36.234477$GPGSV,2,1,07,05,21,090,41,10,18,292,43,13,24,045,42,15,62,037,45*77
###2023-11-09 13:07:36.236741$GPGSV,2,2,07,18,77,281,47,23,50,315,45,24,49,136,46,,,,*40
###2023-11-09 13:07:36.239344$GLGSV,2,1,05,70,50,016,35,71,48,288,47,80,17,091,43,85,58,203,48*67
###2023-11-09 13:07:36.240964$GLGSV,2,2,05,86,52,309,47,,,,,,,,,,,,*50
###2023-11-09 13:07:36.243543$GAGSV,1,1,04,07,72,257,45,08,49,042,44,13,64,160,44,26,56,310,45*6F
###2023-11-09 13:07:36.246126$GBGSV,2,1,06,11,23,180,40,14,65,008,45,24,19,133,43,26,23,082,43*6D
###2023-11-09 13:07:36.248075$GBGSV,2,2,06,28,43,289,47,33,58,302,47,,,,,,,,*6F
###2023-11-09 13:07:36.249503$GNVTG,38.33,T,,M,1.21,N,2.23,K,A*19
###2023-11-09 13:07:36.330700$GNGGA,130736.50,3611.0563628,N,07544.9775684,W,1,24,0.6,0.865,M,-39.961,M,0.0,*64
###2023-11-09 13:07:36.333277$GPGSV,2,1,07,05,21,090,41,10,18,292,43,13,24,045,42,15,62,037,45*77
###2023-11-09 13:07:36.335524$GPGSV,2,2,07,18,77,281,47,23,50,315,45,24,49,136,46,,,,*40
###2023-11-09 13:07:36.338100$GLGSV,2,1,05,70,50,016,35,71,48,288,47,80,17,091,43,85,58,203,48*67
###2023-11-09 13:07:36.339701$GLGSV,2,2,05,86,52,309,48,,,,,,,,,,,,*5F
###2023-11-09 13:07:36.342263$GAGSV,1,1,04,07,72,257,45,08,49,042,44,13,64,160,44,26,56,310,45*6F
###2023-11-09 13:07:36.344841$GBGSV,2,1,06,11,23,180,40,14,65,008,45,24,19,133,42,26,23,082,43*6C
###2023-11-09 13:07:36.346769$GBGSV,2,2,06,28,43,289,47,33,58,302,47,,,,,,,,*6F
###2023-11-09 13:07:36.348201$GNVTG,48.54,T,,M,1.13,N,2.09,K,A*16
###2023-11-09 13:07:36.429643$GNGGA,130736.60,3611.0563825,N,07544.9775376,W,1,24,0.6,0.862,M,-39.961,M,0.0,*6B
###2023-11-09 13:07:36.432241$GPGSV,2,1,07,05,21,090,41,10,18,292,43,13,24,045,42,15,62,037,45*77
###2023-11-09 13:07:36.434500$GPGSV,2,2,07,18,77,281,47,23,50,315,45,24,49,136,46,,,,*40
###2023-11-09 13:07:36.437087$GLGSV,2,1,05,70,50,016,35,71,48,288,47,80,17,091,43,85,58,203,48*67
###2023-11-09 13:07:36.438706$GLGSV,2,2,05,86,52,309,48,,,,,,,,,,,,*5F
###2023-11-09 13:07:36.441283$GAGSV,1,1,04,07,72,257,45,08,49,042,44,13,64,160,44,26,56,310,44*6E
###2023-11-09 13:07:36.443861$GBGSV,2,1,06,11,23,180,40,14,65,008,45,24,19,133,42,26,23,082,43*6C
###2023-11-09 13:07:36.445805$GBGSV,2,2,06,28,43,289,47,33,58,302,47,,,,,,,,*6F
###2023-11-09 13:07:36.447257$GNVTG,55.37,T,,M,1.19,N,2.20,K,A*1E
###2023-11-09 13:07:36.531735$GNGGA,130736.70,3611.0564038,N,07544.9775041,W,1,24,0.6,0.859,M,-39.961,M,0.0,*66
###2023-11-09 13:07:36.534325$GPGSV,2,1,07,05,21,090,41,10,18,292,43,13,24,045,42,15,62,037,45*77
###2023-11-09 13:07:36.536587$GPGSV,2,2,07,18,77,281,47,23,50,315,45,24,49,136,46,,,,*40
###2023-11-09 13:07:36.539193$GLGSV,2,1,05,70,50,016,35,71,48,288,47,80,17,091,42,85,58,203,48*66
###2023-11-09 13:07:36.540812$GLGSV,2,2,05,86,52,309,47,,,,,,,,,,,,*50
###2023-11-09 13:07:36.543390$GAGSV,1,1,04,07,72,257,45,08,49,042,44,13,64,160,45,26,56,310,44*6F
###2023-11-09 13:07:36.545982$GBGSV,2,1,06,11,23,180,41,14,65,008,45,24,19,133,43,26,23,082,43*6C
###2023-11-09 13:07:36.547941$GBGSV,2,2,06,28,43,289,47,33,58,302,47,,,,,,,,*6F
###2023-11-09 13:07:36.549369$GNVTG,49.98,T,,M,1.32,N,2.45,K,A*1C
###2023-11-09 13:07:36.632463$GNGGA,130736.80,3611.0564313,N,07544.9774683,W,1,24,0.6,0.851,M,-39.961,M,0.0,*62
###2023-11-09 13:07:36.635022$GPGSV,2,1,07,05,21,090,41,10,18,292,43,13,24,045,41,15,62,037,45*74
###2023-11-09 13:07:36.637295$GPGSV,2,2,07,18,77,281,47,23,50,315,45,24,49,136,46,,,,*40
###2023-11-09 13:07:36.639891$GLGSV,2,1,05,70,50,016,35,71,48,288,47,80,17,091,42,85,58,203,48*66
###2023-11-09 13:07:36.641505$GLGSV,2,2,05,86,52,309,47,,,,,,,,,,,,*50
###2023-11-09 13:07:36.644064$GAGSV,1,1,04,07,72,257,45,08,49,042,43,13,64,160,45,26,56,310,44*68
###2023-11-09 13:07:36.646641$GBGSV,2,1,06,11,23,180,42,14,65,008,45,24,19,133,43,26,23,082,42*6E
###2023-11-09 13:07:36.648595$GBGSV,2,2,06,28,43,289,47,33,58,302,47,,,,,,,,*6F
###2023-11-09 13:07:36.650040$GNVTG,44.81,T,,M,1.59,N,2.95,K,A*19
###2023-11-09 13:07:36.730630$GNGGA,130736.90,3611.0564636,N,07544.9774281,W,1,24,0.6,0.845,M,-39.961,M,0.0,*62
###2023-11-09 13:07:36.733238$GPGSV,2,1,07,05,21,090,41,10,18,292,43,13,24,045,41,15,62,037,45*74
###2023-11-09 13:07:36.735496$GPGSV,2,2,07,18,77,281,47,23,50,315,45,24,49,136,46,,,,*40
###2023-11-09 13:07:36.738092$GLGSV,2,1,05,70,50,016,35,71,48,288,47,80,17,091,42,85,58,203,48*66
###2023-11-09 13:07:36.739692$GLGSV,2,2,05,86,52,309,47,,,,,,,,,,,,*50
###2023-11-09 13:07:36.742276$GAGSV,1,1,04,07,72,257,45,08,49,042,43,13,64,160,45,26,56,310,44*68
###2023-11-09 13:07:36.744857$GBGSV,2,1,06,11,23,180,42,14,65,008,45,24,19,133,43,26,23,082,42*6E
###2023-11-09 13:07:36.746799$GBGSV,2,2,06,28,43,289,47,33,58,302,47,,,,,,,,*6F
###2023-11-09 13:07:36.748241$GNVTG,46.37,T,,M,1.75,N,3.24,K,A*13
###2023-11-09 13:07:36.833763$GNGGA,130737.00,3611.0564989,N,07544.9773830,W,1,24,0.6,0.838,M,-39.961,M,0.0,*6C
###2023-11-09 13:07:36.836374$GPGSV,2,1,07,05,21,090,41,10,18,292,43,13,24,045,41,15,62,037,45*74
###2023-11-09 13:07:36.838648$GPGSV,2,2,07,18,77,281,47,23,50,315,45,24,49,136,46,,,,*40
###2023-11-09 13:07:36.841225$GLGSV,2,1,05,70,50,016,35,71,48,288,47,80,17,091,42,85,58,203,48*66
###2023-11-09 13:07:36.842833$GLGSV,2,2,05,86,52,309,47,,,,,,,,,,,,*50
###2023-11-09 13:07:36.845395$GAGSV,1,1,04,07,72,257,45,08,49,042,44,13,64,160,45,26,56,310,44*6F
###2023-11-09 13:07:36.847988$GBGSV,2,1,06,11,23,180,42,14,65,008,45,24,19,133,43,26,23,082,42*6E
###2023-11-09 13:07:36.849919$GBGSV,2,2,06,28,43,289,47,33,58,302,47,,,,,,,,*6F
###2023-11-09 13:07:36.851658$GNVTG,46.59,T,,M,1.94,N,3.60,K,A*14
###2023-11-09 13:07:36.931863$GNGGA,130737.10,3611.0565347,N,07544.9773321,W,1,24,0.6,0.831,M,-39.961,M,0.0,*66
###2023-11-09 13:07:36.934458$GPGSV,2,1,07,05,21,090,41,10,18,292,43,13,24,045,41,15,62,037,45*74
###2023-11-09 13:07:36.936706$GPGSV,2,2,07,18,77,281,47,23,50,315,45,24,49,136,46,,,,*40
###2023-11-09 13:07:36.939286$GLGSV,2,1,05,70,50,016,35,71,48,288,47,80,17,091,43,85,58,203,48*67
###2023-11-09 13:07:36.940891$GLGSV,2,2,05,86,52,309,47,,,,,,,,,,,,*50
###2023-11-09 13:07:36.943457$GAGSV,1,1,04,07,72,257,45,08,49,042,44,13,64,160,44,26,56,310,44*6E
###2023-11-09 13:07:36.946028$GBGSV,2,1,06,11,23,180,42,14,65,008,45,24,19,133,43,26,23,082,42*6E
###2023-11-09 13:07:36.947969$GBGSV,2,2,06,28,43,289,47,33,58,302,47,,,,,,,,*6F
