###2023-11-09 13:08:14.940689$GAGSV,1,1,04,07,72,258,45,08,49,042,45,13,64,160,45,26,56,310,44*61
###2023-11-09 13:08:14.943294$GBGSV,2,1,06,11,23,180,41,14,65,008,46,24,20,132,43,26,23,081,44*60
###2023-11-09 13:08:14.945246$GBGSV,2,2,06,28,43,287,47,33,59,304,46,,,,,,,,*67
###2023-11-09 13:08:14.946717$GNVTG,245.85,T,,M,3.89,N,7.20,K,A*2A
###2023-11-09 13:08:15.029620$GNGGA,130815.20,3611.0399350,N,07545.0037748,W,1,24,0.6,0.844,M,-39.962,M,0.0,*6C
###2023-11-09 13:08:15.032202$GPGSV,2,1,07,05,21,090,44,10,18,292,41,13,24,045,41,15,62,037,46*70
###2023-11-09 13:08:15.034449$GPGSV,2,2,07,18,77,281,46,23,50,315,45,24,49,136,45,,,,*42
###2023-11-09 13:08:15.037022$GLGSV,2,1,05,70,50,017,36,71,48,290,48,80,18,090,45,85,57,203,47*6B
###2023-11-09 13:08:15.038638$GLGSV,2,2,05,86,53,308,47,,,,,,,,,,,,*50
###2023-11-09 13:08:15.041207$GAGSV,1,1,04,07,72,258,45,08,49,042,45,13,64,160,45,26,56,310,44*61
###2023-11-09 13:08:15.043770$GBGSV,2,1,06,11,23,180,41,14,65,008,46,24,20,132,44,26,23,081,44*67
###2023-11-09 13:08:15.045699$GBGSV,2,2,06,28,43,287,47,33,59,304,46,,,,,,,,*67
###2023-11-09 13:08:15.047175$GNVTG,247.67,T,,M,3.98,N,7.38,K,A*2D
###2023-11-09 13:08:15.128393$GNGGA,130815.30,3611.0398942,N,07545.0038995,W,1,24,0.6,0.827,M,-39.962,M,0.0,*61
###2023-11-09 13:08:15.131006$GPGSV,2,1,07,05,21,090,44,10,18,292,41,13,24,045,41,15,62,037,46*70
###2023-11-09 13:08:15.133268$GPGSV,2,2,07,18,77,281,46,23,50,315,45,24,49,136,45,,,,*42
###2023-11-09 13:08:15.135840$GLGSV,2,1,05,70,50,017,36,71,48,290,48,80,18,090,45,85,57,203,47*6B
###2023-11-09 13:08:15.137459$GLGSV,2,2,05,86,53,308,47,,,,,,,,,,,,*50
###2023-11-09 13:08:15.140034$GAGSV,1,1,04,07,72,258,45,08,49,042,45,13,64,160,45,26,56,310,44*61
###2023-11-09 13:08:15.142610$GBGSV,2,1,06,11,23,180,41,14,65,008,45,24,20,132,44,26,23,081,44*64
###2023-11-09 13:08:15.144545$GBGSV,2,2,06,28,43,287,47,33,59,304,46,,,,,,,,*67
###2023-11-09 13:08:15.146009$GNVTG,248.58,T,,M,3.93,N,7.27,K,A*2B
###2023-11-09 13:08:15.228509$GNGGA,130815.40,3611.0398556,N,07545.0040255,W,1,24,0.6,0.802,M,-39.962,M,0.0,*60
###2023-11-09 13:08:15.231101$GPGSV,2,1,07,05,21,090,44,10,18,292,42,13,24,045,42,15,62,037,46*70
###2023-11-09 13:08:15.233349$GPGSV,2,2,07,18,77,281,46,23,50,315,45,24,49,136,45,,,,*42
###2023-11-09 13:08:15.235916$GLGSV,2,1,05,70,50,017,36,71,48,290,48,80,18,090,46,85,57,203,48*67
###2023-11-09 13:08:15.237535$GLGSV,2,2,05,86,53,308,47,,,,,,,,,,,,*50
###2023-11-09 13:08:15.240103$GAGSV,1,1,04,07,72,258,45,08,49,042,45,13,64,160,45,26,56,310,44*61
###2023-11-09 13:08:15.242683$GBGSV,2,1,06,11,23,180,41,14,65,008,45,24,20,132,44,26,23,081,44*64
###2023-11-09 13:08:15.244624$GBGSV,2,2,06,28,43,287,47,33,59,304,47,,,,,,,,*66
###2023-11-09 13:08:15.246088$GNVTG,250.17,T,,M,3.98,N,7.38,K,A*2C
###2023-11-09 13:08:15.327610$GNGGA,130815.50,3611.0398189,N,07545.0041544,W,1,24,0.6,0.795,M,-39.962,M,0.0,*60
###2023-11-09 13:08:15.330183$GPGSV,2,1,07,05,21,090,44,10,18,292,43,13,24,045,42,15,62,037,46*71
###2023-11-09 13:08:15.332423$GPGSV,2,2,07,18,77,281,46,23,50,315,45,24,49,136,45,,,,*42
###2023-11-09 13:08:15.334978$GLGSV,2,1,05,70,50,017,36,71,48,290,49,80,18,090,46,85,57,203,48*66
###2023-11-09 13:08:15.336573$GLGSV,2,2,05,86,53,308,48,,,,,,,,,,,,*5F
###2023-11-09 13:08:15.339149$GAGSV,1,1,04,07,72,258,45,08,49,042,45,13,64,160,45,26,56,310,44*61
###2023-11-09 13:08:15.341723$GBGSV,2,1,06,11,23,180,41,14,65,008,46,24,20,132,44,26,23,081,44*67
###2023-11-09 13:08:15.343661$GBGSV,2,2,06,28,43,287,46,33,59,304,47,,,,,,,,*67
###2023-11-09 13:08:15.345129$GNVTG,251.41,T,,M,4.06,N,7.52,K,A*22
###2023-11-09 13:08:15.427697$GNGGA,130815.60,3611.0397799,N,07545.0042842,W,1,24,0.6,0.809,M,-39.962,M,0.0,*69
###2023-11-09 13:08:15.430309$GPGSV,2,1,07,05,21,090,44,10,18,292,43,13,24,045,43,15,62,037,46*70
###2023-11-09 13:08:15.432566$GPGSV,2,2,07,18,77,281,46,23,50,315,45,24,49,136,45,,,,*42
###2023-11-09 13:08:15.435145$GLGSV,2,1,05,70,50,017,36,71,48,290,49,80,18,090,46,85,57,203,48*66
###2023-11-09 13:08:15.436752$GLGSV,2,2,05,86,53,308,48,,,,,,,,,,,,*5F
###2023-11-09 13:08:15.439337$GAGSV,1,1,04,07,72,258,45,08,49,042,46,13,64,160,45,26,56,310,44*62
###2023-11-09 13:08:15.441915$GBGSV,2,1,06,11,23,180,41,14,65,008,45,24,20,132,43,26,23,081,44*63
###2023-11-09 13:08:15.443849$GBGSV,2,2,06,28,43,287,46,33,59,304,47,,,,,,,,*67
###2023-11-09 13:08:15.445316$GNVTG,248.47,T,,M,4.10,N,7.60,K,A*2A
###2023-11-09 13:08:15.528630$GNGGA,130815.70,3611.0397334,N,07545.0044138,W,1,24,0.6,0.819,M,-39.962,M,0.0,*68
###2023-11-09 13:08:15.531219$GPGSV,2,1,07,05,21,090,44,10,18,292,43,13,24,045,43,15,62,037,46*70
###2023-11-09 13:08:15.533465$GPGSV,2,2,07,18,77,281,46,23,50,315,46,24,49,136,45,,,,*41
###2023-11-09 13:08:15.536034$GLGSV,2,1,05,70,50,017,36,71,48,290,49,80,18,090,46,85,57,203,48*66
###2023-11-09 13:08:15.537656$GLGSV,2,2,05,86,53,308,48,,,,,,,,,,,,*5F
###2023-11-09 13:08:15.540225$GAGSV,1,1,04,07,72,258,45,08,49,042,46,13,64,160,45,26,56,310,45*63
###2023-11-09 13:08:15.542813$GBGSV,2,1,06,11,23,180,41,14,65,008,46,24,20,132,43,26,23,081,44*60
###2023-11-09 13:08:15.544751$GBGSV,2,2,06,28,43,287,46,33,59,304,47,,,,,,,,*67
###2023-11-09 13:08:15.546212$GNVTG,244.20,T,,M,4.24,N,7.85,K,A*2B
###2023-11-09 13:08:15.627482$GNGGA,130815.80,3611.0396788,N,07545.0045405,W,1,24,0.6,0.823,M,-39.962,M,0.0,*66
###2023-11-09 13:08:15.630052$GPGSV,2,1,07,05,21,090,44,10,18,292,43,13,24,045,43,15,62,037,46*70
###2023-11-09 13:08:15.632284$GPGSV,2,2,07,18,77,281,46,23,50,315,46,24,49,136,45,,,,*41
###2023-11-09 13:08:15.634836$GLGSV,2,1,05,70,50,017,36,71,48,290,49,80,18,090,46,85,57,203,48*66
###2023-11-09 13:08:15.636434$GLGSV,2,2,05,86,53,308,48,,,,,,,,,,,,*5F
###2023-11-09 13:08:15.639010$GAGSV,1,1,04,07,72,258,45,08,49,042,46,13,64,160,45,26,56,310,45*63
###2023-11-09 13:08:15.641579$GBGSV,2,1,06,11,23,180,41,14,65,008,46,24,20,132,44,26,23,081,44*67
###2023-11-09 13:08:15.643509$GBGSV,2,2,06,28,43,287,46,33,59,304,47,,,,,,,,*67
###2023-11-09 13:08:15.644965$GNVTG,240.19,T,,M,4.22,N,7.81,K,A*27
###2023-11-09 13:08:15.727531$GNGGA,130815.90,3611.0396201,N,07545.0046654,W,1,24,0.6,0.822,M,-39.962,M,0.0,*67
###2023-11-09 13:08:15.730132$GPGSV,2,1,07,05,21,090,44,10,18,292,43,13,24,045,43,15,62,037,46*70
###2023-11-09 13:08:15.732385$GPGSV,2,2,07,18,77,281,46,23,50,315,46,24,49,136,45,,,,*41
###2023-11-09 13:08:15.734968$GLGSV,2,1,05,70,50,017,36,71,48,290,49,80,18,090,46,85,57,203,48*66
###2023-11-09 13:08:15.736582$GLGSV,2,2,05,86,53,308,48,,,,,,,,,,,,*5F
###2023-11-09 13:08:15.739173$GAGSV,1,1,04,07,72,258,45,08,49,042,45,13,64,160,45,26,56,310,45*60
###2023-11-09 13:08:15.741750$GBGSV,2,1,06,11,23,180,41,14,65,008,45,24,20,132,44,26,23,081,44*64
###2023-11-09 13:08:15.743687$GBGSV,2,2,06,28,43,287,46,33,59,304,47,,,,,,,,*67
###2023-11-09 13:08:15.745151$GNVTG,239.93,T,,M,4.26,N,7.88,K,A*26
###2023-11-09 13:08:15.832735$GNGGA,130816.00,3611.0395634,N,07545.0047917,W,1,24,0.6,0.830,M,-39.962,M,0.0,*66
###2023-11-09 13:08:15.835317$GPGSV,2,1,07,05,21,090,44,10,18,292,43,13,24,045,42,15,62,037,46*71
###2023-11-09 13:08:15.837596$GPGSV,2,2,07,18,77,281,46,23,50,315,46,24,49,136,46,,,,*42
###2023-11-09 13:08:15.840174$GLGSV,2,1,05,70,50,017,36,71,48,290,48,80,18,090,46,85,57,203,48*67
###2023-11-09 13:08:15.841788$GLGSV,2,2,05,86,53,308,48,,,,,,,,,,,,*5F
###2023-11-09 13:08:15.844360$GAGSV,1,1,04,07,72,258,45,08,49,042,45,13,64,160,45,26,56,310,44*61
###2023-11-09 13:08:15.846963$GBGSV,2,1,06,11,23,180,41,14,65,008,45,24,20,132,44,26,23,081,44*64
###2023-11-09 13:08:15.848906$GBGSV,2,2,06,28,43,287,47,33,59,304,47,,,,,,,,*66
###2023-11-09 13:08:15.850374$GNVTG,242.57,T,,M,4.24,N,7.85,K,A*2D
###2023-11-09 13:08:15.930621$GNGGA,130816.10,3611.0395122,N,07545.0049234,W,1,24,0.6,0.843,M,-39.962,M,0.0,*67
###2023-11-09 13:08:15.933215$GPGSV,2,1,07,05,21,090,44,10,18,292,43,13,24,045,42,15,62,037,46*71
###2023-11-09 13:08:15.935469$GPGSV,2,2,07,18,77,281,46,23,50,315,46,24,49,136,46,,,,*42
###2023-11-09 13:08:15.938053$GLGSV,2,1,05,70,50,017,36,71,48,290,48,80,18,090,46,85,57,203,48*67
###2023-11-09 13:08:15.939651$GLGSV,2,2,05,86,53,308,47,,,,,,,,,,,,*50
###2023-11-09 13:08:15.942516$GAGSV,1,1,04,07,72,258,45,08,49,042,45,13,64,160,45,26,56,310,44*61
###2023-11-09 13:08:15.945097$GBGSV,2,1,06,11,23,180,41,14,65,008,45,24,20,132,44,26,23,081,44*64
###2023-11-09 13:08:15.947050$GBGSV,2,2,06,28,43,287,47,33,59,304,47,,,,,,,,*66
###2023-11-09 13:08:15.948519$GNVTG,246.40,T,,M,4.35,N,8.06,K,A*2B
###2023-11-09 13:08:16.031766$GNGGA,130816.20,3611.0394643,N,07545.0050599,W,1,24,0.6,0.857,M,-39.962,M,0.0,*68
###2023-11-09 13:08:16.034388$GPGSV,2,1,07,05,21,090,44,10,18,292,43,13,24,045,42,15,62,037,46*71
###2023-11-09 13:08:16.036655$GPGSV,2,2,07,18,77,281,46,23,50,315,45,24,49,136,46,,,,*41
###2023-11-09 13:08:16.039263$GLGSV,2,1,05,70,50,017,36,71,48,290,48,80,18,090,45,85,57,203,48*64
###2023-11-09 13:08:16.040877$GLGSV,2,2,05,86,53,308,47,,,,,,,,,,,,*50
###2023-11-09 13:08:16.043445$GAGSV,1,1,04,07,72,258,45,08,49,042,45,13,64,160,45,26,56,310,44*61
