###2023-11-09 13:10:47.630759$GNGGA,131047.80,3611.0723765,N,07544.8915169,W,1,24,0.6,0.655,M,-39.960,M,0.0,*66
###2023-11-09 13:10:47.633379$GPGSV,2,1,07,05,20,091,44,10,19,294,42,13,23,045,43,15,60,038,46*7C
###2023-11-09 13:10:47.635650$GPGSV,2,2,07,18,78,272,46,23,51,317,45,24,51,133,46,,,,*4D
###2023-11-09 13:10:47.638270$GLGSV,2,1,05,70,49,019,35,71,48,291,48,80,19,089,46,85,56,202,49*6B
###2023-11-09 13:10:47.639886$GLGSV,2,2,05,86,54,306,48,,,,,,,,,,,,*56
###2023-11-09 13:10:47.642461$GAGSV,1,1,04,07,73,259,45,08,48,043,45,13,63,161,45,26,57,310,45*67
###2023-11-09 13:10:47.645047$GBGSV,2,1,06,11,22,180,42,14,65,009,45,24,21,132,45,26,23,080,44*66
###2023-11-09 13:10:47.647009$GBGSV,2,2,06,28,43,286,46,33,59,305,47,,,,,,,,*67
###2023-11-09 13:10:47.648487$GNVTG,322.38,T,,M,4.57,N,8.46,K,A*27
###2023-11-09 13:10:47.730727$GNGGA,131047.90,3611.0724770,N,07544.8916137,W,1,24,0.6,0.665,M,-39.960,M,0.0,*6F
###2023-11-09 13:10:47.733303$GPGSV,2,1,07,05,20,091,45,10,19,294,42,13,23,045,43,15,60,038,46*7D
###2023-11-09 13:10:47.735550$GPGSV,2,2,07,18,78,272,46,23,51,317,45,24,51,133,46,,,,*4D
###2023-11-09 13:10:47.738138$GLGSV,2,1,05,70,49,019,35,71,48,291,48,80,19,089,46,85,56,202,48*6A
###2023-11-09 13:10:47.739744$GLGSV,2,2,05,86,54,306,48,,,,,,,,,,,,*56
###2023-11-09 13:10:47.742321$GAGSV,1,1,04,07,73,259,45,08,48,043,45,13,63,161,45,26,57,310,45*67
###2023-11-09 13:10:47.744886$GBGSV,2,1,06,11,22,180,42,14,65,009,45,24,21,132,45,26,23,080,45*67
###2023-11-09 13:10:47.746817$GBGSV,2,2,06,28,43,286,45,33,59,305,47,,,,,,,,*64
###2023-11-09 13:10:47.748292$GNVTG,321.75,T,,M,4.59,N,8.50,K,A*24
###2023-11-09 13:10:47.832771$GNGGA,131048.00,3611.0725727,N,07544.8917173,W,1,24,0.6,0.662,M,-39.960,M,0.0,*6C
###2023-11-09 13:10:47.835391$GPGSV,2,1,07,05,20,091,45,10,19,294,41,13,23,045,44,15,60,038,46*79
###2023-11-09 13:10:47.837691$GPGSV,2,2,07,18,78,272,46,23,51,317,45,24,51,133,46,,,,*4D
###2023-11-09 13:10:47.840277$GLGSV,2,1,05,70,49,019,35,71,48,291,48,80,19,089,46,85,56,202,48*6A
###2023-11-09 13:10:47.841897$GLGSV,2,2,05,86,54,306,47,,,,,,,,,,,,*59
###2023-11-09 13:10:47.844483$GAGSV,1,1,04,07,73,259,45,08,48,043,45,13,63,161,45,26,57,310,45*67
###2023-11-09 13:10:47.847087$GBGSV,2,1,06,11,22,180,41,14,65,009,45,24,21,132,45,26,23,080,45*64
###2023-11-09 13:10:47.849041$GBGSV,2,2,06,28,43,286,45,33,59,305,47,,,,,,,,*64
###2023-11-09 13:10:47.850511$GNVTG,316.05,T,,M,4.55,N,8.42,K,A*28
###2023-11-09 13:10:47.940022$GNGGA,131048.10,3611.0726613,N,07544.8918301,W,1,24,0.6,0.647,M,-39.960,M,0.0,*67
###2023-11-09 13:10:47.942647$GPGSV,2,1,07,05,20,091,44,10,19,294,41,13,23,045,44,15,60,038,46*78
###2023-11-09 13:10:47.944918$GPGSV,2,2,07,18,78,272,46,23,51,317,45,24,51,133,46,,,,*4D
###2023-11-09 13:10:47.947534$GLGSV,2,1,05,70,49,019,35,71,48,291,48,80,19,089,46,85,56,202,48*6A
###2023-11-09 13:10:47.949146$GLGSV,2,2,05,86,54,306,47,,,,,,,,,,,,*59
###2023-11-09 13:10:47.951746$GAGSV,1,1,04,07,73,259,45,08,48,043,45,13,63,161,45,26,57,310,45*67
###2023-11-09 13:10:47.954365$GBGSV,2,1,06,11,22,180,41,14,65,009,45,24,21,132,44,26,23,080,45*65
###2023-11-09 13:10:47.956322$GBGSV,2,2,06,28,43,286,46,33,59,305,47,,,,,,,,*67
###2023-11-09 13:10:47.957844$GNVTG,312.37,T,,M,4.59,N,8.50,K,A*22
###2023-11-09 13:10:48.033227$GNGGA,131048.20,3611.0727481,N,07544.8919447,W,1,24,0.6,0.624,M,-39.960,M,0.0,*6D
###2023-11-09 13:10:48.035818$GPGSV,2,1,07,05,20,091,43,10,19,294,41,13,23,045,44,15,60,038,46*7F
###2023-11-09 13:10:48.038091$GPGSV,2,2,07,18,78,272,46,23,51,317,45,24,51,133,46,,,,*4D
###2023-11-09 13:10:48.040654$GLGSV,2,1,05,70,49,019,36,71,48,291,48,80,19,089,45,85,56,202,48*6A
###2023-11-09 13:10:48.042258$GLGSV,2,2,05,86,54,306,47,,,,,,,,,,,,*59
###2023-11-09 13:10:48.044827$GAGSV,1,1,04,07,73,259,45,08,48,043,45,13,63,161,45,26,57,310,45*67
###2023-11-09 13:10:48.047422$GBGSV,2,1,06,11,22,180,41,14,65,009,45,24,21,132,44,26,23,080,45*65
###2023-11-09 13:10:48.049354$GBGSV,2,2,06,28,43,286,46,33,59,305,47,,,,,,,,*67
###2023-11-09 13:10:48.050816$GNVTG,313.87,T,,M,4.55,N,8.42,K,A*27
###2023-11-09 13:10:48.130766$GNGGA,131048.30,3611.0728412,N,07544.8920525,W,1,24,0.6,0.599,M,-39.960,M,0.0,*63
###2023-11-09 13:10:48.133367$GPGSV,2,1,07,05,20,091,42,10,19,294,42,13,23,045,43,15,60,038,46*7A
###2023-11-09 13:10:48.135627$GPGSV,2,2,07,18,78,272,46,23,51,317,45,24,51,133,46,,,,*4D
###2023-11-09 13:10:48.138227$GLGSV,2,1,05,70,49,019,36,71,48,291,49,80,19,089,45,85,56,202,49*6A
###2023-11-09 13:10:48.139836$GLGSV,2,2,05,86,54,306,48,,,,,,,,,,,,*56
###2023-11-09 13:10:48.142410$GAGSV,1,1,04,07,73,259,45,08,48,043,45,13,63,161,45,26,57,310,45*67
###2023-11-09 13:10:48.145009$GBGSV,2,1,06,11,22,180,42,14,65,009,45,24,21,132,44,26,23,080,45*66
###2023-11-09 13:10:48.146970$GBGSV,2,2,06,28,43,286,46,33,59,305,47,,,,,,,,*67
###2023-11-09 13:10:48.148446$GNVTG,319.93,T,,M,4.63,N,8.57,K,A*29
###2023-11-09 13:10:48.231745$GNGGA,131048.40,3611.0729409,N,07544.8921484,W,1,24,0.6,0.585,M,-39.960,M,0.0,*69
###2023-11-09 13:10:48.234349$GPGSV,2,1,07,05,20,091,42,10,19,294,42,13,23,045,43,15,60,038,46*7A
###2023-11-09 13:10:48.236605$GPGSV,2,2,07,18,78,272,46,23,51,317,45,24,51,133,46,,,,*4D
###2023-11-09 13:10:48.239198$GLGSV,2,1,05,70,49,019,36,71,48,291,48,80,19,089,44,85,56,202,49*6A
###2023-11-09 13:10:48.240819$GLGSV,2,2,05,86,54,306,48,,,,,,,,,,,,*56
###2023-11-09 13:10:48.243399$GAGSV,1,1,04,07,73,259,45,08,48,043,45,13,63,161,45,26,57,310,45*67
###2023-11-09 13:10:48.245987$GBGSV,2,1,06,11,22,180,43,14,65,009,45,24,21,132,44,26,23,080,45*67
###2023-11-09 13:10:48.247940$GBGSV,2,2,06,28,43,286,46,33,59,305,47,,,,,,,,*67
###2023-11-09 13:10:48.249411$GNVTG,324.34,T,,M,4.47,N,8.28,K,A*24
###2023-11-09 13:10:48.330739$GNGGA,131048.50,3611.0730448,N,07544.8922344,W,1,24,0.6,0.577,M,-39.960,M,0.0,*60
###2023-11-09 13:10:48.333319$GPGSV,2,1,07,05,20,091,43,10,19,294,42,13,23,045,43,15,60,038,46*7B
###2023-11-09 13:10:48.335582$GPGSV,2,2,07,18,78,272,46,23,51,317,45,24,51,133,46,,,,*4D
###2023-11-09 13:10:48.338178$GLGSV,2,1,05,70,49,019,36,71,48,291,48,80,19,089,44,85,56,202,49*6A
###2023-11-09 13:10:48.339778$GLGSV,2,2,05,86,54,306,48,,,,,,,,,,,,*56
###2023-11-09 13:10:48.342340$GAGSV,1,1,04,07,73,259,45,08,48,043,45,13,63,161,45,26,57,310,45*67
###2023-11-09 13:10:48.344917$GBGSV,2,1,06,11,22,180,43,14,65,009,45,24,21,132,44,26,23,080,45*67
###2023-11-09 13:10:48.346852$GBGSV,2,2,06,28,43,286,46,33,59,305,47,,,,,,,,*67
###2023-11-09 13:10:48.348322$GNVTG,328.17,T,,M,4.53,N,8.39,K,A*2C
###2023-11-09 13:10:48.430869$GNGGA,131048.60,3611.0731523,N,07544.8923169,W,1,24,0.6,0.563,M,-39.960,M,0.0,*67
###2023-11-09 13:10:48.433496$GPGSV,2,1,07,05,20,091,43,10,19,294,42,13,23,045,43,15,60,038,46*7B
###2023-11-09 13:10:48.435767$GPGSV,2,2,07,18,78,272,46,23,51,317,45,24,51,133,46,,,,*4D
###2023-11-09 13:10:48.438385$GLGSV,2,1,05,70,49,019,36,71,48,291,48,80,19,089,45,85,56,202,48*6A
###2023-11-09 13:10:48.440011$GLGSV,2,2,05,86,54,306,47,,,,,,,,,,,,*59
###2023-11-09 13:10:48.442605$GAGSV,1,1,04,07,73,259,45,08,48,043,45,13,63,161,45,26,57,310,44*66
###2023-11-09 13:10:48.445214$GBGSV,2,1,06,11,22,180,42,14,65,009,45,24,21,132,44,26,23,080,45*66
###2023-11-09 13:10:48.447173$GBGSV,2,2,06,28,43,286,46,33,59,305,47,,,,,,,,*67
###2023-11-09 13:10:48.448650$GNVTG,328.46,T,,M,4.57,N,8.46,K,A*24
###2023-11-09 13:10:48.531883$GNGGA,131048.70,3611.0732568,N,07544.8924042,W,1,24,0.6,0.548,M,-39.960,M,0.0,*6C
###2023-11-09 13:10:48.534502$GPGSV,2,1,07,05,20,091,44,10,19,294,40,13,23,045,43,15,60,038,46*7E
###2023-11-09 13:10:48.536775$GPGSV,2,2,07,18,78,272,46,23,51,317,45,24,51,133,46,,,,*4D
###2023-11-09 13:10:48.539388$GLGSV,2,1,05,70,49,019,36,71,48,291,48,80,19,089,45,85,56,202,48*6A
###2023-11-09 13:10:48.541014$GLGSV,2,2,05,86,54,306,47,,,,,,,,,,,,*59
###2023-11-09 13:10:48.543596$GAGSV,1,1,04,07,73,259,45,08,48,043,45,13,63,161,45,26,57,310,44*66
###2023-11-09 13:10:48.546202$GBGSV,2,1,06,11,22,180,40,14,65,009,45,24,21,132,44,26,23,080,45*64
###2023-11-09 13:10:48.548163$GBGSV,2,2,06,28,43,286,46,33,59,305,47,,,,,,,,*67
###2023-11-09 13:10:48.549643$GNVTG,323.48,T,,M,4.53,N,8.39,K,A*2D
###2023-11-09 13:10:48.630740$GNGGA,131048.80,3611.0733563,N,07544.8924994,W,1,24,0.6,0.519,M,-39.960,M,0.0,*6F
###2023-11-09 13:10:48.633340$GPGSV,2,1,07,05,20,091,44,10,19,294,42,13,23,045,43,15,60,038,46*7C
###2023-11-09 13:10:48.635608$GPGSV,2,2,07,18,78,272,46,23,51,317,45,24,51,133,47,,,,*4C
###2023-11-09 13:10:48.638194$GLGSV,2,1,05,70,49,019,36,71,48,291,48,80,19,089,45,85,56,202,48*6A
###2023-11-09 13:10:48.639800$GLGSV,2,2,05,86,54,306,47,,,,,,,,,,,,*59
###2023-11-09 13:10:48.642378$GAGSV,1,1,04,07,73,259,45,08,48,043,45,13,63,161,45,26,57,310,44*66
###2023-11-09 13:10:48.644966$GBGSV,2,1,06,11,22,180,41,14,65,009,45,24,21,132,44,26,23,080,45*65
###2023-11-09 13:10:48.646892$GBGSV,2,2,06,28,43,286,46,33,59,305,47,,,,,,,,*67
###2023-11-09 13:10:48.648369$GNVTG,321.40,T,,M,4.51,N,8.35,K,A*29
###2023-11-09 13:10:48.730621$GNGGA,131048.90,3611.0734569,N,07544.8925936,W,1,24,0.6,0.486,M,-39.960,M,0.0,*6D
