###2023-11-09 13:10:04.147556$GBGSV,2,2,06,28,43,286,47,33,59,305,47,,,,,,,,*66
###2023-11-09 13:10:04.149007$GNVTG,82.01,T,,M,3.44,N,6.37,K,A*19
###2023-11-09 13:10:04.229998$GNGGA,131004.40,3611.0504318,N,07544.8958741,W,1,24,0.6,0.519,M,-39.961,M,0.0,*6B
###2023-11-09 13:10:04.232607$GPGSV,2,1,07,05,20,090,40,10,19,293,45,13,24,045,43,15,61,037,46*70
###2023-11-09 13:10:04.234862$GPGSV,2,2,07,18,78,277,47,23,50,316,46,24,50,134,45,,,,*4F
###2023-11-09 13:10:04.237444$GLGSV,2,1,05,70,49,019,35,71,48,291,48,80,19,089,43,85,57,203,48*6F
###2023-11-09 13:10:04.239048$GLGSV,2,2,05,86,53,308,48,,,,,,,,,,,,*5F
###2023-11-09 13:10:04.241609$GAGSV,1,1,04,07,73,259,45,08,48,043,45,13,63,161,45,26,57,310,45*67
###2023-11-09 13:10:04.244192$GBGSV,2,1,06,11,22,180,40,14,65,009,45,24,21,132,42,26,23,080,43*64
###2023-11-09 13:10:04.246127$GBGSV,2,2,06,28,43,286,47,33,59,305,47,,,,,,,,*66
###2023-11-09 13:10:04.247570$GNVTG,91.44,T,,M,3.58,N,6.62,K,A*17
###2023-11-09 13:10:04.330004$GNGGA,131004.50,3611.0504221,N,07544.8957477,W,1,24,0.6,0.465,M,-39.961,M,0.0,*62
###2023-11-09 13:10:04.332604$GPGSV,2,1,07,05,20,090,40,10,19,293,45,13,24,045,42,15,61,037,46*71
###2023-11-09 13:10:04.334860$GPGSV,2,2,07,18,78,277,47,23,50,316,46,24,50,134,45,,,,*4F
###2023-11-09 13:10:04.337466$GLGSV,2,1,05,70,49,019,35,71,48,291,48,80,19,089,43,85,57,203,47*60
###2023-11-09 13:10:04.339080$GLGSV,2,2,05,86,53,308,48,,,,,,,,,,,,*5F
###2023-11-09 13:10:04.341661$GAGSV,1,1,04,07,73,259,45,08,48,043,45,13,63,161,45,26,57,310,45*67
###2023-11-09 13:10:04.344248$GBGSV,2,1,06,11,22,180,40,14,65,009,45,24,21,132,42,26,23,080,43*64
###2023-11-09 13:10:04.346182$GBGSV,2,2,06,28,43,286,47,33,59,305,47,,,,,,,,*66
###2023-11-09 13:10:04.347627$GNVTG,99.06,T,,M,3.85,N,7.13,K,A*1E
###2023-11-09 13:10:04.431243$GNGGA,131004.60,3611.0504033,N,07544.8956167,W,1,24,0.6,0.406,M,-39.961,M,0.0,*60
###2023-11-09 13:10:04.433830$GPGSV,2,1,07,05,20,090,40,10,19,293,45,13,24,045,40,15,61,037,45*70
###2023-11-09 13:10:04.436086$GPGSV,2,2,07,18,78,277,47,23,50,316,45,24,50,134,45,,,,*4C
###2023-11-09 13:10:04.438703$GLGSV,2,1,05,70,49,019,35,71,48,291,48,80,19,089,42,85,57,203,47*61
###2023-11-09 13:10:04.440316$GLGSV,2,2,05,86,53,308,48,,,,,,,,,,,,*5F
###2023-11-09 13:10:04.442882$GAGSV,1,1,04,07,73,259,45,08,48,043,44,13,63,161,45,26,57,310,45*66
###2023-11-09 13:10:04.445471$GBGSV,2,1,06,11,22,180,40,14,65,009,45,24,21,132,42,26,23,080,43*64
###2023-11-09 13:10:04.447424$GBGSV,2,2,06,28,43,286,47,33,59,305,47,,,,,,,,*66
###2023-11-09 13:10:04.448899$GNVTG,100.91,T,,M,3.93,N,7.27,K,A*21
###2023-11-09 13:10:04.529879$GNGGA,131004.70,3611.0503864,N,07544.8954852,W,1,24,0.6,0.345,M,-39.961,M,0.0,*61
###2023-11-09 13:10:04.532463$GPGSV,2,1,07,05,20,090,40,10,19,293,44,13,24,045,40,15,61,037,45*71
###2023-11-09 13:10:04.534706$GPGSV,2,2,07,18,78,277,47,23,50,316,45,24,50,134,46,,,,*4F
###2023-11-09 13:10:04.537285$GLGSV,2,1,05,70,49,019,35,71,48,291,48,80,19,089,41,85,57,203,49*6C
###2023-11-09 13:10:04.538900$GLGSV,2,2,05,86,53,308,47,,,,,,,,,,,,*50
###2023-11-09 13:10:04.541477$GAGSV,1,1,04,07,73,259,45,08,48,043,43,13,63,161,45,26,57,310,45*61
###2023-11-09 13:10:04.544045$GBGSV,2,1,06,11,22,180,43,14,65,009,44,24,21,132,44,26,23,080,42*61
###2023-11-09 13:10:04.545971$GBGSV,2,2,06,28,43,286,47,33,59,305,46,,,,,,,,*67
###2023-11-09 13:10:04.547414$GNVTG,97.23,T,,M,3.85,N,7.13,K,A*17
###2023-11-09 13:10:04.629992$GNGGA,131004.80,3611.0503840,N,07544.8953531,W,1,24,0.6,0.297,M,-39.961,M,0.0,*69
###2023-11-09 13:10:04.632591$GPGSV,2,1,07,05,20,090,40,10,19,293,44,13,24,045,40,15,61,037,45*71
###2023-11-09 13:10:04.634848$GPGSV,2,2,07,18,78,277,46,23,50,316,45,24,50,134,46,,,,*4E
###2023-11-09 13:10:04.637442$GLGSV,2,1,05,70,49,019,35,71,48,291,48,80,19,089,41,85,57,203,50*64
###2023-11-09 13:10:04.639064$GLGSV,2,2,05,86,53,308,47,,,,,,,,,,,,*50
###2023-11-09 13:10:04.641643$GAGSV,1,1,04,07,73,259,45,08,48,043,43,13,63,161,45,26,57,310,44*60
###2023-11-09 13:10:04.644237$GBGSV,2,1,06,11,22,180,44,14,65,009,44,24,21,132,44,26,23,080,42*66
###2023-11-09 13:10:04.646176$GBGSV,2,2,06,28,43,286,47,33,59,305,46,,,,,,,,*67
###2023-11-09 13:10:04.647632$GNVTG,85.56,T,,M,3.89,N,7.20,K,A*1A
###2023-11-09 13:10:04.729887$GNGGA,131004.90,3611.0504002,N,07544.8952186,W,1,23,0.6,0.273,M,-39.961,M,0.0,*65
###2023-11-09 13:10:04.732494$GPGSV,2,1,07,05,20,090,40,10,19,293,44,13,24,045,40,15,61,037,45*71
###2023-11-09 13:10:04.734762$GPGSV,2,2,07,18,78,277,46,23,50,316,45,24,50,134,46,,,,*4E
###2023-11-09 13:10:04.737359$GLGSV,1,1,04,71,48,291,48,80,19,089,43,85,57,203,49,86,53,308,47*68
###2023-11-09 13:10:04.739935$GAGSV,1,1,04,07,73,259,45,08,48,043,44,13,63,161,45,26,57,310,44*67
###2023-11-09 13:10:04.742540$GBGSV,2,1,06,11,22,180,44,14,65,009,44,24,21,132,44,26,23,080,42*66
###2023-11-09 13:10:04.744473$GBGSV,2,2,06,28,43,286,47,33,59,305,46,,,,,,,,*67
###2023-11-09 13:10:04.745900$GNVTG,77.98,T,,M,4.06,N,7.52,K,A*10
###2023-11-09 13:10:04.832717$GNGGA,131005.00,3611.0504203,N,07544.8950848,W,1,23,0.6,0.266,M,-39.961,M,0.0,*63
###2023-11-09 13:10:04.835282$GPGSV,2,1,07,05,20,090,42,10,19,293,44,13,24,045,42,15,61,037,45*71
###2023-11-09 13:10:04.837552$GPGSV,2,2,07,18,78,277,47,23,50,316,45,24,50,134,46,,,,*4F
###2023-11-09 13:10:04.840132$GLGSV,1,1,04,71,48,291,48,80,19,089,43,85,57,203,48,86,53,308,48*66
###2023-11-09 13:10:04.842711$GAGSV,1,1,04,07,73,259,45,08,48,043,44,13,63,161,45,26,57,310,45*66
###2023-11-09 13:10:04.845277$GBGSV,2,1,06,11,22,180,42,14,65,009,45,24,21,132,44,26,23,080,42*61
###2023-11-09 13:10:04.847222$GBGSV,2,2,06,28,43,286,47,33,59,305,46,,,,,,,,*67
###2023-11-09 13:10:04.848644$GNVTG,81.13,T,,M,3.89,N,7.20,K,A*1F
###2023-11-09 13:10:04.932497$GNGGA,131005.10,3611.0504300,N,07544.8949543,W,1,24,0.6,0.264,M,-39.961,M,0.0,*6B
###2023-11-09 13:10:04.935109$GPGSV,2,1,07,05,20,090,42,10,19,293,44,13,24,045,43,15,61,037,45*70
###2023-11-09 13:10:04.937396$GPGSV,2,2,07,18,78,277,47,23,50,316,45,24,50,134,46,,,,*4F
###2023-11-09 13:10:04.939988$GLGSV,2,1,05,70,49,019,35,71,48,291,48,80,19,089,44,85,57,203,47*67
###2023-11-09 13:10:04.941610$GLGSV,2,2,05,86,53,308,48,,,,,,,,,,,,*5F
###2023-11-09 13:10:04.944196$GAGSV,1,1,04,07,73,259,45,08,48,043,45,13,63,161,44,26,57,310,45*66
###2023-11-09 13:10:04.946777$GBGSV,2,1,06,11,22,180,40,14,65,009,45,24,21,132,44,26,23,080,43*62
###2023-11-09 13:10:04.948728$GBGSV,2,2,06,28,43,286,47,33,59,305,47,,,,,,,,*66
###2023-11-09 13:10:04.950167$GNVTG,88.48,T,,M,3.79,N,7.02,K,A*17
###2023-11-09 13:10:05.033841$GNGGA,131005.20,3611.0504278,N,07544.8948256,W,1,24,0.6,0.294,M,-39.961,M,0.0,*6B
###2023-11-09 13:10:05.036432$GPGSV,2,1,07,05,20,090,42,10,19,293,45,13,24,045,43,15,61,037,45*71
###2023-11-09 13:10:05.038698$GPGSV,2,2,07,18,78,277,47,23,50,316,46,24,50,134,45,,,,*4F
###2023-11-09 13:10:05.041264$GLGSV,2,1,05,70,49,019,35,71,48,291,49,80,19,089,44,85,57,203,47*66
###2023-11-09 13:10:05.042866$GLGSV,2,2,05,86,53,308,48,,,,,,,,,,,,*5F
###2023-11-09 13:10:05.045418$GAGSV,1,1,04,07,73,259,45,08,48,043,45,13,63,161,43,26,57,310,45*61
###2023-11-09 13:10:05.047999$GBGSV,2,1,06,11,22,180,40,14,65,009,45,24,21,132,43,26,23,080,43*65
###2023-11-09 13:10:05.049927$GBGSV,2,2,06,28,43,286,47,33,59,305,47,,,,,,,,*66
###2023-11-09 13:10:05.051353$GNVTG,93.48,T,,M,3.73,N,6.91,K,A*1C
###2023-11-09 13:10:05.130967$GNGGA,131005.30,3611.0504222,N,07544.8946968,W,1,24,0.6,0.345,M,-39.961,M,0.0,*60
###2023-11-09 13:10:05.133540$GPGSV,2,1,07,05,20,090,40,10,19,293,45,13,24,045,43,15,61,037,45*73
###2023-11-09 13:10:05.135783$GPGSV,2,2,07,18,78,277,47,23,50,316,46,24,50,134,45,,,,*4F
###2023-11-09 13:10:05.138353$GLGSV,2,1,05,70,49,019,35,71,48,291,49,80,19,089,43,85,57,203,47*61
###2023-11-09 13:10:05.139945$GLGSV,2,2,05,86,53,308,48,,,,,,,,,,,,*5F
###2023-11-09 13:10:05.142493$GAGSV,1,1,04,07,73,259,45,08,48,043,45,13,63,161,43,26,57,310,45*61
###2023-11-09 13:10:05.145049$GBGSV,2,1,06,11,22,180,40,14,65,009,45,24,21,132,42,26,23,080,43*64
###2023-11-09 13:10:05.146982$GBGSV,2,2,06,28,43,286,47,33,59,305,47,,,,,,,,*66
###2023-11-09 13:10:05.148399$GNVTG,92.51,T,,M,3.81,N,7.06,K,A*17
###2023-11-09 13:10:05.230980$GNGGA,131005.40,3611.0504212,N,07544.8945637,W,1,24,0.6,0.398,M,-39.961,M,0.0,*62
###2023-11-09 13:10:05.233586$GPGSV,2,1,07,05,20,090,40,10,19,293,44,13,24,045,42,15,61,037,45*73
###2023-11-09 13:10:05.235842$GPGSV,2,2,07,18,78,277,47,23,50,316,45,24,50,134,45,,,,*4C
###2023-11-09 13:10:05.238424$GLGSV,2,1,05,70,49,019,35,71,48,291,49,80,19,089,43,85,57,203,47*61
###2023-11-09 13:10:05.240038$GLGSV,2,2,05,86,53,308,48,,,,,,,,,,,,*5F
###2023-11-09 13:10:05.242608$GAGSV,1,1,04,07,73,259,45,08,48,043,44,13,63,161,44,26,57,310,45*67
###2023-11-09 13:10:05.245190$GBGSV,2,1,06,11,22,180,40,14,65,009,45,24,21,132,42,26,23,080,43*64
###2023-11-09 13:10:05.247135$GBGSV,2,2,06,28,43,286,47,33,59,305,47,,,,,,,,*66
###2023-11-09 13:10:05.248562$GNVTG,88.64,T,,M,3.98,N,7.38,K,A*1F
###2023-11-09 13:10:05.331093$GNGGA,131005.50,3611.0504289,N,07544.8944246,W,1,24,0.6,0.442,M,-39.961,M,0.0,*62
