###2023-11-09 13:06:52.440614$GLGSV,2,2,05,86,52,309,47,,,,,,,,,,,,*50
###2023-11-09 13:06:52.443196$GAGSV,1,1,04,07,72,255,45,08,49,042,44,13,64,160,44,26,56,311,45*6C
###2023-11-09 13:06:52.445779$GBGSV,2,1,06,11,24,180,42,14,65,006,45,24,19,133,43,26,23,082,43*66
###2023-11-09 13:06:52.447740$GBGSV,2,2,06,28,43,289,47,33,58,302,47,,,,,,,,*6F
###2023-11-09 13:06:52.449215$GNVTG,331.42,T,,M,1.38,N,2.56,K,A*2F
###2023-11-09 13:06:52.530596$GNGGA,130652.70,3611.0468342,N,07544.9781506,W,1,24,0.6,1.238,M,-39.961,M,0.0,*67
###2023-11-09 13:06:52.533169$GPGSV,2,1,07,05,21,090,42,10,18,292,43,13,24,045,42,15,62,037,46*77
###2023-11-09 13:06:52.535410$GPGSV,2,2,07,18,77,281,47,23,50,315,45,24,49,136,46,,,,*40
###2023-11-09 13:06:52.537998$GLGSV,2,1,05,70,50,016,35,71,48,288,47,80,17,091,44,85,58,203,48*60
###2023-11-09 13:06:52.539609$GLGSV,2,2,05,86,52,309,47,,,,,,,,,,,,*50
###2023-11-09 13:06:52.542170$GAGSV,1,1,04,07,72,255,45,08,49,042,44,13,64,160,44,26,56,311,45*6C
###2023-11-09 13:06:52.544734$GBGSV,2,1,06,11,24,180,42,14,65,006,46,24,19,133,43,26,23,082,43*65
###2023-11-09 13:06:52.546659$GBGSV,2,2,06,28,43,289,46,33,58,302,47,,,,,,,,*6E
###2023-11-09 13:06:52.548135$GNVTG,329.11,T,,M,1.26,N,2.34,K,A*2B
###2023-11-09 13:06:52.629754$GNGGA,130652.80,3611.0468614,N,07544.9781714,W,1,24,0.6,1.216,M,-39.961,M,0.0,*63
###2023-11-09 13:06:52.632354$GPGSV,2,1,07,05,21,090,42,10,18,292,43,13,24,045,42,15,62,037,46*77
###2023-11-09 13:06:52.634621$GPGSV,2,2,07,18,77,281,47,23,50,315,45,24,49,136,46,,,,*40
###2023-11-09 13:06:52.637218$GLGSV,2,1,05,70,50,016,36,71,48,288,47,80,17,091,44,85,58,203,48*63
###2023-11-09 13:06:52.638836$GLGSV,2,2,05,86,52,309,48,,,,,,,,,,,,*5F
###2023-11-09 13:06:52.641415$GAGSV,1,1,04,07,72,255,45,08,49,042,44,13,64,160,44,26,56,311,45*6C
###2023-11-09 13:06:52.644001$GBGSV,2,1,06,11,24,180,42,14,65,006,46,24,19,133,42,26,23,082,43*64
###2023-11-09 13:06:52.645948$GBGSV,2,2,06,28,43,289,47,33,58,302,47,,,,,,,,*6F
###2023-11-09 13:06:52.647429$GNVTG,325.91,T,,M,1.05,N,1.94,K,A*27
###2023-11-09 13:06:52.731619$GNGGA,130652.90,3611.0468816,N,07544.9781901,W,1,24,0.6,1.185,M,-39.961,M,0.0,*6D
###2023-11-09 13:06:52.734212$GPGSV,2,1,07,05,21,090,42,10,18,292,43,13,24,045,42,15,62,037,46*77
###2023-11-09 13:06:52.736487$GPGSV,2,2,07,18,77,281,47,23,50,315,45,24,49,136,46,,,,*40
###2023-11-09 13:06:52.739076$GLGSV,2,1,05,70,50,016,36,71,48,288,47,80,17,091,44,85,58,203,48*63
###2023-11-09 13:06:52.740684$GLGSV,2,2,05,86,52,309,47,,,,,,,,,,,,*50
###2023-11-09 13:06:52.743246$GAGSV,1,1,04,07,72,255,45,08,49,042,44,13,64,160,44,26,56,311,45*6C
###2023-11-09 13:06:52.745848$GBGSV,2,1,06,11,24,180,41,14,65,006,46,24,19,133,42,26,23,082,42*66
###2023-11-09 13:06:52.747812$GBGSV,2,2,06,28,43,289,47,33,58,302,47,,,,,,,,*6F
###2023-11-09 13:06:52.749285$GNVTG,325.91,T,,M,0.80,N,1.48,K,A*2A
###2023-11-09 13:06:52.831722$GNGGA,130653.00,3611.0468957,N,07544.9782062,W,1,24,0.6,1.145,M,-39.961,M,0.0,*62
###2023-11-09 13:06:52.834314$GPGSV,2,1,07,05,21,090,42,10,18,292,43,13,24,045,42,15,62,037,46*77
###2023-11-09 13:06:52.836561$GPGSV,2,2,07,18,77,281,47,23,50,315,45,24,49,136,46,,,,*40
###2023-11-09 13:06:52.839140$GLGSV,2,1,05,70,50,016,36,71,48,288,47,80,17,091,44,85,58,203,48*63
###2023-11-09 13:06:52.840741$GLGSV,2,2,05,86,52,309,47,,,,,,,,,,,,*50
###2023-11-09 13:06:52.843303$GAGSV,1,1,04,07,72,255,45,08,49,042,44,13,64,160,44,26,56,311,45*6C
###2023-11-09 13:06:52.845881$GBGSV,2,1,06,11,24,180,41,14,65,006,46,24,19,133,42,26,23,082,41*65
###2023-11-09 13:06:52.847843$GBGSV,2,2,06,28,43,289,47,33,58,302,47,,,,,,,,*6F
###2023-11-09 13:06:52.849317$GNVTG,325.91,T,,M,0.62,N,1.15,K,A*2E
###2023-11-09 13:06:52.931737$GNGGA,130653.10,3611.0469091,N,07544.9782180,W,1,24,0.6,1.106,M,-39.961,M,0.0,*6B
###2023-11-09 13:06:52.934351$GPGSV,2,1,07,05,21,090,41,10,18,292,43,13,24,045,40,15,62,037,45*75
###2023-11-09 13:06:52.936618$GPGSV,2,2,07,18,77,281,47,23,50,315,45,24,49,136,46,,,,*40
###2023-11-09 13:06:52.939227$GLGSV,2,1,05,70,50,016,35,71,48,288,48,80,17,091,44,85,58,203,48*6F
###2023-11-09 13:06:52.940851$GLGSV,2,2,05,86,52,309,47,,,,,,,,,,,,*50
###2023-11-09 13:06:52.943436$GAGSV,1,1,04,07,72,255,45,08,49,042,44,13,64,160,44,26,56,311,45*6C
###2023-11-09 13:06:52.946016$GBGSV,2,1,06,11,24,180,42,14,65,006,46,24,19,133,43,26,23,082,41*67
###2023-11-09 13:06:52.947979$GBGSV,2,2,06,28,43,289,47,33,58,302,47,,,,,,,,*6F
###2023-11-09 13:06:52.949453$GNVTG,325.91,T,,M,0.58,N,1.08,K,A*2B
###2023-11-09 13:06:53.033734$GNGGA,130653.20,3611.0469289,N,07544.9782228,W,1,24,0.6,1.079,M,-39.961,M,0.0,*6B
###2023-11-09 13:06:53.036329$GPGSV,2,1,07,05,21,090,41,10,18,292,43,13,24,045,40,15,62,037,45*75
###2023-11-09 13:06:53.038613$GPGSV,2,2,07,18,77,281,46,23,50,315,45,24,49,136,46,,,,*41
###2023-11-09 13:06:53.041208$GLGSV,2,1,05,70,50,016,35,71,48,288,48,80,17,091,43,85,58,203,49*69
###2023-11-09 13:06:53.042824$GLGSV,2,2,05,86,52,309,47,,,,,,,,,,,,*50
###2023-11-09 13:06:53.045402$GAGSV,1,1,04,07,72,255,45,08,49,042,43,13,64,160,45,26,56,311,45*6A
###2023-11-09 13:06:53.047990$GBGSV,2,1,06,11,24,180,43,14,65,006,45,24,19,133,43,26,23,082,41*65
###2023-11-09 13:06:53.049931$GBGSV,2,2,06,28,43,289,47,33,58,302,47,,,,,,,,*6F
###2023-11-09 13:06:53.051403$GNVTG,325.91,T,,M,0.89,N,1.66,K,A*2F
###2023-11-09 13:06:53.131718$GNGGA,130653.30,3611.0469592,N,07544.9782198,W,1,24,0.6,1.059,M,-39.961,M,0.0,*6D
###2023-11-09 13:06:53.134295$GPGSV,2,1,07,05,21,090,41,10,18,292,43,13,24,045,40,15,62,037,45*75
###2023-11-09 13:06:53.136548$GPGSV,2,2,07,18,77,281,46,23,50,315,45,24,49,136,47,,,,*40
###2023-11-09 13:06:53.139127$GLGSV,2,1,05,70,50,016,35,71,48,288,48,80,17,091,43,85,58,203,49*69
###2023-11-09 13:06:53.140726$GLGSV,2,2,05,86,52,309,47,,,,,,,,,,,,*50
###2023-11-09 13:06:53.143284$GAGSV,1,1,04,07,72,255,45,08,49,042,43,13,64,160,45,26,56,311,45*6A
###2023-11-09 13:06:53.145852$GBGSV,2,1,06,11,24,180,43,14,65,006,45,24,19,133,44,26,23,082,41*62
###2023-11-09 13:06:53.147790$GBGSV,2,2,06,28,43,289,47,33,58,302,47,,,,,,,,*6F
###2023-11-09 13:06:53.149178$GNVTG,8.36,T,,M,1.30,N,2.41,K,A*2B
###2023-11-09 13:06:53.230881$GNGGA,130653.40,3611.0469956,N,07544.9782112,W,1,24,0.6,1.047,M,-39.961,M,0.0,*63
###2023-11-09 13:06:53.233493$GPGSV,2,1,07,05,21,090,41,10,18,292,44,13,24,045,40,15,62,037,45*72
###2023-11-09 13:06:53.235776$GPGSV,2,2,07,18,77,281,47,23,50,315,45,24,49,136,46,,,,*40
###2023-11-09 13:06:53.238383$GLGSV,2,1,05,70,50,016,35,71,48,288,48,80,17,091,43,85,58,203,48*68
###2023-11-09 13:06:53.240005$GLGSV,2,2,05,86,52,309,47,,,,,,,,,,,,*50
###2023-11-09 13:06:53.242574$GAGSV,1,1,04,07,72,255,45,08,49,042,43,13,64,160,44,26,56,311,45*6B
###2023-11-09 13:06:53.245161$GBGSV,2,1,06,11,24,180,43,14,65,006,46,24,19,133,44,26,23,082,41*61
###2023-11-09 13:06:53.247118$GBGSV,2,2,06,28,43,289,47,33,58,302,47,,,,,,,,*6F
###2023-11-09 13:06:53.248554$GNVTG,12.48,T,,M,1.36,N,2.52,K,A*1D
###2023-11-09 13:06:53.332492$GNGGA,130653.50,3611.0470294,N,07544.9782006,W,1,24,0.6,1.042,M,-39.961,M,0.0,*6E
###2023-11-09 13:06:53.335075$GPGSV,2,1,07,05,21,090,42,10,18,292,44,13,24,045,42,15,62,037,46*70
###2023-11-09 13:06:53.337355$GPGSV,2,2,07,18,77,281,47,23,50,315,45,24,49,136,46,,,,*40
###2023-11-09 13:06:53.339937$GLGSV,2,1,05,70,50,016,35,71,48,288,47,80,17,091,43,85,58,203,48*67
###2023-11-09 13:06:53.341543$GLGSV,2,2,05,86,52,309,47,,,,,,,,,,,,*50
###2023-11-09 13:06:53.344110$GAGSV,1,1,04,07,72,255,45,08,49,042,44,13,64,160,44,26,56,311,45*6C
###2023-11-09 13:06:53.346696$GBGSV,2,1,06,11,24,180,41,14,65,006,46,24,19,133,43,26,23,082,42*67
###2023-11-09 13:06:53.348669$GBGSV,2,2,06,28,43,289,47,33,58,302,47,,,,,,,,*6F
###2023-11-09 13:06:53.350119$GNVTG,15.58,T,,M,1.15,N,2.12,K,A*1E
###2023-11-09 13:06:53.431223$GNGGA,130653.60,3611.0470549,N,07544.9781900,W,1,24,0.6,1.040,M,-39.961,M,0.0,*64
###2023-11-09 13:06:53.433800$GPGSV,2,1,07,05,21,090,42,10,18,292,44,13,24,045,43,15,62,037,46*71
###2023-11-09 13:06:53.436043$GPGSV,2,2,07,18,77,281,47,23,50,315,45,24,49,136,46,,,,*40
###2023-11-09 13:06:53.438646$GLGSV,2,1,05,70,50,016,36,71,48,288,47,80,17,091,43,85,58,203,47*6B
###2023-11-09 13:06:53.440563$GLGSV,2,2,05,86,52,309,48,,,,,,,,,,,,*5F
###2023-11-09 13:06:53.443123$GAGSV,1,1,04,07,72,255,45,08,49,042,44,13,64,160,44,26,56,311,45*6C
###2023-11-09 13:06:53.445687$GBGSV,2,1,06,11,24,180,41,14,65,006,46,24,19,133,43,26,23,082,43*66
###2023-11-09 13:06:53.447638$GBGSV,2,2,06,28,43,289,47,33,58,302,47,,,,,,,,*6F
###2023-11-09 13:06:53.449068$GNVTG,15.58,T,,M,0.80,N,1.48,K,A*1F
###2023-11-09 13:06:53.531866$GNGGA,130653.70,3611.0470706,N,07544.9781794,W,1,24,0.6,1.047,M,-39.961,M,0.0,*68
###2023-11-09 13:06:53.534462$GPGSV,2,1,07,05,21,090,42,10,18,292,44,13,24,045,43,15,62,037,46*71
###2023-11-09 13:06:53.536722$GPGSV,2,2,07,18,77,281,47,23,50,315,46,24,49,136,46,,,,*43
###2023-11-09 13:06:53.539315$GLGSV,2,1,05,70,50,016,36,71,48,288,47,80,17,091,44,85,58,203,47*6C
###2023-11-09 13:06:53.540926$GLGSV,2,2,05,86,52,309,48,,,,,,,,,,,,*5F
