###2023-11-09 13:10:52.043028$GLGSV,2,2,05,86,54,306,48,,,,,,,,,,,,*56
###2023-11-09 13:10:52.045623$GAGSV,1,1,04,07,73,261,45,08,47,043,45,13,62,161,43,26,57,310,45*64
###2023-11-09 13:10:52.048263$GBGSV,2,1,06,11,22,180,40,14,65,009,45,24,21,132,43,26,23,080,45*63
###2023-11-09 13:10:52.050206$GBGSV,2,2,06,28,43,286,47,33,59,305,47,,,,,,,,*66
###2023-11-09 13:10:52.051681$GNVTG,287.62,T,,M,4.43,N,8.21,K,A*22
###2023-11-09 13:10:52.131731$GNGGA,131052.30,3611.0761718,N,07544.8958134,W,1,24,0.6,0.405,M,-39.960,M,0.0,*63
###2023-11-09 13:10:52.134325$GPGSV,2,1,07,05,20,091,43,10,19,294,44,13,23,045,44,15,60,038,47*7B
###2023-11-09 13:10:52.136591$GPGSV,2,2,07,18,78,272,46,23,51,317,46,24,51,133,45,,,,*4D
###2023-11-09 13:10:52.139191$GLGSV,2,1,05,70,49,019,36,71,48,291,49,80,19,089,45,85,56,202,48*6B
###2023-11-09 13:10:52.140800$GLGSV,2,2,05,86,54,306,48,,,,,,,,,,,,*56
###2023-11-09 13:10:52.143367$GAGSV,1,1,04,07,73,261,45,08,47,043,45,13,62,161,44,26,57,310,45*63
###2023-11-09 13:10:52.145937$GBGSV,2,1,06,11,22,180,40,14,65,009,45,24,21,132,44,26,23,080,45*64
###2023-11-09 13:10:52.147888$GBGSV,2,2,06,28,43,286,47,33,59,305,47,,,,,,,,*66
###2023-11-09 13:10:52.149362$GNVTG,283.04,T,,M,4.39,N,8.14,K,A*2D
###2023-11-09 13:10:52.231482$GNGGA,131052.40,3611.0761960,N,07544.8959605,W,1,24,0.6,0.414,M,-39.960,M,0.0,*61
###2023-11-09 13:10:52.234063$GPGSV,2,1,07,05,20,091,43,10,19,294,44,13,23,045,43,15,60,038,46*7D
###2023-11-09 13:10:52.236314$GPGSV,2,2,07,18,78,272,46,23,51,317,46,24,51,133,45,,,,*4D
###2023-11-09 13:10:52.238906$GLGSV,2,1,05,70,49,019,36,71,48,291,49,80,19,089,45,85,56,202,49*6A
###2023-11-09 13:10:52.240516$GLGSV,2,2,05,86,54,306,48,,,,,,,,,,,,*56
###2023-11-09 13:10:52.243065$GAGSV,1,1,04,07,73,261,45,08,47,043,45,13,62,161,45,26,57,310,45*62
###2023-11-09 13:10:52.245622$GBGSV,2,1,06,11,22,180,40,14,65,009,45,24,21,132,45,26,23,080,45*65
###2023-11-09 13:10:52.247569$GBGSV,2,2,06,28,43,286,47,33,59,305,47,,,,,,,,*66
###2023-11-09 13:10:52.249029$GNVTG,280.36,T,,M,4.41,N,8.17,K,A*23
###2023-11-09 13:10:52.331260$GNGGA,131052.50,3611.0762206,N,07544.8961117,W,1,24,0.6,0.436,M,-39.960,M,0.0,*67
###2023-11-09 13:10:52.333865$GPGSV,2,1,07,05,20,091,43,10,19,294,44,13,23,045,43,15,60,038,46*7D
###2023-11-09 13:10:52.336130$GPGSV,2,2,07,18,78,272,46,23,51,317,46,24,51,133,45,,,,*4D
###2023-11-09 13:10:52.338734$GLGSV,2,1,05,70,49,019,36,71,48,291,49,80,19,089,45,85,56,202,49*6A
###2023-11-09 13:10:52.340344$GLGSV,2,2,05,86,54,306,48,,,,,,,,,,,,*56
###2023-11-09 13:10:52.342927$GAGSV,1,1,04,07,73,261,45,08,47,043,45,13,62,161,46,26,57,310,45*61
###2023-11-09 13:10:52.345517$GBGSV,2,1,06,11,22,180,41,14,65,009,45,24,21,132,45,26,23,080,45*64
###2023-11-09 13:10:52.347478$GBGSV,2,2,06,28,43,286,47,33,59,305,47,,,,,,,,*66
###2023-11-09 13:10:52.348954$GNVTG,282.58,T,,M,4.65,N,8.60,K,A*2F
###2023-11-09 13:10:52.431611$GNGGA,131052.60,3611.0762525,N,07544.8962683,W,1,24,0.6,0.464,M,-39.960,M,0.0,*6C
###2023-11-09 13:10:52.434222$GPGSV,2,1,07,05,20,091,43,10,19,294,43,13,23,045,43,15,60,038,46*7A
###2023-11-09 13:10:52.436491$GPGSV,2,2,07,18,78,272,47,23,51,317,45,24,51,133,46,,,,*4C
###2023-11-09 13:10:52.439120$GLGSV,2,1,05,70,49,019,36,71,48,291,49,80,19,089,45,85,56,202,49*6A
###2023-11-09 13:10:52.440737$GLGSV,2,2,05,86,54,306,48,,,,,,,,,,,,*56
###2023-11-09 13:10:52.443307$GAGSV,1,1,04,07,73,261,45,08,47,043,45,13,62,161,46,26,57,310,44*60
###2023-11-09 13:10:52.445904$GBGSV,2,1,06,11,22,180,41,14,65,009,45,24,21,132,45,26,23,080,44*65
###2023-11-09 13:10:52.447863$GBGSV,2,2,06,28,43,286,46,33,59,305,47,,,,,,,,*67
###2023-11-09 13:10:52.449342$GNVTG,285.86,T,,M,4.84,N,8.96,K,A*2D
###2023-11-09 13:10:52.531253$GNGGA,131052.70,3611.0762896,N,07544.8964302,W,1,24,0.6,0.494,M,-39.960,M,0.0,*6D
###2023-11-09 13:10:52.533859$GPGSV,2,1,07,05,20,091,43,10,19,294,43,13,23,045,43,15,60,038,46*7A
###2023-11-09 13:10:52.536111$GPGSV,2,2,07,18,78,272,47,23,51,317,45,24,51,133,46,,,,*4C
###2023-11-09 13:10:52.538719$GLGSV,2,1,05,70,49,019,36,71,48,291,49,80,19,089,45,85,56,202,49*6A
###2023-11-09 13:10:52.540329$GLGSV,2,2,05,86,54,306,48,,,,,,,,,,,,*56
###2023-11-09 13:10:52.542890$GAGSV,1,1,04,07,73,261,45,08,47,043,45,13,62,161,45,26,57,310,44*63
###2023-11-09 13:10:52.545469$GBGSV,2,1,06,11,22,180,41,14,65,009,45,24,21,132,45,26,23,080,44*65
###2023-11-09 13:10:52.547412$GBGSV,2,2,06,28,43,286,46,33,59,305,47,,,,,,,,*67
###2023-11-09 13:10:52.548885$GNVTG,286.00,T,,M,5.03,N,9.32,K,A*21
###2023-11-09 13:10:52.630650$GNGGA,131052.80,3611.0763236,N,07544.8965969,W,1,24,0.6,0.506,M,-39.960,M,0.0,*6F
###2023-11-09 13:10:52.633257$GPGSV,2,1,07,05,20,091,43,10,19,294,43,13,23,045,44,15,60,038,46*7D
###2023-11-09 13:10:52.635527$GPGSV,2,2,07,18,78,272,46,23,51,317,45,24,51,133,45,,,,*4E
###2023-11-09 13:10:52.638127$GLGSV,2,1,05,70,49,019,36,71,48,291,49,80,19,089,45,85,56,202,48*6B
###2023-11-09 13:10:52.639739$GLGSV,2,2,05,86,54,306,48,,,,,,,,,,,,*56
###2023-11-09 13:10:52.642320$GAGSV,1,1,04,07,73,261,45,08,47,043,45,13,62,161,45,26,57,310,44*63
###2023-11-09 13:10:52.644899$GBGSV,2,1,06,11,22,180,40,14,65,009,45,24,21,132,44,26,23,080,44*65
###2023-11-09 13:10:52.646836$GBGSV,2,2,06,28,43,286,46,33,59,305,47,,,,,,,,*67
###2023-11-09 13:10:52.648312$GNVTG,282.57,T,,M,5.03,N,9.32,K,A*27
###2023-11-09 13:10:52.731644$GNGGA,131052.90,3611.0763475,N,07544.8967662,W,1,24,0.6,0.513,M,-39.960,M,0.0,*6D
###2023-11-09 13:10:52.734247$GPGSV,2,1,07,05,20,091,43,10,19,294,44,13,23,045,44,15,60,038,46*7A
###2023-11-09 13:10:52.736519$GPGSV,2,2,07,18,78,272,46,23,51,317,46,24,51,133,45,,,,*4D
###2023-11-09 13:10:52.739112$GLGSV,2,1,05,70,49,019,36,71,48,291,49,80,19,089,46,85,56,202,48*68
###2023-11-09 13:10:52.740722$GLGSV,2,2,05,86,54,306,48,,,,,,,,,,,,*56
###2023-11-09 13:10:52.743310$GAGSV,1,1,04,07,73,261,45,08,47,043,45,13,62,161,45,26,57,310,44*63
###2023-11-09 13:10:52.745885$GBGSV,2,1,06,11,22,180,40,14,65,009,46,24,21,132,44,26,23,080,44*66
###2023-11-09 13:10:52.747838$GBGSV,2,2,06,28,43,286,47,33,59,305,47,,,,,,,,*66
###2023-11-09 13:10:52.749305$GNVTG,277.49,T,,M,5.05,N,9.36,K,A*20
###2023-11-09 13:10:52.833734$GNGGA,131053.00,3611.0763588,N,07544.8969368,W,1,24,0.6,0.516,M,-39.960,M,0.0,*62
###2023-11-09 13:10:52.836323$GPGSV,2,1,07,05,20,091,43,10,19,294,44,13,23,045,44,15,60,038,47*7B
###2023-11-09 13:10:52.838582$GPGSV,2,2,07,18,78,272,46,23,51,317,46,24,51,133,45,,,,*4D
###2023-11-09 13:10:52.841149$GLGSV,2,1,05,70,49,019,36,71,48,291,50,80,19,089,45,85,56,202,47*6C
###2023-11-09 13:10:52.842750$GLGSV,2,2,05,86,54,306,48,,,,,,,,,,,,*56
###2023-11-09 13:10:52.845305$GAGSV,1,1,04,07,73,261,44,08,47,043,45,13,62,161,45,26,57,310,45*63
###2023-11-09 13:10:52.847894$GBGSV,2,1,06,11,22,180,39,14,65,009,46,24,21,132,43,26,23,080,44*6F
###2023-11-09 13:10:52.849819$GBGSV,2,2,06,28,43,286,47,33,59,305,47,,,,,,,,*66
###2023-11-09 13:10:52.851270$GNVTG,272.37,T,,M,4.98,N,9.22,K,A*2C
###2023-11-09 13:10:52.932624$GNGGA,131053.10,3611.0763607,N,07544.8971053,W,1,24,0.6,0.527,M,-39.960,M,0.0,*67
###2023-11-09 13:10:52.935219$GPGSV,2,1,07,05,20,091,43,10,19,294,44,13,23,045,44,15,60,038,47*7B
###2023-11-09 13:10:52.937496$GPGSV,2,2,07,18,78,272,46,23,51,317,46,24,51,133,45,,,,*4D
###2023-11-09 13:10:52.940076$GLGSV,2,1,05,70,49,019,36,71,48,291,50,80,19,089,45,85,56,202,47*6C
###2023-11-09 13:10:52.941688$GLGSV,2,2,05,86,54,306,48,,,,,,,,,,,,*56
###2023-11-09 13:10:52.944250$GAGSV,1,1,04,07,73,261,44,08,47,043,45,13,62,161,45,26,57,310,45*63
###2023-11-09 13:10:52.946830$GBGSV,2,1,06,11,22,180,39,14,65,009,46,24,21,132,43,26,23,080,44*6F
###2023-11-09 13:10:52.948777$GBGSV,2,2,06,28,43,286,47,33,59,305,47,,,,,,,,*66
###2023-11-09 13:10:52.950237$GNVTG,269.79,T,,M,4.88,N,9.04,K,A*29
###2023-11-09 13:10:53.034606$GNGGA,131053.20,3611.0763578,N,07544.8972715,W,1,24,0.6,0.547,M,-39.960,M,0.0,*6F
###2023-11-09 13:10:53.037225$GPGSV,2,1,07,05,20,091,43,10,19,294,43,13,23,045,44,15,60,038,46*7D
###2023-11-09 13:10:53.039487$GPGSV,2,2,07,18,78,272,46,23,51,317,46,24,51,133,45,,,,*4D
###2023-11-09 13:10:53.042046$GLGSV,2,1,05,70,49,019,36,71,48,291,50,80,19,089,45,85,56,202,47*6C
###2023-11-09 13:10:53.043952$GLGSV,2,2,05,86,54,306,48,,,,,,,,,,,,*56
###2023-11-09 13:10:53.046534$GAGSV,1,1,04,07,73,261,44,08,47,043,45,13,62,161,45,26,57,310,45*63
###2023-11-09 13:10:53.049160$GBGSV,2,1,06,11,22,180,39,14,65,009,46,24,21,132,43,26,23,080,43*68
###2023-11-09 13:10:53.051115$GBGSV,2,2,06,28,43,286,47,33,59,305,47,,,,,,,,*66
###2023-11-09 13:10:53.052578$GNVTG,268.40,T,,M,4.84,N,8.96,K,A*24
###2023-11-09 13:10:53.131959$GNGGA,131053.30,3611.0763545,N,07544.8974400,W,1,24,0.6,0.575,M,-39.960,M,0.0,*60
###2023-11-09 13:10:53.134533$GPGSV,2,1,07,05,20,091,43,10,19,294,43,13,23,045,43,15,60,038,46*7A
###2023-11-09 13:10:53.136774$GPGSV,2,2,07,18,78,272,46,23,51,317,45,24,51,133,45,,,,*4E
###2023-11-09 13:10:53.139356$GLGSV,2,1,05,70,49,019,36,71,48,291,49,80,19,089,45,85,56,202,48*6B
###2023-11-09 13:10:53.140957$GLGSV,2,2,05,86,54,306,48,,,,,,,,,,,,*56
