###2023-11-09 13:06:34.647105$GBGSV,2,1,06,11,24,180,41,14,65,006,46,24,19,133,43,26,23,082,42*67
###2023-11-09 13:06:34.649063$GBGSV,2,2,06,28,43,289,47,33,58,302,47,,,,,,,,*6F
###2023-11-09 13:06:34.650504$GNVTG,29.60,T,,M,0.60,N,1.12,K,A*1A
###2023-11-09 13:06:34.733361$GNGGA,130634.90,3611.0430836,N,07544.9794328,W,1,24,0.6,0.982,M,-39.961,M,0.0,*69
###2023-11-09 13:06:34.735958$GPGSV,2,1,07,05,21,090,42,10,18,292,44,13,24,045,41,15,62,037,45*70
###2023-11-09 13:06:34.738244$GPGSV,2,2,07,18,77,281,47,23,49,314,45,24,49,137,45,,,,*4B
###2023-11-09 13:06:34.740834$GLGSV,2,1,05,70,50,016,36,71,48,288,48,80,17,091,44,85,58,203,48*6C
###2023-11-09 13:06:34.742448$GLGSV,2,2,05,86,52,309,47,,,,,,,,,,,,*50
###2023-11-09 13:06:34.745025$GAGSV,1,1,04,07,72,255,46,08,49,042,44,13,64,160,44,26,56,311,45*6F
###2023-11-09 13:06:34.747652$GBGSV,2,1,06,11,24,180,41,14,65,006,46,24,19,133,43,26,23,082,42*67
###2023-11-09 13:06:34.749613$GBGSV,2,2,06,28,43,289,47,33,58,302,47,,,,,,,,*6F
###2023-11-09 13:06:34.751054$GNVTG,29.60,T,,M,0.72,N,1.33,K,A*1A
###2023-11-09 13:06:34.837870$GNGGA,130635.00,3611.0431032,N,07544.9794433,W,1,24,0.6,1.009,M,-39.961,M,0.0,*6A
###2023-11-09 13:06:34.840460$GPGSV,2,1,07,05,21,090,42,10,18,292,44,13,24,045,41,15,62,037,46*73
###2023-11-09 13:06:34.842708$GPGSV,2,2,07,18,77,281,47,23,49,314,45,24,49,137,45,,,,*4B
###2023-11-09 13:06:34.845284$GLGSV,2,1,05,70,50,016,36,71,48,288,48,80,17,091,44,85,58,203,48*6C
###2023-11-09 13:06:34.846885$GLGSV,2,2,05,86,52,309,47,,,,,,,,,,,,*50
###2023-11-09 13:06:34.849457$GAGSV,1,1,04,07,72,255,45,08,49,042,44,13,64,160,44,26,56,311,45*6C
###2023-11-09 13:06:34.852047$GBGSV,2,1,06,11,24,180,41,14,65,006,46,24,19,133,42,26,23,082,42*66
###2023-11-09 13:06:34.853997$GBGSV,2,2,06,28,43,289,47,33,58,302,47,,,,,,,,*6F
###2023-11-09 13:06:34.855434$GNVTG,29.60,T,,M,0.84,N,1.55,K,A*13
###2023-11-09 13:06:34.933878$GNGGA,130635.10,3611.0431241,N,07544.9794569,W,1,24,0.6,1.033,M,-39.961,M,0.0,*6A
###2023-11-09 13:06:34.936468$GPGSV,2,1,07,05,21,090,42,10,18,292,43,13,24,045,41,15,62,037,45*77
###2023-11-09 13:06:34.938861$GPGSV,2,2,07,18,77,281,47,23,49,314,45,24,49,137,45,,,,*4B
###2023-11-09 13:06:34.941441$GLGSV,2,1,05,70,50,016,36,71,48,288,48,80,17,091,44,85,58,203,48*6C
###2023-11-09 13:06:34.943060$GLGSV,2,2,05,86,52,309,48,,,,,,,,,,,,*5F
###2023-11-09 13:06:34.945632$GAGSV,1,1,04,07,72,255,45,08,49,042,44,13,64,160,44,26,56,311,45*6C
###2023-11-09 13:06:34.948218$GBGSV,2,1,06,11,24,180,42,14,65,006,46,24,19,133,42,26,23,082,42*65
###2023-11-09 13:06:34.950149$GBGSV,2,2,06,28,43,289,47,33,58,302,47,,,,,,,,*6F
###2023-11-09 13:06:34.951584$GNVTG,29.60,T,,M,0.87,N,1.62,K,A*14
###2023-11-09 13:06:35.036091$GNGGA,130635.20,3611.0431469,N,07544.9794723,W,1,24,0.6,1.053,M,-39.961,M,0.0,*6F
###2023-11-09 13:06:35.038688$GPGSV,2,1,07,05,21,090,42,10,18,292,43,13,24,045,41,15,62,037,45*77
###2023-11-09 13:06:35.040930$GPGSV,2,2,07,18,77,281,47,23,49,314,45,24,49,137,45,,,,*4B
###2023-11-09 13:06:35.043487$GLGSV,2,1,05,70,50,016,36,71,48,288,49,80,17,091,44,85,58,203,48*6D
###2023-11-09 13:06:35.045092$GLGSV,2,2,05,86,52,309,48,,,,,,,,,,,,*5F
###2023-11-09 13:06:35.047672$GAGSV,1,1,04,07,72,255,45,08,49,042,44,13,64,160,44,26,56,311,45*6C
###2023-11-09 13:06:35.050243$GBGSV,2,1,06,11,24,180,42,14,65,006,46,24,19,133,42,26,23,082,42*65
###2023-11-09 13:06:35.052185$GBGSV,2,2,06,28,43,289,47,33,58,302,47,,,,,,,,*6F
###2023-11-09 13:06:35.053645$GNVTG,331.06,T,,M,0.99,N,1.84,K,A*29
###2023-11-09 13:06:35.132220$GNGGA,130635.30,3611.0431717,N,07544.9794901,W,1,24,0.6,1.073,M,-39.961,M,0.0,*68
###2023-11-09 13:06:35.134792$GPGSV,2,1,07,05,21,090,42,10,18,292,42,13,24,045,41,15,62,037,46*75
###2023-11-09 13:06:35.137051$GPGSV,2,2,07,18,77,281,47,23,49,314,45,24,49,137,45,,,,*4B
###2023-11-09 13:06:35.139594$GLGSV,2,1,05,70,50,016,36,71,48,288,49,80,17,091,44,85,58,203,48*6D
###2023-11-09 13:06:35.141185$GLGSV,2,2,05,86,52,309,48,,,,,,,,,,,,*5F
###2023-11-09 13:06:35.143730$GAGSV,1,1,04,07,72,255,45,08,49,042,44,13,64,160,44,26,56,311,45*6C
###2023-11-09 13:06:35.146285$GBGSV,2,1,06,11,24,180,42,14,65,006,46,24,19,133,42,26,23,082,42*65
###2023-11-09 13:06:35.148213$GBGSV,2,2,06,28,43,289,47,33,58,302,47,,,,,,,,*6F
###2023-11-09 13:06:35.149663$GNVTG,328.38,T,,M,1.09,N,2.02,K,A*29
###2023-11-09 13:06:35.231614$GNGGA,130635.40,3611.0431969,N,07544.9795087,W,1,24,0.6,1.081,M,-39.961,M,0.0,*63
###2023-11-09 13:06:35.234209$GPGSV,2,1,07,05,21,090,42,10,18,292,42,13,24,045,41,15,62,037,46*75
###2023-11-09 13:06:35.236467$GPGSV,2,2,07,18,77,281,47,23,49,314,45,24,49,137,45,,,,*4B
###2023-11-09 13:06:35.239071$GLGSV,2,1,05,70,50,016,36,71,48,288,49,80,17,091,44,85,58,203,48*6D
###2023-11-09 13:06:35.240686$GLGSV,2,2,05,86,52,309,48,,,,,,,,,,,,*5F
###2023-11-09 13:06:35.243265$GAGSV,1,1,04,07,72,255,45,08,49,042,44,13,64,160,44,26,56,311,45*6C
###2023-11-09 13:06:35.245845$GBGSV,2,1,06,11,24,180,41,14,65,006,46,24,19,133,42,26,23,082,42*66
###2023-11-09 13:06:35.247812$GBGSV,2,2,06,28,43,289,47,33,58,302,47,,,,,,,,*6F
###2023-11-09 13:06:35.249296$GNVTG,329.32,T,,M,1.03,N,1.91,K,A*21
###2023-11-09 13:06:35.333496$GNGGA,130635.50,3611.0432207,N,07544.9795269,W,1,24,0.6,1.078,M,-39.961,M,0.0,*66
###2023-11-09 13:06:35.336082$GPGSV,2,1,07,05,21,090,42,10,18,292,42,13,24,045,41,15,62,037,46*75
###2023-11-09 13:06:35.338362$GPGSV,2,2,07,18,77,281,47,23,49,314,46,24,49,137,45,,,,*48
###2023-11-09 13:06:35.340943$GLGSV,2,1,05,70,50,016,36,71,48,288,48,80,17,091,45,85,58,203,48*6D
###2023-11-09 13:06:35.342549$GLGSV,2,2,05,86,52,309,47,,,,,,,,,,,,*50
###2023-11-09 13:06:35.345124$GAGSV,1,1,04,07,72,255,45,08,49,042,44,13,64,160,44,26,56,311,45*6C
###2023-11-09 13:06:35.347717$GBGSV,2,1,06,11,24,180,41,14,65,006,46,24,19,133,42,26,23,082,42*66
###2023-11-09 13:06:35.349644$GBGSV,2,2,06,28,43,289,46,33,58,302,47,,,,,,,,*6E
###2023-11-09 13:06:35.351102$GNVTG,327.03,T,,M,0.99,N,1.84,K,A*2B
###2023-11-09 13:06:35.432236$GNGGA,130635.60,3611.0432434,N,07544.9795451,W,1,24,0.6,1.067,M,-39.961,M,0.0,*60
###2023-11-09 13:06:35.434820$GPGSV,2,1,07,05,21,090,42,10,18,292,42,13,24,045,41,15,62,037,46*75
###2023-11-09 13:06:35.437095$GPGSV,2,2,07,18,77,281,47,23,49,314,46,24,49,137,45,,,,*48
###2023-11-09 13:06:35.439654$GLGSV,2,1,05,70,50,016,36,71,48,288,48,80,17,091,45,85,58,203,48*6D
###2023-11-09 13:06:35.441255$GLGSV,2,2,05,86,52,309,47,,,,,,,,,,,,*50
###2023-11-09 13:06:35.443823$GAGSV,1,1,04,07,72,255,45,08,49,042,44,13,64,160,44,26,56,311,45*6C
###2023-11-09 13:06:35.446402$GBGSV,2,1,06,11,24,180,41,14,65,006,46,24,19,133,42,26,23,082,42*66
###2023-11-09 13:06:35.448334$GBGSV,2,2,06,28,43,289,46,33,58,302,47,,,,,,,,*6E
###2023-11-09 13:06:35.449793$GNVTG,327.03,T,,M,0.97,N,1.80,K,A*21
###2023-11-09 13:06:35.532366$GNGGA,130635.70,3611.0432662,N,07544.9795627,W,1,24,0.6,1.046,M,-39.961,M,0.0,*60
###2023-11-09 13:06:35.534966$GPGSV,2,1,07,05,21,090,42,10,18,292,42,13,24,045,41,15,62,037,46*75
###2023-11-09 13:06:35.537250$GPGSV,2,2,07,18,77,281,47,23,49,314,46,24,49,137,46,,,,*4B
###2023-11-09 13:06:35.539827$GLGSV,2,1,05,70,50,016,36,71,48,288,47,80,17,091,44,85,58,203,48*63
###2023-11-09 13:06:35.541431$GLGSV,2,2,05,86,52,309,47,,,,,,,,,,,,*50
###2023-11-09 13:06:35.543994$GAGSV,1,1,04,07,72,255,45,08,49,042,44,13,64,160,44,26,56,311,45*6C
###2023-11-09 13:06:35.546570$GBGSV,2,1,06,11,24,180,41,14,65,006,45,24,19,133,42,26,23,082,42*65
###2023-11-09 13:06:35.548521$GBGSV,2,2,06,28,43,289,46,33,58,302,47,,,,,,,,*6E
###2023-11-09 13:06:35.549984$GNVTG,327.03,T,,M,0.97,N,1.80,K,A*21
###2023-11-09 13:06:35.633252$GNGGA,130635.80,3611.0432902,N,07544.9795788,W,1,24,0.6,1.015,M,-39.961,M,0.0,*64
###2023-11-09 13:06:35.635853$GPGSV,2,1,07,05,21,090,41,10,18,292,42,13,24,045,41,15,62,037,46*76
###2023-11-09 13:06:35.638130$GPGSV,2,2,07,18,77,281,47,23,49,314,45,24,49,137,46,,,,*48
###2023-11-09 13:06:35.640704$GLGSV,2,1,05,70,50,016,36,71,48,288,47,80,17,091,44,85,58,203,48*63
###2023-11-09 13:06:35.642308$GLGSV,2,2,05,86,52,309,47,,,,,,,,,,,,*50
###2023-11-09 13:06:35.644876$GAGSV,1,1,04,07,72,255,45,08,49,042,44,13,64,160,44,26,56,311,45*6C
###2023-11-09 13:06:35.647788$GBGSV,2,1,06,11,24,180,41,14,65,006,45,24,19,133,43,26,23,082,41*67
###2023-11-09 13:06:35.649752$GBGSV,2,2,06,28,43,289,46,33,58,302,47,,,,,,,,*6E
###2023-11-09 13:06:35.651233$GNVTG,333.97,T,,M,0.99,N,1.84,K,A*23
###2023-11-09 13:06:35.732243$GNGGA,130635.90,3611.0433161,N,07544.9795909,W,1,24,0.6,0.984,M,-39.961,M,0.0,*6E
###2023-11-09 13:06:35.734841$GPGSV,2,1,07,05,21,090,41,10,18,292,43,13,24,045,41,15,62,037,46*77
###2023-11-09 13:06:35.737118$GPGSV,2,2,07,18,77,281,47,23,49,314,45,24,49,137,46,,,,*48
###2023-11-09 13:06:35.739687$GLGSV,2,1,05,70,50,016,36,71,48,288,47,80,17,091,44,85,58,203,48*63
###2023-11-09 13:06:35.741290$GLGSV,2,2,05,86,52,309,47,,,,,,,,,,,,*50
###2023-11-09 13:06:35.743849$GAGSV,1,1,04,07,72,255,45,08,49,042,44,13,64,160,44,26,56,311,45*6C
###2023-11-09 13:06:35.746419$GBGSV,2,1,06,11,24,180,41,14,65,006,45,24,19,133,43,26,23,082,41*67
