###2023-11-09 13:08:17.145905$GBGSV,2,2,06,28,43,287,46,33,59,304,47,,,,,,,,*67
###2023-11-09 13:08:17.147413$GNVTG,238.39,T,,M,4.55,N,8.42,K,A*2A
###2023-11-09 13:08:17.229517$GNGGA,130817.40,3611.0387218,N,07545.0066447,W,1,24,0.6,0.852,M,-39.962,M,0.0,*65
###2023-11-09 13:08:17.232134$GPGSV,2,1,07,05,21,090,42,10,18,292,43,13,24,045,43,15,62,037,46*76
###2023-11-09 13:08:17.234394$GPGSV,2,2,07,18,77,281,46,23,50,315,45,24,49,136,45,,,,*42
###2023-11-09 13:08:17.236991$GLGSV,2,1,05,70,50,017,36,71,48,290,48,80,18,090,44,85,57,203,48*65
###2023-11-09 13:08:17.238610$GLGSV,2,2,05,86,53,308,48,,,,,,,,,,,,*5F
###2023-11-09 13:08:17.241175$GAGSV,1,1,04,07,72,258,44,08,49,042,46,13,64,160,45,26,56,310,45*62
###2023-11-09 13:08:17.243763$GBGSV,2,1,06,11,23,180,41,14,65,008,45,24,20,132,43,26,23,081,43*64
###2023-11-09 13:08:17.245709$GBGSV,2,2,06,28,43,287,46,33,59,304,47,,,,,,,,*67
###2023-11-09 13:08:17.247194$GNVTG,243.57,T,,M,4.51,N,8.35,K,A*2A
###2023-11-09 13:08:17.329633$GNGGA,130817.50,3611.0386729,N,07545.0067833,W,1,24,0.6,0.838,M,-39.962,M,0.0,*60
###2023-11-09 13:08:17.332230$GPGSV,2,1,07,05,21,090,42,10,18,292,43,13,24,045,43,15,62,037,46*76
###2023-11-09 13:08:17.334488$GPGSV,2,2,07,18,77,281,46,23,50,315,45,24,49,136,45,,,,*42
###2023-11-09 13:08:17.337079$GLGSV,2,1,05,70,50,017,36,71,48,290,48,80,18,090,45,85,57,203,48*64
###2023-11-09 13:08:17.338694$GLGSV,2,2,05,86,53,308,48,,,,,,,,,,,,*5F
###2023-11-09 13:08:17.341261$GAGSV,1,1,04,07,72,258,44,08,49,042,46,13,64,160,46,26,56,310,45*61
###2023-11-09 13:08:17.343833$GBGSV,2,1,06,11,23,180,41,14,65,008,45,24,20,132,44,26,23,081,43*63
###2023-11-09 13:08:17.345774$GBGSV,2,2,06,28,43,287,46,33,59,304,47,,,,,,,,*67
###2023-11-09 13:08:17.347248$GNVTG,250.09,T,,M,4.32,N,7.99,K,A*2F
###2023-11-09 13:08:17.428542$GNGGA,130817.60,3611.0386364,N,07545.0069239,W,1,24,0.6,0.840,M,-39.962,M,0.0,*6F
###2023-11-09 13:08:17.431140$GPGSV,2,1,07,05,21,090,43,10,18,292,43,13,24,045,43,15,62,037,46*77
###2023-11-09 13:08:17.433400$GPGSV,2,2,07,18,77,281,46,23,50,315,45,24,49,136,45,,,,*42
###2023-11-09 13:08:17.435975$GLGSV,2,1,05,70,50,017,36,71,48,290,48,80,18,090,45,85,57,203,48*64
###2023-11-09 13:08:17.437598$GLGSV,2,2,05,86,53,308,48,,,,,,,,,,,,*5F
###2023-11-09 13:08:17.440179$GAGSV,1,1,04,07,72,258,44,08,49,042,46,13,64,160,46,26,56,310,45*61
###2023-11-09 13:08:17.442753$GBGSV,2,1,06,11,23,180,41,14,65,008,45,24,20,132,44,26,23,081,43*63
###2023-11-09 13:08:17.444678$GBGSV,2,2,06,28,43,287,46,33,59,304,47,,,,,,,,*67
###2023-11-09 13:08:17.446140$GNVTG,254.97,T,,M,4.30,N,7.96,K,A*21
###2023-11-09 13:08:17.528519$GNGGA,130817.70,3611.0386047,N,07545.0070657,W,1,24,0.6,0.861,M,-39.962,M,0.0,*6B
###2023-11-09 13:08:17.531136$GPGSV,2,1,07,05,21,090,43,10,18,292,43,13,24,045,43,15,62,037,46*77
###2023-11-09 13:08:17.533400$GPGSV,2,2,07,18,77,281,46,23,50,315,45,24,49,136,44,,,,*43
###2023-11-09 13:08:17.535980$GLGSV,2,1,05,70,50,017,36,71,48,290,48,80,18,090,45,85,57,203,48*64
###2023-11-09 13:08:17.537609$GLGSV,2,2,05,86,53,308,48,,,,,,,,,,,,*5F
###2023-11-09 13:08:17.540178$GAGSV,1,1,04,07,72,258,44,08,49,042,45,13,64,160,46,26,56,310,45*62
###2023-11-09 13:08:17.542756$GBGSV,2,1,06,11,23,180,41,14,65,008,45,24,20,132,44,26,23,081,44*64
###2023-11-09 13:08:17.544697$GBGSV,2,2,06,28,43,287,46,33,59,304,47,,,,,,,,*67
###2023-11-09 13:08:17.546165$GNVTG,254.85,T,,M,4.30,N,7.96,K,A*22
###2023-11-09 13:08:17.628515$GNGGA,130817.80,3611.0385696,N,07545.0072088,W,1,24,0.6,0.881,M,-39.962,M,0.0,*65
###2023-11-09 13:08:17.631096$GPGSV,2,1,07,05,21,090,43,10,18,292,44,13,24,045,43,15,62,037,46*70
###2023-11-09 13:08:17.633354$GPGSV,2,2,07,18,77,281,46,23,50,315,45,24,49,136,44,,,,*43
###2023-11-09 13:08:17.635925$GLGSV,2,1,05,70,50,017,36,71,48,290,48,80,18,090,45,85,57,203,47*6B
###2023-11-09 13:08:17.637547$GLGSV,2,2,05,86,53,308,48,,,,,,,,,,,,*5F
###2023-11-09 13:08:17.640122$GAGSV,1,1,04,07,72,258,44,08,49,042,46,13,64,160,46,26,56,310,45*61
###2023-11-09 13:08:17.642695$GBGSV,2,1,06,11,23,180,40,14,65,008,45,24,20,132,44,26,23,081,44*65
###2023-11-09 13:08:17.644629$GBGSV,2,2,06,28,43,287,47,33,59,304,47,,,,,,,,*66
###2023-11-09 13:08:17.646097$GNVTG,252.04,T,,M,4.41,N,8.17,K,A*2D
###2023-11-09 13:08:17.728617$GNGGA,130817.90,3611.0385273,N,07545.0073535,W,1,24,0.6,0.891,M,-39.962,M,0.0,*68
###2023-11-09 13:08:17.731188$GPGSV,2,1,07,05,21,090,43,10,18,292,44,13,24,045,43,15,62,037,46*70
###2023-11-09 13:08:17.733433$GPGSV,2,2,07,18,77,281,46,23,50,315,45,24,49,136,44,,,,*43
###2023-11-09 13:08:17.735996$GLGSV,2,1,05,70,50,017,36,71,48,290,49,80,18,090,45,85,57,203,47*6A
###2023-11-09 13:08:17.737613$GLGSV,2,2,05,86,53,308,48,,,,,,,,,,,,*5F
###2023-11-09 13:08:17.740168$GAGSV,1,1,04,07,72,258,44,08,49,042,46,13,64,160,45,26,56,310,45*62
###2023-11-09 13:08:17.742738$GBGSV,2,1,06,11,23,180,40,14,65,008,46,24,20,132,43,26,23,081,44*61
###2023-11-09 13:08:17.744666$GBGSV,2,2,06,28,43,287,47,33,59,304,47,,,,,,,,*66
###2023-11-09 13:08:17.746126$GNVTG,248.94,T,,M,4.55,N,8.42,K,A*2A
###2023-11-09 13:08:17.831772$GNGGA,130818.00,3611.0384809,N,07545.0074993,W,1,24,0.6,0.880,M,-39.962,M,0.0,*6F
###2023-11-09 13:08:17.834369$GPGSV,2,1,07,05,21,090,43,10,18,292,44,13,24,045,43,15,62,037,46*70
###2023-11-09 13:08:17.836622$GPGSV,2,2,07,18,77,281,46,23,50,315,45,24,49,136,44,,,,*43
###2023-11-09 13:08:17.839212$GLGSV,2,1,05,70,50,017,36,71,48,290,49,80,18,090,45,85,57,203,47*6A
###2023-11-09 13:08:17.840826$GLGSV,2,2,05,86,53,308,48,,,,,,,,,,,,*5F
###2023-11-09 13:08:17.843408$GAGSV,1,1,04,07,72,258,45,08,49,042,45,13,64,160,45,26,56,310,44*61
###2023-11-09 13:08:17.845998$GBGSV,2,1,06,11,23,180,40,14,65,008,46,24,20,132,43,26,23,081,44*61
###2023-11-09 13:08:17.847956$GBGSV,2,2,06,28,43,287,47,33,59,304,47,,,,,,,,*66
###2023-11-09 13:08:17.849418$GNVTG,248.69,T,,M,4.59,N,8.50,K,A*27
###2023-11-09 13:08:17.934468$GNGGA,130818.10,3611.0384353,N,07545.0076460,W,1,24,0.6,0.855,M,-39.962,M,0.0,*61
###2023-11-09 13:08:17.937083$GPGSV,2,1,07,05,20,090,43,10,18,292,44,13,24,045,42,15,62,037,45*73
###2023-11-09 13:08:17.939354$GPGSV,2,2,07,18,77,281,46,23,50,315,45,24,49,136,45,,,,*42
###2023-11-09 13:08:17.941927$GLGSV,2,1,05,70,50,017,36,71,48,290,48,80,18,090,45,85,57,203,47*6B
###2023-11-09 13:08:17.943533$GLGSV,2,2,05,86,53,308,47,,,,,,,,,,,,*50
###2023-11-09 13:08:17.946099$GAGSV,1,1,04,07,72,258,45,08,49,042,45,13,64,160,45,26,56,310,44*61
###2023-11-09 13:08:17.948689$GBGSV,2,1,06,11,23,180,41,14,65,008,46,24,20,132,44,26,23,081,44*67
###2023-11-09 13:08:17.950624$GBGSV,2,2,06,28,43,287,46,33,59,304,47,,,,,,,,*67
###2023-11-09 13:08:17.952086$GNVTG,249.99,T,,M,4.55,N,8.42,K,A*26
###2023-11-09 13:08:18.035208$GNGGA,130818.20,3611.0383964,N,07545.0077957,W,1,24,0.6,0.842,M,-39.962,M,0.0,*65
###2023-11-09 13:08:18.037811$GPGSV,2,1,07,05,20,090,43,10,18,292,44,13,24,045,43,15,62,037,45*72
###2023-11-09 13:08:18.040054$GPGSV,2,2,07,18,77,281,46,23,50,315,45,24,49,136,45,,,,*42
###2023-11-09 13:08:18.042610$GLGSV,2,1,05,70,50,017,36,71,48,290,49,80,18,090,45,85,57,203,48*65
###2023-11-09 13:08:18.044202$GLGSV,2,2,05,86,53,308,47,,,,,,,,,,,,*50
###2023-11-09 13:08:18.046755$GAGSV,1,1,04,07,72,258,45,08,49,042,45,13,64,160,45,26,56,310,45*60
###2023-11-09 13:08:18.049334$GBGSV,2,1,06,11,23,180,41,14,65,008,46,24,20,132,45,26,23,081,45*67
###2023-11-09 13:08:18.051250$GBGSV,2,2,06,28,43,287,46,33,59,304,47,,,,,,,,*67
###2023-11-09 13:08:18.052727$GNVTG,254.96,T,,M,4.61,N,8.53,K,A*22
###2023-11-09 13:08:18.130734$GNGGA,130818.30,3611.0383678,N,07545.0079495,W,1,24,0.6,0.851,M,-39.962,M,0.0,*69
###2023-11-09 13:08:18.133331$GPGSV,2,1,07,05,20,090,43,10,18,292,44,13,24,045,43,15,62,037,46*71
###2023-11-09 13:08:18.135580$GPGSV,2,2,07,18,77,281,46,23,50,315,45,24,49,136,45,,,,*42
###2023-11-09 13:08:18.138173$GLGSV,2,1,05,70,50,017,36,71,48,290,49,80,18,090,45,85,57,203,48*65
###2023-11-09 13:08:18.139783$GLGSV,2,2,05,86,53,308,48,,,,,,,,,,,,*5F
###2023-11-09 13:08:18.142353$GAGSV,1,1,04,07,72,258,45,08,49,042,45,13,64,160,45,26,56,310,44*61
###2023-11-09 13:08:18.144932$GBGSV,2,1,06,11,23,180,41,14,65,008,46,24,20,132,45,26,23,081,45*67
###2023-11-09 13:08:18.147190$GBGSV,2,2,06,28,43,287,46,33,59,304,47,,,,,,,,*67
###2023-11-09 13:08:18.148673$GNVTG,259.35,T,,M,4.57,N,8.46,K,A*27
###2023-11-09 13:08:18.232986$GNGGA,130818.40,3611.0383414,N,07545.0081044,W,1,24,0.6,0.881,M,-39.962,M,0.0,*64
###2023-11-09 13:08:18.235578$GPGSV,2,1,07,05,20,090,44,10,18,292,44,13,24,045,43,15,62,037,47*77
###2023-11-09 13:08:18.237853$GPGSV,2,2,07,18,77,281,46,23,50,315,45,24,49,136,45,,,,*42
###2023-11-09 13:08:18.240440$GLGSV,2,1,05,70,50,017,36,71,48,290,49,80,18,090,45,85,57,203,47*6A
###2023-11-09 13:08:18.242048$GLGSV,2,2,05,86,53,308,48,,,,,,,,,,,,*5F
###2023-11-09 13:08:18.244621$GAGSV,1,1,04,07,72,258,45,08,49,042,45,13,64,160,45,26,56,310,45*60
###2023-11-09 13:08:18.247218$GBGSV,2,1,06,11,23,180,41,14,65,008,46,24,20,132,44,26,23,081,45*66
###2023-11-09 13:08:18.249165$GBGSV,2,2,06,28,43,287,46,33,59,304,47,,,,,,,,*67
