###2023-11-09 13:08:58.247359$GNVTG,76.90,T,,M,4.88,N,9.04,K,A*12
###2023-11-09 13:08:58.329768$GNGGA,130858.50,3611.0227116,N,07544.9823543,W,1,24,0.6,0.989,M,-39.962,M,0.0,*6A
###2023-11-09 13:08:58.332391$GPGSV,2,1,07,05,20,090,42,10,19,293,44,13,24,045,40,15,61,037,45*73
###2023-11-09 13:08:58.334662$GPGSV,2,2,07,18,78,277,47,23,50,316,45,24,50,135,45,,,,*4D
###2023-11-09 13:08:58.337261$GLGSV,2,1,05,70,50,017,35,71,48,290,48,80,18,090,44,85,57,203,49*67
###2023-11-09 13:08:58.338881$GLGSV,2,2,05,86,53,308,47,,,,,,,,,,,,*50
###2023-11-09 13:08:58.341470$GAGSV,1,1,04,07,72,258,45,08,48,043,44,13,64,160,45,26,57,310,45*60
###2023-11-09 13:08:58.344047$GBGSV,2,1,06,11,23,180,42,14,65,008,45,24,20,132,43,26,23,081,42*66
###2023-11-09 13:08:58.345994$GBGSV,2,2,06,28,43,287,46,33,59,304,46,,,,,,,,*66
###2023-11-09 13:08:58.347442$GNVTG,78.63,T,,M,4.86,N,9.00,K,A*1A
###2023-11-09 13:08:58.430492$GNGGA,130858.60,3611.0227423,N,07544.9821918,W,1,24,0.6,0.920,M,-39.962,M,0.0,*69
###2023-11-09 13:08:58.433096$GPGSV,2,1,07,05,20,090,42,10,19,293,43,13,24,045,40,15,61,037,45*74
###2023-11-09 13:08:58.435364$GPGSV,2,2,07,18,78,277,46,23,50,316,44,24,50,135,46,,,,*4E
###2023-11-09 13:08:58.437988$GLGSV,2,1,05,70,50,017,35,71,48,290,47,80,18,090,44,85,57,203,50*60
###2023-11-09 13:08:58.439606$GLGSV,2,2,05,86,53,308,47,,,,,,,,,,,,*50
###2023-11-09 13:08:58.442184$GAGSV,1,1,04,07,72,258,45,08,48,043,43,13,64,160,45,26,57,310,44*66
###2023-11-09 13:08:58.444778$GBGSV,2,1,06,11,23,180,43,14,65,008,44,24,20,132,44,26,23,081,42*61
###2023-11-09 13:08:58.446718$GBGSV,2,2,06,28,43,287,46,33,59,304,46,,,,,,,,*66
###2023-11-09 13:08:58.448164$GNVTG,75.79,T,,M,4.86,N,9.00,K,A*1C
###2023-11-09 13:08:58.531463$GNGGA,130858.70,3611.0227835,N,07544.9820290,W,1,24,0.6,0.857,M,-39.962,M,0.0,*68
###2023-11-09 13:08:58.534045$GPGSV,2,1,07,05,20,090,42,10,19,293,42,13,24,045,38,15,61,037,44*7B
###2023-11-09 13:08:58.536277$GPGSV,2,2,07,18,78,277,46,23,50,316,44,24,50,135,46,,,,*4E
###2023-11-09 13:08:58.538847$GLGSV,2,1,05,70,50,017,35,71,48,290,47,80,18,090,44,85,57,203,50*60
###2023-11-09 13:08:58.540441$GLGSV,2,2,05,86,53,308,46,,,,,,,,,,,,*51
###2023-11-09 13:08:58.542989$GAGSV,1,1,04,07,72,258,44,08,48,043,43,13,64,160,45,26,57,310,43*60
###2023-11-09 13:08:58.545546$GBGSV,2,1,06,11,23,180,44,14,65,008,44,24,20,132,45,26,23,081,42*67
###2023-11-09 13:08:58.547492$GBGSV,2,2,06,28,43,287,46,33,59,304,46,,,,,,,,*66
###2023-11-09 13:08:58.548922$GNVTG,70.11,T,,M,5.07,N,9.40,K,A*1B
###2023-11-09 13:08:58.629649$GNGGA,130858.80,3611.0228369,N,07544.9818647,W,1,24,0.6,0.806,M,-39.962,M,0.0,*6B
###2023-11-09 13:08:58.632274$GPGSV,2,1,07,05,20,090,41,10,19,293,42,13,24,045,38,15,61,037,45*79
###2023-11-09 13:08:58.634547$GPGSV,2,2,07,18,78,277,46,23,50,316,44,24,50,135,46,,,,*4E
###2023-11-09 13:08:58.637146$GLGSV,2,1,05,70,50,017,35,71,48,290,47,80,18,090,43,85,57,203,50*67
###2023-11-09 13:08:58.638765$GLGSV,2,2,05,86,53,308,47,,,,,,,,,,,,*50
###2023-11-09 13:08:58.641356$GAGSV,1,1,04,07,72,258,44,08,48,043,43,13,64,160,45,26,57,310,43*60
###2023-11-09 13:08:58.643944$GBGSV,2,1,06,11,23,180,44,14,65,008,44,24,20,132,45,26,23,081,42*67
###2023-11-09 13:08:58.645883$GBGSV,2,2,06,28,43,287,46,33,59,304,47,,,,,,,,*67
###2023-11-09 13:08:58.647333$GNVTG,66.81,T,,M,5.23,N,9.68,K,A*19
###2023-11-09 13:08:58.729389$GNGGA,130858.90,3611.0228916,N,07544.9816976,W,1,23,0.6,0.761,M,-39.962,M,0.0,*62
###2023-11-09 13:08:58.731998$GPGSV,2,1,07,05,20,090,41,10,19,293,43,13,24,045,40,15,61,037,45*77
###2023-11-09 13:08:58.734275$GPGSV,2,2,07,18,78,277,47,23,50,316,45,24,50,135,46,,,,*4E
###2023-11-09 13:08:58.736858$GLGSV,1,1,04,71,48,290,47,80,18,090,43,85,57,203,49,86,53,308,47*6F
###2023-11-09 13:08:58.739470$GAGSV,1,1,04,07,72,258,45,08,48,043,44,13,64,160,45,26,57,310,44*61
###2023-11-09 13:08:58.742065$GBGSV,2,1,06,11,23,180,42,14,65,008,44,24,20,132,44,26,23,081,42*60
###2023-11-09 13:08:58.744006$GBGSV,2,2,06,28,43,287,46,33,59,304,47,,,,,,,,*67
###2023-11-09 13:08:58.745438$GNVTG,69.74,T,,M,5.27,N,9.76,K,A*17
###2023-11-09 13:08:58.831491$GNGGA,130859.00,3611.0229373,N,07544.9815260,W,1,24,0.6,0.719,M,-39.962,M,0.0,*65
###2023-11-09 13:08:58.834073$GPGSV,2,1,07,05,20,090,41,10,19,293,44,13,24,045,40,15,61,037,45*70
###2023-11-09 13:08:58.836333$GPGSV,2,2,07,18,78,277,47,23,50,316,45,24,50,135,46,,,,*4E
###2023-11-09 13:08:58.838921$GLGSV,2,1,05,70,50,017,35,71,48,290,48,80,18,090,43,85,57,203,48*61
###2023-11-09 13:08:58.840528$GLGSV,2,2,05,86,53,308,48,,,,,,,,,,,,*5F
###2023-11-09 13:08:58.843079$GAGSV,1,1,04,07,72,258,45,08,48,043,44,13,64,160,45,26,57,310,44*61
###2023-11-09 13:08:58.845644$GBGSV,2,1,06,11,23,180,41,14,65,008,45,24,20,132,43,26,23,081,42*65
###2023-11-09 13:08:58.847588$GBGSV,2,2,06,28,43,287,46,33,59,304,47,,,,,,,,*67
###2023-11-09 13:08:58.849011$GNVTG,74.28,T,,M,5.25,N,9.72,K,A*14
###2023-11-09 13:08:58.930515$GNGGA,130859.10,3611.0229712,N,07544.9813501,W,1,24,0.6,0.688,M,-39.962,M,0.0,*68
###2023-11-09 13:08:58.933122$GPGSV,2,1,07,05,20,090,41,10,19,293,46,13,24,045,41,15,61,037,45*73
###2023-11-09 13:08:58.935377$GPGSV,2,2,07,18,78,277,47,23,50,316,46,24,50,135,46,,,,*4D
###2023-11-09 13:08:58.937984$GLGSV,2,1,05,70,50,017,35,71,48,290,49,80,18,090,43,85,57,203,48*60
###2023-11-09 13:08:58.939608$GLGSV,2,2,05,86,53,308,48,,,,,,,,,,,,*5F
###2023-11-09 13:08:58.942189$GAGSV,1,1,04,07,72,258,45,08,48,043,45,13,64,160,45,26,57,310,45*61
###2023-11-09 13:08:58.944779$GBGSV,2,1,06,11,23,180,40,14,65,008,45,24,20,132,42,26,23,081,42*65
###2023-11-09 13:08:58.946724$GBGSV,2,2,06,28,43,287,47,33,59,304,47,,,,,,,,*66
###2023-11-09 13:08:58.948171$GNVTG,79.43,T,,M,5.27,N,9.76,K,A*12
###2023-11-09 13:08:59.032499$GNGGA,130859.20,3611.0229943,N,07544.9811689,W,1,24,0.6,0.682,M,-39.962,M,0.0,*6A
###2023-11-09 13:08:59.035103$GPGSV,2,1,07,05,20,090,41,10,19,293,46,13,24,045,41,15,61,037,45*73
###2023-11-09 13:08:59.037385$GPGSV,2,2,07,18,78,277,47,23,50,316,46,24,50,135,46,,,,*4D
###2023-11-09 13:08:59.039976$GLGSV,2,1,05,70,50,017,35,71,48,290,49,80,18,090,43,85,57,203,48*60
###2023-11-09 13:08:59.041590$GLGSV,2,2,05,86,53,308,48,,,,,,,,,,,,*5F
###2023-11-09 13:08:59.044166$GAGSV,1,1,04,07,72,258,45,08,48,043,45,13,64,160,45,26,57,310,45*61
###2023-11-09 13:08:59.046757$GBGSV,2,1,06,11,23,180,40,14,65,008,45,24,20,132,42,26,23,081,42*65
###2023-11-09 13:08:59.048708$GBGSV,2,2,06,28,43,287,47,33,59,304,47,,,,,,,,*66
###2023-11-09 13:08:59.050179$GNVTG,83.07,T,,M,5.40,N,10.01,K,A*2E
###2023-11-09 13:08:59.130098$GNGGA,130859.30,3611.0230143,N,07544.9809840,W,1,24,0.6,0.679,M,-39.962,M,0.0,*6D
###2023-11-09 13:08:59.132686$GPGSV,2,1,07,05,20,090,41,10,19,293,45,13,24,045,41,15,61,037,45*70
###2023-11-09 13:08:59.134937$GPGSV,2,2,07,18,78,277,47,23,50,316,46,24,50,135,46,,,,*4D
###2023-11-09 13:08:59.137524$GLGSV,2,1,05,70,50,017,35,71,48,290,48,80,18,090,43,85,57,203,48*61
###2023-11-09 13:08:59.139129$GLGSV,2,2,05,86,53,308,48,,,,,,,,,,,,*5F
###2023-11-09 13:08:59.141686$GAGSV,1,1,04,07,72,258,45,08,48,043,45,13,64,160,45,26,57,310,45*61
###2023-11-09 13:08:59.144257$GBGSV,2,1,06,11,23,180,40,14,65,008,45,24,20,132,42,26,23,081,42*65
###2023-11-09 13:08:59.146188$GBGSV,2,2,06,28,43,287,47,33,59,304,47,,,,,,,,*66
###2023-11-09 13:08:59.147654$GNVTG,82.28,T,,M,5.46,N,10.12,K,A*26
###2023-11-09 13:08:59.229508$GNGGA,130859.40,3611.0230366,N,07544.9807975,W,1,24,0.6,0.673,M,-39.962,M,0.0,*6C
###2023-11-09 13:08:59.232116$GPGSV,2,1,07,05,20,090,41,10,19,293,43,13,24,045,40,15,61,037,45*77
###2023-11-09 13:08:59.234392$GPGSV,2,2,07,18,78,277,47,23,50,316,45,24,50,135,46,,,,*4E
###2023-11-09 13:08:59.236998$GLGSV,2,1,05,70,50,017,35,71,48,290,48,80,18,090,43,85,57,203,48*61
###2023-11-09 13:08:59.238613$GLGSV,2,2,05,86,53,308,47,,,,,,,,,,,,*50
###2023-11-09 13:08:59.241186$GAGSV,1,1,04,07,72,258,45,08,48,043,45,13,64,160,45,26,57,310,45*61
###2023-11-09 13:08:59.243781$GBGSV,2,1,06,11,23,180,42,14,65,008,44,24,20,132,42,26,23,081,42*66
###2023-11-09 13:08:59.245719$GBGSV,2,2,06,28,43,287,47,33,59,304,47,,,,,,,,*66
###2023-11-09 13:08:59.247196$GNVTG,81.39,T,,M,5.50,N,10.19,K,A*29
###2023-11-09 13:08:59.330501$GNGGA,130859.50,3611.0230633,N,07544.9806102,W,1,24,0.6,0.657,M,-39.962,M,0.0,*67
###2023-11-09 13:08:59.333418$GPGSV,2,1,07,05,20,090,41,10,19,293,43,13,24,045,40,15,61,037,45*77
###2023-11-09 13:08:59.335691$GPGSV,2,2,07,18,78,277,47,23,50,316,45,24,50,135,46,,,,*4E
###2023-11-09 13:08:59.338302$GLGSV,2,1,05,70,50,017,35,71,48,290,47,80,18,090,43,85,57,203,49*6F
###2023-11-09 13:08:59.339919$GLGSV,2,2,05,86,53,308,47,,,,,,,,,,,,*50
###2023-11-09 13:08:59.342500$GAGSV,1,1,04,07,72,258,45,08,48,043,44,13,64,160,45,26,57,310,45*60
###2023-11-09 13:08:59.345080$GBGSV,2,1,06,11,23,180,43,14,65,008,44,24,20,132,44,26,23,081,42*61
###2023-11-09 13:08:59.347042$GBGSV,2,2,06,28,43,287,47,33,59,304,47,,,,,,,,*66
###2023-11-09 13:08:59.348515$GNVTG,79.04,T,,M,5.56,N,10.30,K,A*2D
###2023-11-09 13:08:59.429503$GNGGA,130859.60,3611.0230941,N,07544.9804235,W,1,24,0.6,0.642,M,-39.962,M,0.0,*6F
