###2023-11-09 13:06:49.135769$GPGSV,2,1,07,05,21,090,41,10,18,292,43,13,24,045,42,15,62,037,46*74
###2023-11-09 13:06:49.138079$GPGSV,2,2,07,18,77,281,47,23,50,315,45,24,49,136,45,,,,*43
###2023-11-09 13:06:49.140664$GLGSV,2,1,05,70,50,016,35,71,48,288,47,80,17,091,43,85,58,203,48*67
###2023-11-09 13:06:49.142278$GLGSV,2,2,05,86,52,309,47,,,,,,,,,,,,*50
###2023-11-09 13:06:49.144855$GAGSV,1,1,04,07,72,255,45,08,49,042,44,13,64,160,44,26,56,311,45*6C
###2023-11-09 13:06:49.147451$GBGSV,2,1,06,11,24,180,42,14,65,006,45,24,19,133,44,26,23,082,43*61
###2023-11-09 13:06:49.149397$GBGSV,2,2,06,28,43,289,47,33,58,302,47,,,,,,,,*6F
###2023-11-09 13:06:49.150831$GNVTG,23.06,T,,M,1.24,N,2.30,K,A*12
###2023-11-09 13:06:49.230849$GNGGA,130649.40,3611.0460854,N,07544.9783003,W,1,24,0.6,0.886,M,-39.961,M,0.0,*66
###2023-11-09 13:06:49.233427$GPGSV,2,1,07,05,21,090,41,10,18,292,43,13,24,045,42,15,62,037,46*74
###2023-11-09 13:06:49.235671$GPGSV,2,2,07,18,77,281,47,23,50,315,45,24,49,136,45,,,,*43
###2023-11-09 13:06:49.238256$GLGSV,2,1,05,70,50,016,35,71,48,288,47,80,17,091,43,85,58,203,48*67
###2023-11-09 13:06:49.239861$GLGSV,2,2,05,86,52,309,48,,,,,,,,,,,,*5F
###2023-11-09 13:06:49.242413$GAGSV,1,1,04,07,72,255,45,08,49,042,44,13,64,160,44,26,56,311,45*6C
###2023-11-09 13:06:49.244987$GBGSV,2,1,06,11,24,180,42,14,65,006,45,24,19,133,44,26,23,082,43*61
###2023-11-09 13:06:49.246925$GBGSV,2,2,06,28,43,289,47,33,58,302,47,,,,,,,,*6F
###2023-11-09 13:06:49.248351$GNVTG,27.91,T,,M,1.01,N,1.87,K,A*10
###2023-11-09 13:06:49.331017$GNGGA,130649.50,3611.0461075,N,07544.9782829,W,1,24,0.6,0.887,M,-39.961,M,0.0,*6D
###2023-11-09 13:06:49.333621$GPGSV,2,1,07,05,21,090,41,10,18,292,44,13,24,045,42,15,62,037,46*73
###2023-11-09 13:06:49.335886$GPGSV,2,2,07,18,77,281,47,23,50,315,45,24,49,136,45,,,,*43
###2023-11-09 13:06:49.338493$GLGSV,2,1,05,70,50,016,35,71,48,288,47,80,17,091,43,85,58,203,48*67
###2023-11-09 13:06:49.340117$GLGSV,2,2,05,86,52,309,48,,,,,,,,,,,,*5F
###2023-11-09 13:06:49.342710$GAGSV,1,1,04,07,72,255,45,08,49,042,45,13,64,160,44,26,56,311,45*6D
###2023-11-09 13:06:49.345294$GBGSV,2,1,06,11,24,180,42,14,65,006,45,24,19,133,43,26,23,082,43*66
###2023-11-09 13:06:49.347244$GBGSV,2,2,06,28,43,289,47,33,58,302,47,,,,,,,,*6F
###2023-11-09 13:06:49.348679$GNVTG,27.91,T,,M,0.89,N,1.66,K,A*1E
###2023-11-09 13:06:49.431871$GNGGA,130649.60,3611.0461289,N,07544.9782632,W,1,24,0.6,0.890,M,-39.961,M,0.0,*6D
###2023-11-09 13:06:49.434474$GPGSV,2,1,07,05,21,090,41,10,18,292,44,13,24,045,42,15,62,037,46*73
###2023-11-09 13:06:49.436739$GPGSV,2,2,07,18,77,281,47,23,50,315,45,24,49,136,45,,,,*43
###2023-11-09 13:06:49.439372$GLGSV,2,1,05,70,50,016,35,71,48,288,47,80,17,091,43,85,58,203,48*67
###2023-11-09 13:06:49.440983$GLGSV,2,2,05,86,52,309,48,,,,,,,,,,,,*5F
###2023-11-09 13:06:49.443559$GAGSV,1,1,04,07,72,255,45,08,49,042,45,13,64,160,44,26,56,311,45*6D
###2023-11-09 13:06:49.446131$GBGSV,2,1,06,11,24,180,42,14,65,006,45,24,19,133,43,26,23,082,43*66
###2023-11-09 13:06:49.448086$GBGSV,2,2,06,28,43,289,47,33,58,302,47,,,,,,,,*6F
###2023-11-09 13:06:49.449523$GNVTG,35.45,T,,M,1.03,N,1.91,K,A*1F
###2023-11-09 13:06:49.531352$GNGGA,130649.70,3611.0461564,N,07544.9782418,W,1,24,0.6,0.892,M,-39.961,M,0.0,*60
###2023-11-09 13:06:49.533924$GPGSV,2,1,07,05,21,090,41,10,18,292,44,13,24,045,42,15,62,037,46*73
###2023-11-09 13:06:49.536169$GPGSV,2,2,07,18,77,281,47,23,50,315,45,24,49,136,45,,,,*43
###2023-11-09 13:06:49.538748$GLGSV,2,1,05,70,50,016,35,71,48,288,47,80,17,091,43,85,58,203,48*67
###2023-11-09 13:06:49.540347$GLGSV,2,2,05,86,52,309,48,,,,,,,,,,,,*5F
###2023-11-09 13:06:49.542906$GAGSV,1,1,04,07,72,255,45,08,49,042,44,13,64,160,44,26,56,311,45*6C
###2023-11-09 13:06:49.545478$GBGSV,2,1,06,11,24,180,42,14,65,006,45,24,19,133,43,26,23,082,43*66
###2023-11-09 13:06:49.547414$GBGSV,2,2,06,28,43,289,47,33,58,302,47,,,,,,,,*6F
###2023-11-09 13:06:49.548839$GNVTG,28.09,T,,M,1.30,N,2.41,K,A*15
###2023-11-09 13:06:49.629876$GNGGA,130649.80,3611.0461902,N,07544.9782187,W,1,24,0.6,0.891,M,-39.961,M,0.0,*63
###2023-11-09 13:06:49.632475$GPGSV,2,1,07,05,21,090,41,10,18,292,44,13,24,045,41,15,62,037,46*70
###2023-11-09 13:06:49.634735$GPGSV,2,2,07,18,77,281,47,23,50,315,45,24,49,136,46,,,,*40
###2023-11-09 13:06:49.637313$GLGSV,2,1,05,70,50,016,35,71,48,288,47,80,17,091,43,85,58,203,48*67
###2023-11-09 13:06:49.638922$GLGSV,2,2,05,86,52,309,48,,,,,,,,,,,,*5F
###2023-11-09 13:06:49.641494$GAGSV,1,1,04,07,72,255,45,08,49,042,44,13,64,160,44,26,56,311,45*6C
###2023-11-09 13:06:49.644062$GBGSV,2,1,06,11,24,180,42,14,65,006,45,24,19,133,43,26,23,082,43*66
###2023-11-09 13:06:49.645997$GBGSV,2,2,06,28,43,289,47,33,58,302,47,,,,,,,,*6F
###2023-11-09 13:06:49.647434$GNVTG,27.97,T,,M,1.48,N,2.74,K,A*14
###2023-11-09 13:06:49.730864$GNGGA,130649.90,3611.0462271,N,07544.9781944,W,1,24,0.6,0.882,M,-39.961,M,0.0,*68
###2023-11-09 13:06:49.733451$GPGSV,2,1,07,05,21,090,41,10,18,292,44,13,24,045,41,15,62,037,46*70
###2023-11-09 13:06:49.735710$GPGSV,2,2,07,18,77,281,47,23,50,315,45,24,49,136,46,,,,*40
###2023-11-09 13:06:49.738300$GLGSV,2,1,05,70,50,016,35,71,48,288,47,80,17,091,43,85,58,203,48*67
###2023-11-09 13:06:49.739910$GLGSV,2,2,05,86,52,309,48,,,,,,,,,,,,*5F
###2023-11-09 13:06:49.742485$GAGSV,1,1,04,07,72,255,45,08,49,042,44,13,64,160,44,26,56,311,45*6C
###2023-11-09 13:06:49.745065$GBGSV,2,1,06,11,24,180,42,14,65,006,45,24,19,133,43,26,23,082,43*66
###2023-11-09 13:06:49.747019$GBGSV,2,2,06,28,43,289,47,33,58,302,47,,,,,,,,*6F
###2023-11-09 13:06:49.748449$GNVTG,26.65,T,,M,1.54,N,2.84,K,A*1A
###2023-11-09 13:06:49.831719$GNGGA,130650.00,3611.0462630,N,07544.9781696,W,1,24,0.6,0.869,M,-39.961,M,0.0,*6D
###2023-11-09 13:06:49.834293$GPGSV,2,1,07,05,21,090,41,10,18,292,44,13,24,045,41,15,62,037,46*70
###2023-11-09 13:06:49.836531$GPGSV,2,2,07,18,77,281,47,23,50,315,45,24,49,136,46,,,,*40
###2023-11-09 13:06:49.839109$GLGSV,2,1,05,70,50,016,35,71,48,288,47,80,17,091,43,85,58,203,48*67
###2023-11-09 13:06:49.840719$GLGSV,2,2,05,86,52,309,48,,,,,,,,,,,,*5F
###2023-11-09 13:06:49.843298$GAGSV,1,1,04,07,72,255,45,08,49,042,44,13,64,160,44,26,56,311,45*6C
###2023-11-09 13:06:49.845869$GBGSV,2,1,06,11,24,180,41,14,65,006,45,24,19,133,43,26,23,082,43*65
###2023-11-09 13:06:49.847820$GBGSV,2,2,06,28,43,289,47,33,58,302,47,,,,,,,,*6F
###2023-11-09 13:06:49.849247$GNVTG,30.06,T,,M,1.44,N,2.66,K,A*15
###2023-11-09 13:06:49.933634$GNGGA,130650.10,3611.0462930,N,07544.9781434,W,1,24,0.6,0.855,M,-39.961,M,0.0,*66
###2023-11-09 13:06:49.936260$GPGSV,2,1,07,05,21,090,41,10,18,292,44,13,24,045,41,15,62,037,46*70
###2023-11-09 13:06:49.938545$GPGSV,2,2,07,18,77,281,47,23,50,315,45,24,49,136,46,,,,*40
###2023-11-09 13:06:49.941120$GLGSV,2,1,05,70,50,016,35,71,48,288,47,80,17,091,43,85,58,203,48*67
###2023-11-09 13:06:49.942731$GLGSV,2,2,05,86,52,309,47,,,,,,,,,,,,*50
###2023-11-09 13:06:49.945301$GAGSV,1,1,04,07,72,255,45,08,49,042,44,13,64,160,44,26,56,311,45*6C
###2023-11-09 13:06:49.947902$GBGSV,2,1,06,11,24,180,41,14,65,006,45,24,19,133,43,26,23,082,43*65
###2023-11-09 13:06:49.949846$GBGSV,2,2,06,28,43,289,47,33,58,302,47,,,,,,,,*6F
###2023-11-09 13:06:49.951279$GNVTG,39.29,T,,M,1.22,N,2.27,K,A*14
###2023-11-09 13:06:50.033848$GNGGA,130650.20,3611.0463161,N,07544.9781161,W,1,24,0.6,0.847,M,-39.961,M,0.0,*6E
###2023-11-09 13:06:50.036421$GPGSV,2,1,07,05,21,090,41,10,18,292,43,13,24,045,42,15,62,037,46*74
###2023-11-09 13:06:50.038694$GPGSV,2,2,07,18,77,281,47,23,50,315,45,24,49,136,46,,,,*40
###2023-11-09 13:06:50.041265$GLGSV,2,1,05,70,50,016,35,71,48,288,47,80,17,091,43,85,58,203,48*67
###2023-11-09 13:06:50.042872$GLGSV,2,2,05,86,52,309,47,,,,,,,,,,,,*50
###2023-11-09 13:06:50.045442$GAGSV,1,1,04,07,72,255,45,08,49,042,44,13,64,160,44,26,56,311,45*6C
###2023-11-09 13:06:50.048024$GBGSV,2,1,06,11,24,180,41,14,65,006,45,24,19,133,43,26,23,082,43*65
###2023-11-09 13:06:50.049957$GBGSV,2,2,06,28,43,289,47,33,58,302,47,,,,,,,,*6F
###2023-11-09 13:06:50.051376$GNVTG,45.35,T,,M,1.09,N,2.02,K,A*1C
###2023-11-09 13:06:50.135842$GNGGA,130650.30,3611.0463367,N,07544.9780890,W,1,24,0.6,0.840,M,-39.961,M,0.0,*6A
###2023-11-09 13:06:50.138437$GPGSV,2,1,07,05,21,090,41,10,18,292,43,13,24,045,42,15,62,037,46*74
###2023-11-09 13:06:50.140984$GPGSV,2,2,07,18,77,281,47,23,50,315,45,24,49,136,46,,,,*40
###2023-11-09 13:06:50.143552$GLGSV,2,1,05,70,50,016,35,71,48,288,47,80,17,091,43,85,58,203,48*67
###2023-11-09 13:06:50.145154$GLGSV,2,2,05,86,52,309,47,,,,,,,,,,,,*50
###2023-11-09 13:06:50.147736$GAGSV,1,1,04,07,72,255,45,08,49,042,44,13,64,160,44,26,56,311,45*6C
###2023-11-09 13:06:50.150295$GBGSV,2,1,06,11,24,180,42,14,65,006,45,24,19,133,43,26,23,082,43*66
###2023-11-09 13:06:50.152247$GBGSV,2,2,06,28,43,289,47,33,58,302,47,,,,,,,,*6F
###2023-11-09 13:06:50.153693$GNVTG,46.27,T,,M,1.09,N,2.02,K,A*1C
###2023-11-09 13:06:50.231876$GNGGA,130650.40,3611.0463584,N,07544.9780621,W,1,24,0.6,0.837,M,-39.961,M,0.0,*62
###2023-11-09 13:06:50.234475$GPGSV,2,1,07,05,21,090,41,10,18,292,43,13,24,045,42,15,62,037,45*77
