###2023-11-09 13:10:44.243149$GBGSV,2,1,06,11,22,180,39,14,65,009,44,24,21,132,42,26,23,080,45*6D
###2023-11-09 13:10:44.245105$GBGSV,2,2,06,28,43,286,45,33,59,305,47,,,,,,,,*64
###2023-11-09 13:10:44.246579$GNVTG,315.07,T,,M,3.42,N,6.34,K,A*27
###2023-11-09 13:10:44.329633$GNGGA,131044.50,3611.0696286,N,07544.8889095,W,1,24,0.6,0.576,M,-39.960,M,0.0,*6B
###2023-11-09 13:10:44.332234$GPGSV,2,1,07,05,20,091,44,10,19,294,41,13,23,045,43,15,60,038,46*7F
###2023-11-09 13:10:44.334496$GPGSV,2,2,07,18,78,272,46,23,51,317,45,24,51,133,46,,,,*4D
###2023-11-09 13:10:44.337082$GLGSV,2,1,05,70,49,019,36,71,48,291,48,80,19,089,46,85,56,202,48*69
###2023-11-09 13:10:44.338692$GLGSV,2,2,05,86,54,306,48,,,,,,,,,,,,*56
###2023-11-09 13:10:44.341260$GAGSV,1,1,04,07,73,259,44,08,48,043,46,13,63,161,45,26,57,310,44*64
###2023-11-09 13:10:44.343848$GBGSV,2,1,06,11,22,180,39,14,65,009,45,24,21,132,42,26,23,080,45*6C
###2023-11-09 13:10:44.345787$GBGSV,2,2,06,28,43,286,46,33,59,305,47,,,,,,,,*67
###2023-11-09 13:10:44.347271$GNVTG,309.76,T,,M,3.32,N,6.16,K,A*2B
###2023-11-09 13:10:44.428170$GNGGA,131044.60,3611.0696878,N,07544.8889960,W,1,24,0.6,0.558,M,-39.960,M,0.0,*6C
###2023-11-09 13:10:44.430761$GPGSV,2,1,07,05,20,091,44,10,19,294,41,13,23,045,43,15,60,038,46*7F
###2023-11-09 13:10:44.433017$GPGSV,2,2,07,18,78,272,46,23,51,317,44,24,51,133,46,,,,*4C
###2023-11-09 13:10:44.435599$GLGSV,2,1,05,70,49,019,36,71,48,291,48,80,19,089,45,85,56,202,48*6A
###2023-11-09 13:10:44.437224$GLGSV,2,2,05,86,54,306,48,,,,,,,,,,,,*56
###2023-11-09 13:10:44.439783$GAGSV,1,1,04,07,73,259,44,08,48,043,45,13,63,161,45,26,57,310,44*67
###2023-11-09 13:10:44.442357$GBGSV,2,1,06,11,22,180,39,14,65,009,45,24,21,132,42,26,23,080,44*6D
###2023-11-09 13:10:44.444298$GBGSV,2,2,06,28,43,286,46,33,59,305,47,,,,,,,,*67
###2023-11-09 13:10:44.445775$GNVTG,310.21,T,,M,3.29,N,6.08,K,A*24
###2023-11-09 13:10:44.528515$GNGGA,131044.70,3611.0697500,N,07544.8890769,W,1,24,0.6,0.534,M,-39.960,M,0.0,*6B
###2023-11-09 13:10:44.531113$GPGSV,2,1,07,05,20,091,44,10,19,294,43,13,23,045,41,15,60,038,46*7F
###2023-11-09 13:10:44.533366$GPGSV,2,2,07,18,78,272,46,23,51,317,44,24,51,133,46,,,,*4C
###2023-11-09 13:10:44.535934$GLGSV,2,1,05,70,49,019,35,71,48,291,49,80,19,089,45,85,56,202,48*68
###2023-11-09 13:10:44.537673$GLGSV,2,2,05,86,54,306,48,,,,,,,,,,,,*56
###2023-11-09 13:10:44.540248$GAGSV,1,1,04,07,73,259,44,08,48,043,45,13,63,161,45,26,57,310,44*67
###2023-11-09 13:10:44.542841$GBGSV,2,1,06,11,22,180,40,14,65,009,44,24,21,132,42,26,23,080,44*62
###2023-11-09 13:10:44.544774$GBGSV,2,2,06,28,43,286,46,33,59,305,47,,,,,,,,*67
###2023-11-09 13:10:44.546246$GNVTG,316.50,T,,M,3.23,N,5.98,K,A*24
###2023-11-09 13:10:44.629741$GNGGA,131044.80,3611.0698202,N,07544.8891474,W,1,24,0.6,0.507,M,-39.960,M,0.0,*60
###2023-11-09 13:10:44.632329$GPGSV,2,1,07,05,20,091,44,10,19,294,43,13,23,045,41,15,60,038,46*7F
###2023-11-09 13:10:44.634584$GPGSV,2,2,07,18,78,272,46,23,51,317,44,24,51,133,46,,,,*4C
###2023-11-09 13:10:44.637168$GLGSV,2,1,05,70,49,019,35,71,48,291,49,80,19,089,45,85,56,202,49*69
###2023-11-09 13:10:44.638777$GLGSV,2,2,05,86,54,306,48,,,,,,,,,,,,*56
###2023-11-09 13:10:44.641341$GAGSV,1,1,04,07,73,259,44,08,48,043,45,13,63,161,45,26,57,310,45*66
###2023-11-09 13:10:44.643914$GBGSV,2,1,06,11,22,180,41,14,65,009,44,24,21,132,43,26,23,080,44*62
###2023-11-09 13:10:44.645846$GBGSV,2,2,06,28,43,286,47,33,59,305,47,,,,,,,,*66
###2023-11-09 13:10:44.647333$GNVTG,324.85,T,,M,3.29,N,6.08,K,A*2D
###2023-11-09 13:10:44.728491$GNGGA,131044.90,3611.0698985,N,07544.8892056,W,1,24,0.6,0.487,M,-39.960,M,0.0,*6B
###2023-11-09 13:10:44.731058$GPGSV,2,1,07,05,20,091,44,10,19,294,43,13,23,045,41,15,60,038,46*7F
###2023-11-09 13:10:44.733300$GPGSV,2,2,07,18,78,272,46,23,51,317,44,24,51,133,46,,,,*4C
###2023-11-09 13:10:44.735859$GLGSV,2,1,05,70,49,019,35,71,48,291,49,80,19,089,45,85,56,202,49*69
###2023-11-09 13:10:44.737466$GLGSV,2,2,05,86,54,306,48,,,,,,,,,,,,*56
###2023-11-09 13:10:44.740033$GAGSV,1,1,04,07,73,259,44,08,48,043,44,13,63,161,45,26,57,310,45*67
###2023-11-09 13:10:44.742592$GBGSV,2,1,06,11,22,180,41,14,65,009,45,24,21,132,44,26,23,080,44*64
###2023-11-09 13:10:44.744509$GBGSV,2,2,06,28,43,286,47,33,59,305,47,,,,,,,,*66
###2023-11-09 13:10:44.745959$GNVTG,332.72,T,,M,3.29,N,6.08,K,A*22
###2023-11-09 13:10:44.832610$GNGGA,131045.00,3611.0699779,N,07544.8892568,W,1,24,0.6,0.470,M,-39.960,M,0.0,*6F
###2023-11-09 13:10:44.835202$GPGSV,2,1,07,05,20,091,45,10,19,294,42,13,23,045,42,15,60,038,46*7C
###2023-11-09 13:10:44.837469$GPGSV,2,2,07,18,78,272,46,23,51,317,44,24,51,133,46,,,,*4C
###2023-11-09 13:10:44.840041$GLGSV,2,1,05,70,49,019,35,71,48,291,48,80,19,089,46,85,56,202,49*6B
###2023-11-09 13:10:44.841648$GLGSV,2,2,05,86,54,306,48,,,,,,,,,,,,*56
###2023-11-09 13:10:44.844216$GAGSV,1,1,04,07,73,259,44,08,48,043,45,13,63,161,45,26,57,310,45*66
###2023-11-09 13:10:44.846792$GBGSV,2,1,06,11,22,180,41,14,65,009,45,24,21,132,44,26,23,080,45*65
###2023-11-09 13:10:44.848734$GBGSV,2,2,06,28,43,286,47,33,59,305,47,,,,,,,,*66
###2023-11-09 13:10:44.850202$GNVTG,332.03,T,,M,3.13,N,5.80,K,A*2E
###2023-11-09 13:10:44.929879$GNGGA,131045.10,3611.0700513,N,07544.8893130,W,1,24,0.6,0.455,M,-39.960,M,0.0,*6E
###2023-11-09 13:10:44.932464$GPGSV,2,1,07,05,20,091,45,10,19,294,41,13,23,045,43,15,60,038,46*7E
###2023-11-09 13:10:44.934711$GPGSV,2,2,07,18,78,272,46,23,51,317,45,24,51,133,46,,,,*4D
###2023-11-09 13:10:44.937288$GLGSV,2,1,05,70,49,019,35,71,48,291,48,80,19,089,47,85,56,202,48*6B
###2023-11-09 13:10:44.938900$GLGSV,2,2,05,86,54,306,48,,,,,,,,,,,,*56
###2023-11-09 13:10:44.941485$GAGSV,1,1,04,07,73,259,44,08,48,043,45,13,63,161,45,26,57,310,45*66
###2023-11-09 13:10:44.944067$GBGSV,2,1,06,11,22,180,41,14,65,009,44,24,21,132,44,26,23,080,45*64
###2023-11-09 13:10:44.946007$GBGSV,2,2,06,28,43,286,46,33,59,305,47,,,,,,,,*67
###2023-11-09 13:10:44.947522$GNVTG,324.43,T,,M,3.07,N,5.69,K,A*2F
###2023-11-09 13:10:45.031456$GNGGA,131045.20,3611.0701152,N,07544.8893794,W,1,24,0.6,0.451,M,-39.960,M,0.0,*61
###2023-11-09 13:10:45.034029$GPGSV,2,1,07,05,20,091,45,10,19,294,41,13,23,045,43,15,60,038,46*7E
###2023-11-09 13:10:45.036260$GPGSV,2,2,07,18,78,272,46,23,51,317,45,24,51,133,47,,,,*4C
###2023-11-09 13:10:45.038831$GLGSV,2,1,05,70,49,019,35,71,48,291,48,80,19,089,47,85,56,202,48*6B
###2023-11-09 13:10:45.040434$GLGSV,2,2,05,86,54,306,48,,,,,,,,,,,,*56
###2023-11-09 13:10:45.042992$GAGSV,1,1,04,07,73,259,44,08,48,043,45,13,63,161,45,26,57,310,45*66
###2023-11-09 13:10:45.045560$GBGSV,2,1,06,11,22,180,41,14,65,009,44,24,21,132,44,26,23,080,45*64
###2023-11-09 13:10:45.047497$GBGSV,2,2,06,28,43,286,47,33,59,305,47,,,,,,,,*66
###2023-11-09 13:10:45.048962$GNVTG,314.88,T,,M,2.97,N,5.51,K,A*28
###2023-11-09 13:10:45.128500$GNGGA,131045.30,3611.0701737,N,07544.8894516,W,1,24,0.6,0.451,M,-39.960,M,0.0,*6A
###2023-11-09 13:10:45.131099$GPGSV,2,1,07,05,20,091,44,10,19,294,42,13,23,045,43,15,60,038,46*7C
###2023-11-09 13:10:45.133345$GPGSV,2,2,07,18,78,272,46,23,51,317,45,24,51,133,47,,,,*4C
###2023-11-09 13:10:45.135909$GLGSV,2,1,05,70,49,019,35,71,48,291,48,80,19,089,47,85,56,202,48*6B
###2023-11-09 13:10:45.137535$GLGSV,2,2,05,86,54,306,48,,,,,,,,,,,,*56
###2023-11-09 13:10:45.140110$GAGSV,1,1,04,07,73,259,45,08,48,043,45,13,63,161,45,26,57,310,45*67
###2023-11-09 13:10:45.142686$GBGSV,2,1,06,11,22,180,41,14,65,009,44,24,21,132,45,26,23,080,45*65
###2023-11-09 13:10:45.144630$GBGSV,2,2,06,28,43,286,47,33,59,305,47,,,,,,,,*66
###2023-11-09 13:10:45.146097$GNVTG,314.97,T,,M,2.99,N,5.54,K,A*2D
###2023-11-09 13:10:45.229623$GNGGA,131045.40,3611.0702363,N,07544.8895199,W,1,24,0.6,0.452,M,-39.960,M,0.0,*6A
###2023-11-09 13:10:45.232207$GPGSV,2,1,07,05,20,091,44,10,19,294,42,13,23,045,42,15,60,038,46*7D
###2023-11-09 13:10:45.234457$GPGSV,2,2,07,18,78,272,46,23,51,317,45,24,51,133,46,,,,*4D
###2023-11-09 13:10:45.237036$GLGSV,2,1,05,70,49,019,35,71,48,291,49,80,19,089,46,85,56,202,48*6B
###2023-11-09 13:10:45.238635$GLGSV,2,2,05,86,54,306,48,,,,,,,,,,,,*56
###2023-11-09 13:10:45.241199$GAGSV,1,1,04,07,73,259,45,08,48,043,45,13,63,161,45,26,57,310,45*67
###2023-11-09 13:10:45.244061$GBGSV,2,1,06,11,22,180,42,14,65,009,44,24,21,132,44,26,23,080,44*66
###2023-11-09 13:10:45.246001$GBGSV,2,2,06,28,43,286,47,33,59,305,47,,,,,,,,*66
###2023-11-09 13:10:45.247492$GNVTG,322.00,T,,M,3.03,N,5.62,K,A*21
###2023-11-09 13:10:45.328473$GNGGA,131045.50,3611.0703077,N,07544.8895799,W,1,24,0.6,0.458,M,-39.960,M,0.0,*60
###2023-11-09 13:10:45.331047$GPGSV,2,1,07,05,20,091,44,10,19,294,43,13,23,045,42,15,60,038,46*7C
###2023-11-09 13:10:45.333279$GPGSV,2,2,07,18,78,272,46,23,51,317,45,24,51,133,46,,,,*4D
###2023-11-09 13:10:45.335834$GLGSV,2,1,05,70,49,019,35,71,48,291,49,80,19,089,45,85,56,202,48*68
###2023-11-09 13:10:45.337436$GLGSV,2,2,05,86,54,306,48,,,,,,,,,,,,*56
###2023-11-09 13:10:45.339997$GAGSV,1,1,04,07,73,259,45,08,48,043,45,13,63,161,45,26,57,310,45*67
###2023-11-09 13:10:45.342569$GBGSV,2,1,06,11,22,180,42,14,65,009,44,24,21,132,44,26,23,080,44*66
