###2023-11-09 13:05:59.647029$GBGSV,2,2,06,28,43,289,47,33,58,302,47,,,,,,,,*6F
###2023-11-09 13:05:59.648490$GNVTG,74.40,T,,M,1.11,N,2.05,K,A*12
###2023-11-09 13:05:59.731083$GNGGA,130559.90,3611.0381996,N,07544.9845028,W,1,23,0.6,0.717,M,-39.962,M,0.0,*61
###2023-11-09 13:05:59.733683$GPGSV,2,1,07,05,21,089,42,10,17,292,44,13,25,045,42,15,62,036,46*77
###2023-11-09 13:05:59.735943$GPGSV,2,2,07,18,77,285,47,23,49,314,45,24,49,137,45,,,,*4F
###2023-11-09 13:05:59.738534$GLGSV,1,1,04,71,48,288,49,80,17,092,45,85,59,204,48,86,52,311,47*62
###2023-11-09 13:05:59.741101$GAGSV,1,1,04,07,72,255,45,08,49,042,45,13,64,160,45,26,56,311,45*6C
###2023-11-09 13:05:59.743666$GBGSV,2,1,06,11,24,180,39,14,65,006,45,24,19,133,43,26,23,082,43*6A
###2023-11-09 13:05:59.745606$GBGSV,2,2,06,28,43,289,47,33,58,302,47,,,,,,,,*6F
###2023-11-09 13:05:59.747054$GNVTG,78.11,T,,M,1.07,N,1.98,K,A*1A
###2023-11-09 13:05:59.837137$GNGGA,130600.00,3611.0382073,N,07544.9844657,W,1,23,0.6,0.736,M,-39.962,M,0.0,*6A
###2023-11-09 13:05:59.839749$GPGSV,2,1,07,05,21,089,41,10,17,292,44,13,25,045,41,15,62,036,46*77
###2023-11-09 13:05:59.842011$GPGSV,2,2,07,18,77,285,47,23,49,314,45,24,49,137,44,,,,*4E
###2023-11-09 13:05:59.844589$GLGSV,1,1,04,71,48,288,49,80,17,092,44,85,59,204,48,86,52,311,47*63
###2023-11-09 13:05:59.847189$GAGSV,1,1,04,07,72,255,45,08,49,042,44,13,64,160,45,26,56,311,45*6D
###2023-11-09 13:05:59.849767$GBGSV,2,1,06,11,24,180,40,14,65,006,45,24,19,133,42,26,23,082,43*65
###2023-11-09 13:05:59.851705$GBGSV,2,2,06,28,43,289,48,33,58,302,47,,,,,,,,*60
###2023-11-09 13:05:59.853143$GNVTG,69.71,T,,M,1.17,N,2.16,K,A*18
###2023-11-09 13:05:59.939987$GNGGA,130600.10,3611.0382202,N,07544.9844253,W,1,23,0.6,0.755,M,-39.962,M,0.0,*6A
###2023-11-09 13:05:59.942562$GPGSV,2,1,07,05,21,089,41,10,17,292,44,13,25,045,41,15,62,036,46*77
###2023-11-09 13:05:59.944814$GPGSV,2,2,07,18,77,285,47,23,49,314,45,24,49,137,44,,,,*4E
###2023-11-09 13:05:59.947412$GLGSV,1,1,04,71,48,288,49,80,17,092,43,85,59,204,48,86,52,311,48*6B
###2023-11-09 13:05:59.949988$GAGSV,1,1,04,07,72,255,45,08,49,042,44,13,64,160,45,26,56,311,45*6D
###2023-11-09 13:05:59.952557$GBGSV,2,1,06,11,24,180,40,14,65,006,45,24,19,133,42,26,23,082,43*65
###2023-11-09 13:05:59.954488$GBGSV,2,2,06,28,43,289,48,33,58,302,47,,,,,,,,*60
###2023-11-09 13:05:59.955913$GNVTG,64.49,T,,M,1.38,N,2.56,K,A*17
###2023-11-09 13:06:00.032708$GNGGA,130600.20,3611.0382368,N,07544.9843822,W,1,23,0.6,0.783,M,-39.962,M,0.0,*64
###2023-11-09 13:06:00.035273$GPGSV,2,1,07,05,21,089,41,10,17,292,44,13,25,045,41,15,62,036,45*74
###2023-11-09 13:06:00.037526$GPGSV,2,2,07,18,77,285,47,23,49,314,45,24,49,137,44,,,,*4E
###2023-11-09 13:06:00.040089$GLGSV,1,1,04,71,48,288,49,80,17,092,43,85,59,204,48,86,52,311,48*6B
###2023-11-09 13:06:00.042631$GAGSV,1,1,04,07,72,255,45,08,49,042,44,13,64,160,45,26,56,311,45*6D
###2023-11-09 13:06:00.045183$GBGSV,2,1,06,11,24,180,40,14,65,006,45,24,19,133,42,26,23,082,43*65
###2023-11-09 13:06:00.047120$GBGSV,2,2,06,28,43,289,48,33,58,302,47,,,,,,,,*60
###2023-11-09 13:06:00.048555$GNVTG,61.33,T,,M,1.42,N,2.63,K,A*14
###2023-11-09 13:06:00.130735$GNGGA,130600.30,3611.0382557,N,07544.9843380,W,1,23,0.6,0.814,M,-39.962,M,0.0,*6D
###2023-11-09 13:06:00.133337$GPGSV,2,1,07,05,21,089,41,10,17,292,44,13,25,045,41,15,62,036,45*74
###2023-11-09 13:06:00.135595$GPGSV,2,2,07,18,77,285,47,23,49,314,45,24,49,137,45,,,,*4F
###2023-11-09 13:06:00.138189$GLGSV,1,1,04,71,48,288,49,80,17,092,43,85,59,204,48,86,52,311,48*6B
###2023-11-09 13:06:00.140780$GAGSV,1,1,04,07,72,255,45,08,49,042,44,13,64,160,45,26,56,311,45*6D
###2023-11-09 13:06:00.143369$GBGSV,2,1,06,11,24,180,40,14,65,006,45,24,19,133,42,26,23,082,43*65
###2023-11-09 13:06:00.145312$GBGSV,2,2,06,28,43,289,47,33,58,302,48,,,,,,,,*60
###2023-11-09 13:06:00.146736$GNVTG,60.29,T,,M,1.50,N,2.77,K,A*18
###2023-11-09 13:06:00.232266$GNGGA,130600.40,3611.0382746,N,07544.9842943,W,1,23,0.6,0.833,M,-39.962,M,0.0,*69
###2023-11-09 13:06:00.234878$GPGSV,2,1,07,05,21,089,42,10,17,292,44,13,25,045,41,15,62,036,45*77
###2023-11-09 13:06:00.237172$GPGSV,2,2,07,18,77,285,47,23,49,314,45,24,49,137,45,,,,*4F
###2023-11-09 13:06:00.239761$GLGSV,1,1,04,71,48,288,49,80,17,092,44,85,59,204,49,86,52,311,48*6D
###2023-11-09 13:06:00.242351$GAGSV,1,1,04,07,72,255,45,08,49,042,44,13,64,160,45,26,56,311,45*6D
###2023-11-09 13:06:00.244943$GBGSV,2,1,06,11,24,180,40,14,65,006,45,24,19,133,42,26,23,082,43*65
###2023-11-09 13:06:00.246885$GBGSV,2,2,06,28,43,289,47,33,58,302,48,,,,,,,,*60
###2023-11-09 13:06:00.248325$GNVTG,61.22,T,,M,1.40,N,2.59,K,A*1F
###2023-11-09 13:06:00.332210$GNGGA,130600.50,3611.0382910,N,07544.9842535,W,1,23,0.6,0.856,M,-39.962,M,0.0,*6B
###2023-11-09 13:06:00.334784$GPGSV,2,1,07,05,21,089,42,10,17,292,42,13,25,045,41,15,62,036,46*72
###2023-11-09 13:06:00.337036$GPGSV,2,2,07,18,77,285,47,23,49,314,45,24,49,137,45,,,,*4F
###2023-11-09 13:06:00.339589$GLGSV,1,1,04,71,48,288,49,80,17,092,45,85,59,204,48,86,52,311,48*6D
###2023-11-09 13:06:00.342148$GAGSV,1,1,04,07,72,255,45,08,49,042,44,13,64,160,45,26,56,311,45*6D
###2023-11-09 13:06:00.344705$GBGSV,2,1,06,11,24,180,40,14,65,006,45,24,19,133,42,26,23,082,44*62
###2023-11-09 13:06:00.346628$GBGSV,2,2,06,28,43,289,47,33,58,302,48,,,,,,,,*60
###2023-11-09 13:06:00.348058$GNVTG,62.95,T,,M,1.28,N,2.38,K,A*19
###2023-11-09 13:06:00.431251$GNGGA,130600.60,3611.0383057,N,07544.9842170,W,1,23,0.6,0.870,M,-39.962,M,0.0,*62
###2023-11-09 13:06:00.433861$GPGSV,2,1,07,05,21,089,42,10,17,292,42,13,25,045,41,15,62,036,46*72
###2023-11-09 13:06:00.436120$GPGSV,2,2,07,18,77,285,47,23,49,314,45,24,49,137,45,,,,*4F
###2023-11-09 13:06:00.438714$GLGSV,1,1,04,71,48,288,49,80,17,092,45,85,59,204,48,86,52,311,48*6D
###2023-11-09 13:06:00.441271$GAGSV,1,1,04,07,72,255,45,08,49,042,45,13,64,160,45,26,56,311,45*6C
###2023-11-09 13:06:00.443853$GBGSV,2,1,06,11,24,180,40,14,65,006,45,24,19,133,42,26,23,082,44*62
###2023-11-09 13:06:00.445789$GBGSV,2,2,06,28,43,289,46,33,58,302,48,,,,,,,,*61
###2023-11-09 13:06:00.447232$GNVTG,60.78,T,,M,1.11,N,2.05,K,A*1C
###2023-11-09 13:06:00.532112$GNGGA,130600.70,3611.0383183,N,07544.9841842,W,1,24,0.6,0.874,M,-39.962,M,0.0,*63
###2023-11-09 13:06:00.534693$GPGSV,2,1,07,05,21,089,42,10,17,292,43,13,25,045,42,15,62,036,46*70
###2023-11-09 13:06:00.536960$GPGSV,2,2,07,18,77,285,47,23,49,314,45,24,49,137,45,,,,*4F
###2023-11-09 13:06:00.539540$GLGSV,2,1,05,70,50,016,35,71,48,288,49,80,17,092,45,85,59,204,48*6A
###2023-11-09 13:06:00.541153$GLGSV,2,2,05,86,52,311,48,,,,,,,,,,,,*56
###2023-11-09 13:06:00.543727$GAGSV,1,1,04,07,72,255,45,08,49,042,45,13,64,160,45,26,56,311,45*6C
###2023-11-09 13:06:00.546311$GBGSV,2,1,06,11,24,180,40,14,65,006,45,24,19,133,41,26,23,082,44*61
###2023-11-09 13:06:00.548272$GBGSV,2,2,06,28,43,289,46,33,58,302,47,,,,,,,,*6E
###2023-11-09 13:06:00.549720$GNVTG,65.14,T,,M,1.01,N,1.87,K,A*1B
###2023-11-09 13:06:00.631100$GNGGA,130600.80,3611.0383275,N,07544.9841513,W,1,23,0.6,0.875,M,-39.962,M,0.0,*69
###2023-11-09 13:06:00.633684$GPGSV,2,1,07,05,21,089,42,10,17,292,43,13,25,045,42,15,62,036,46*70
###2023-11-09 13:06:00.635938$GPGSV,2,2,07,18,77,285,47,23,49,314,45,24,49,137,45,,,,*4F
###2023-11-09 13:06:00.638517$GLGSV,1,1,04,71,48,288,49,80,17,092,44,85,59,204,48,86,52,311,47*63
###2023-11-09 13:06:00.641074$GAGSV,1,1,04,07,72,255,45,08,49,042,45,13,64,160,45,26,56,311,45*6C
###2023-11-09 13:06:00.643629$GBGSV,2,1,06,11,24,180,40,14,65,006,45,24,19,133,41,26,23,082,44*61
###2023-11-09 13:06:00.645557$GBGSV,2,2,06,28,43,289,46,33,58,302,48,,,,,,,,*61
###2023-11-09 13:06:00.646989$GNVTG,72.61,T,,M,1.01,N,1.87,K,A*1F
###2023-11-09 13:06:00.732356$GNGGA,130600.90,3611.0383347,N,07544.9841186,W,1,23,0.6,0.875,M,-39.962,M,0.0,*60
###2023-11-09 13:06:00.734962$GPGSV,2,1,07,05,21,089,42,10,17,292,43,13,25,045,41,15,62,036,46*73
###2023-11-09 13:06:00.737241$GPGSV,2,2,07,18,77,285,47,23,49,314,45,24,49,137,45,,,,*4F
###2023-11-09 13:06:00.739824$GLGSV,1,1,04,71,48,288,49,80,17,092,43,85,59,204,48,86,52,311,48*6B
###2023-11-09 13:06:00.742388$GAGSV,1,1,04,07,72,255,45,08,49,042,45,13,64,160,45,26,56,311,45*6C
###2023-11-09 13:06:00.744962$GBGSV,2,1,06,11,24,180,40,14,65,006,45,24,19,133,41,26,23,082,43*66
###2023-11-09 13:06:00.747215$GBGSV,2,2,06,28,43,289,47,33,58,302,48,,,,,,,,*60
###2023-11-09 13:06:00.748663$GNVTG,72.61,T,,M,0.95,N,1.76,K,A*1D
###2023-11-09 13:06:00.838876$GNGGA,130601.00,3611.0383417,N,07544.9840846,W,1,23,0.6,0.878,M,-39.962,M,0.0,*63
###2023-11-09 13:06:00.841453$GPGSV,2,1,07,05,21,089,42,10,17,292,44,13,25,045,41,15,62,036,46*74
###2023-11-09 13:06:00.843720$GPGSV,2,2,07,18,77,285,47,23,49,314,45,24,49,137,45,,,,*4F
###2023-11-09 13:06:00.846304$GLGSV,1,1,04,71,48,288,49,80,17,092,43,85,59,204,49,86,52,311,48*6A
###2023-11-09 13:06:00.848916$GAGSV,1,1,04,07,72,255,45,08,49,042,44,13,64,160,45,26,56,311,45*6D
###2023-11-09 13:06:00.851527$GBGSV,2,1,06,11,24,180,40,14,65,006,45,24,19,133,41,26,23,082,43*66
###2023-11-09 13:06:00.853481$GBGSV,2,2,06,28,43,289,47,33,58,302,47,,,,,,,,*6F
###2023-11-09 13:06:00.854922$GNVTG,74.52,T,,M,1.09,N,2.02,K,A*1F
###2023-11-09 13:06:00.932605$GNGGA,130601.10,3611.0383505,N,07544.9840474,W,1,23,0.6,0.882,M,-39.962,M,0.0,*68
