###2023-11-09 13:06:30.241232$GPGSV,2,2,07,18,77,282,47,23,49,314,45,24,49,137,45,,,,*48
###2023-11-09 13:06:30.243832$GLGSV,2,1,05,70,50,016,36,71,48,288,48,80,17,091,44,85,58,203,48*6C
###2023-11-09 13:06:30.245450$GLGSV,2,2,05,86,52,309,47,,,,,,,,,,,,*50
###2023-11-09 13:06:30.248041$GAGSV,1,1,04,07,72,255,45,08,49,042,44,13,64,160,44,26,56,311,45*6C
###2023-11-09 13:06:30.250632$GBGSV,2,1,06,11,24,180,41,14,65,006,46,24,19,133,43,26,23,082,42*67
###2023-11-09 13:06:30.252564$GBGSV,2,2,06,28,43,289,47,33,58,302,47,,,,,,,,*6F
###2023-11-09 13:06:30.253996$GNVTG,32.25,T,,M,0.39,N,0.72,K,A*1A
###2023-11-09 13:06:30.331854$GNGGA,130630.50,3611.0421769,N,07544.9801780,W,1,24,0.6,0.899,M,-39.961,M,0.0,*6A
###2023-11-09 13:06:30.334428$GPGSV,2,1,07,05,21,090,42,10,18,292,44,13,24,045,41,15,62,037,46*73
###2023-11-09 13:06:30.336675$GPGSV,2,2,07,18,77,282,47,23,49,314,45,24,49,137,46,,,,*4B
###2023-11-09 13:06:30.339253$GLGSV,2,1,05,70,50,016,36,71,48,288,48,80,17,091,44,85,58,203,48*6C
###2023-11-09 13:06:30.340851$GLGSV,2,2,05,86,52,309,47,,,,,,,,,,,,*50
###2023-11-09 13:06:30.343405$GAGSV,1,1,04,07,72,255,45,08,49,042,44,13,64,160,44,26,56,311,45*6C
###2023-11-09 13:06:30.345964$GBGSV,2,1,06,11,24,180,41,14,65,006,46,24,19,133,43,26,23,082,42*67
###2023-11-09 13:06:30.347892$GBGSV,2,2,06,28,43,289,47,33,58,302,47,,,,,,,,*6F
###2023-11-09 13:06:30.349306$GNVTG,32.25,T,,M,0.37,N,0.68,K,A*1F
###2023-11-09 13:06:30.432237$GNGGA,130630.60,3611.0421861,N,07544.9801692,W,1,24,0.6,0.894,M,-39.961,M,0.0,*61
###2023-11-09 13:06:30.434834$GPGSV,2,1,07,05,21,090,42,10,18,292,44,13,24,045,41,15,62,037,46*73
###2023-11-09 13:06:30.437142$GPGSV,2,2,07,18,77,282,47,23,49,314,45,24,49,137,46,,,,*4B
###2023-11-09 13:06:30.439721$GLGSV,2,1,05,70,50,016,36,71,48,288,48,80,17,091,44,85,58,203,48*6C
###2023-11-09 13:06:30.441334$GLGSV,2,2,05,86,52,309,47,,,,,,,,,,,,*50
###2023-11-09 13:06:30.443895$GAGSV,1,1,04,07,72,255,45,08,49,042,44,13,64,160,44,26,56,311,45*6C
###2023-11-09 13:06:30.446464$GBGSV,2,1,06,11,24,180,41,14,65,006,46,24,19,133,43,26,23,082,42*67
###2023-11-09 13:06:30.448416$GBGSV,2,2,06,28,43,289,47,33,58,302,47,,,,,,,,*6F
###2023-11-09 13:06:30.449845$GNVTG,32.25,T,,M,0.49,N,0.90,K,A*11
###2023-11-09 13:06:30.533360$GNGGA,130630.70,3611.0421992,N,07544.9801576,W,1,24,0.6,0.889,M,-39.961,M,0.0,*68
###2023-11-09 13:06:30.535948$GPGSV,2,1,07,05,21,090,42,10,18,292,44,13,24,045,41,15,62,037,46*73
###2023-11-09 13:06:30.538220$GPGSV,2,2,07,18,77,282,47,23,49,314,45,24,49,137,46,,,,*4B
###2023-11-09 13:06:30.540804$GLGSV,2,1,05,70,50,016,36,71,48,288,48,80,17,091,44,85,58,203,48*6C
###2023-11-09 13:06:30.542420$GLGSV,2,2,05,86,52,309,47,,,,,,,,,,,,*50
###2023-11-09 13:06:30.544993$GAGSV,1,1,04,07,72,255,45,08,49,042,44,13,64,160,44,26,56,311,45*6C
###2023-11-09 13:06:30.547581$GBGSV,2,1,06,11,24,180,42,14,65,006,46,24,19,133,43,26,23,082,42*64
###2023-11-09 13:06:30.549517$GBGSV,2,2,06,28,43,289,47,33,58,302,47,,,,,,,,*6F
###2023-11-09 13:06:30.550948$GNVTG,32.25,T,,M,0.66,N,1.22,K,A*14
###2023-11-09 13:06:30.632350$GNGGA,130630.80,3611.0422153,N,07544.9801432,W,1,24,0.6,0.884,M,-39.961,M,0.0,*6D
###2023-11-09 13:06:30.634927$GPGSV,2,1,07,05,21,090,42,10,18,292,44,13,24,045,41,15,62,037,46*73
###2023-11-09 13:06:30.637187$GPGSV,2,2,07,18,77,282,47,23,49,314,45,24,49,137,46,,,,*4B
###2023-11-09 13:06:30.639754$GLGSV,2,1,05,70,50,016,36,71,48,288,48,80,17,091,44,85,58,203,48*6C
###2023-11-09 13:06:30.641349$GLGSV,2,2,05,86,52,309,47,,,,,,,,,,,,*50
###2023-11-09 13:06:30.643897$GAGSV,1,1,04,07,72,255,45,08,49,042,44,13,64,160,44,26,56,311,45*6C
###2023-11-09 13:06:30.646457$GBGSV,2,1,06,11,24,180,42,14,65,006,46,24,19,133,44,26,23,082,42*63
###2023-11-09 13:06:30.648395$GBGSV,2,2,06,28,43,289,47,33,58,302,47,,,,,,,,*6F
###2023-11-09 13:06:30.649813$GNVTG,32.25,T,,M,0.76,N,1.40,K,A*11
###2023-11-09 13:06:30.731357$GNGGA,130630.90,3611.0422334,N,07544.9801261,W,1,24,0.6,0.884,M,-39.961,M,0.0,*6F
###2023-11-09 13:06:30.733958$GPGSV,2,1,07,05,21,090,42,10,18,292,44,13,24,045,41,15,62,037,46*73
###2023-11-09 13:06:30.736224$GPGSV,2,2,07,18,77,282,47,23,49,314,45,24,49,137,46,,,,*4B
###2023-11-09 13:06:30.738832$GLGSV,2,1,05,70,50,016,36,71,48,288,48,80,17,091,44,85,58,203,48*6C
###2023-11-09 13:06:30.740452$GLGSV,2,2,05,86,52,309,47,,,,,,,,,,,,*50
###2023-11-09 13:06:30.743025$GAGSV,1,1,04,07,72,255,45,08,49,042,44,13,64,160,44,26,56,311,45*6C
###2023-11-09 13:06:30.745615$GBGSV,2,1,06,11,24,180,42,14,65,006,46,24,19,133,44,26,23,082,41*60
###2023-11-09 13:06:30.747569$GBGSV,2,2,06,28,43,289,47,33,58,302,47,,,,,,,,*6F
###2023-11-09 13:06:30.748997$GNVTG,32.25,T,,M,0.87,N,1.62,K,A*1F
###2023-11-09 13:06:30.839507$GNGGA,130631.00,3611.0422558,N,07544.9801075,W,1,24,0.6,0.883,M,-39.961,M,0.0,*6B
###2023-11-09 13:06:30.842095$GPGSV,2,1,07,05,21,090,42,10,18,292,44,13,24,045,41,15,62,037,46*73
###2023-11-09 13:06:30.844339$GPGSV,2,2,07,18,77,282,47,23,49,314,45,24,49,137,46,,,,*4B
###2023-11-09 13:06:30.846921$GLGSV,2,1,05,70,50,016,36,71,48,288,48,80,17,091,44,85,58,203,48*6C
###2023-11-09 13:06:30.848532$GLGSV,2,2,05,86,52,309,47,,,,,,,,,,,,*50
###2023-11-09 13:06:30.851109$GAGSV,1,1,04,07,72,255,45,08,49,042,44,13,64,160,44,26,56,311,45*6C
###2023-11-09 13:06:30.853694$GBGSV,2,1,06,11,24,180,42,14,65,006,46,24,19,133,44,26,23,082,41*60
###2023-11-09 13:06:30.855638$GBGSV,2,2,06,28,43,289,47,33,58,302,47,,,,,,,,*6F
###2023-11-09 13:06:30.857079$GNVTG,32.96,T,,M,1.05,N,1.94,K,A*15
###2023-11-09 13:06:30.935351$GNGGA,130631.10,3611.0422808,N,07544.9800882,W,1,24,0.6,0.883,M,-39.961,M,0.0,*63
###2023-11-09 13:06:30.937949$GPGSV,2,1,07,05,21,090,42,10,18,292,44,13,24,045,41,15,62,037,46*73
###2023-11-09 13:06:30.940189$GPGSV,2,2,07,18,77,282,47,23,49,314,45,24,49,137,46,,,,*4B
###2023-11-09 13:06:30.942749$GLGSV,2,1,05,70,50,016,36,71,48,288,48,80,17,091,44,85,58,203,48*6C
###2023-11-09 13:06:30.944346$GLGSV,2,2,05,86,52,309,47,,,,,,,,,,,,*50
###2023-11-09 13:06:30.946898$GAGSV,1,1,04,07,72,255,45,08,49,042,44,13,64,160,44,26,56,311,45*6C
###2023-11-09 13:06:30.949485$GBGSV,2,1,06,11,24,180,42,14,65,006,46,24,19,133,44,26,23,082,41*60
###2023-11-09 13:06:30.951431$GBGSV,2,2,06,28,43,289,47,33,58,302,47,,,,,,,,*6F
###2023-11-09 13:06:30.952870$GNVTG,34.25,T,,M,1.05,N,1.94,K,A*1B
###2023-11-09 13:06:31.034988$GNGGA,130631.20,3611.0423051,N,07544.9800678,W,1,24,0.6,0.881,M,-39.961,M,0.0,*6C
###2023-11-09 13:06:31.037605$GPGSV,2,1,07,05,21,090,42,10,18,292,44,13,24,045,41,15,62,037,46*73
###2023-11-09 13:06:31.039856$GPGSV,2,2,07,18,77,282,47,23,49,314,45,24,49,137,46,,,,*4B
###2023-11-09 13:06:31.042434$GLGSV,2,1,05,70,50,016,36,71,48,288,48,80,17,091,44,85,58,203,48*6C
###2023-11-09 13:06:31.044055$GLGSV,2,2,05,86,52,309,47,,,,,,,,,,,,*50
###2023-11-09 13:06:31.046614$GAGSV,1,1,04,07,72,255,45,08,49,042,44,13,64,160,44,26,56,311,45*6C
###2023-11-09 13:06:31.049196$GBGSV,2,1,06,11,24,180,41,14,65,006,46,24,19,133,43,26,23,082,41*64
###2023-11-09 13:06:31.051122$GBGSV,2,2,06,28,43,289,47,33,58,302,47,,,,,,,,*6F
###2023-11-09 13:06:31.052551$GNVTG,36.82,T,,M,1.03,N,1.91,K,A*17
###2023-11-09 13:06:31.133347$GNGGA,130631.30,3611.0423272,N,07544.9800475,W,1,24,0.6,0.886,M,-39.961,M,0.0,*66
###2023-11-09 13:06:31.135923$GPGSV,2,1,07,05,21,090,42,10,18,292,44,13,24,045,41,15,62,037,46*73
###2023-11-09 13:06:31.138195$GPGSV,2,2,07,18,77,282,47,23,49,314,45,24,49,137,46,,,,*4B
###2023-11-09 13:06:31.140763$GLGSV,2,1,05,70,50,016,36,71,48,288,48,80,17,091,44,85,58,203,48*6C
###2023-11-09 13:06:31.142375$GLGSV,2,2,05,86,52,309,47,,,,,,,,,,,,*50
###2023-11-09 13:06:31.144924$GAGSV,1,1,04,07,72,255,45,08,49,042,44,13,64,160,44,26,56,311,45*6C
###2023-11-09 13:06:31.147508$GBGSV,2,1,06,11,24,180,41,14,65,006,46,24,19,133,43,26,23,082,42*67
###2023-11-09 13:06:31.149436$GBGSV,2,2,06,28,43,289,47,33,58,302,47,,,,,,,,*6F
###2023-11-09 13:06:31.150858$GNVTG,36.82,T,,M,0.91,N,1.69,K,A*1A
###2023-11-09 13:06:31.233080$GNGGA,130631.40,3611.0423460,N,07544.9800283,W,1,24,0.6,0.887,M,-39.961,M,0.0,*6A
###2023-11-09 13:06:31.235658$GPGSV,2,1,07,05,21,090,42,10,18,292,44,13,24,045,41,15,62,037,46*73
###2023-11-09 13:06:31.237930$GPGSV,2,2,07,18,77,282,47,23,49,314,45,24,49,137,46,,,,*4B
###2023-11-09 13:06:31.240804$GLGSV,2,1,05,70,50,016,36,71,48,288,48,80,17,091,44,85,58,203,48*6C
###2023-11-09 13:06:31.242417$GLGSV,2,2,05,86,52,309,47,,,,,,,,,,,,*50
###2023-11-09 13:06:31.244971$GAGSV,1,1,04,07,72,255,45,08,49,042,44,13,64,160,44,26,56,311,45*6C
###2023-11-09 13:06:31.247556$GBGSV,2,1,06,11,24,180,41,14,65,006,46,24,19,133,43,26,23,082,42*67
###2023-11-09 13:06:31.249482$GBGSV,2,2,06,28,43,289,47,33,58,302,47,,,,,,,,*6F
###2023-11-09 13:06:31.250915$GNVTG,36.82,T,,M,0.82,N,1.51,K,A*13
###2023-11-09 13:06:31.331861$GNGGA,130631.50,3611.0423633,N,07544.9800109,W,1,24,0.6,0.889,M,-39.961,M,0.0,*60
###2023-11-09 13:06:31.334454$GPGSV,2,1,07,05,21,090,42,10,18,292,43,13,24,045,41,15,62,037,46*74
###2023-11-09 13:06:31.336703$GPGSV,2,2,07,18,77,282,47,23,49,314,45,24,49,137,46,,,,*4B
