###2023-11-09 13:07:13.629161$GNGGA,130713.80,3611.0516932,N,07544.9770941,W,1,24,0.6,0.967,M,-39.961,M,0.0,*68
###2023-11-09 13:07:13.631789$GPGSV,2,1,07,05,21,090,41,10,18,292,43,13,24,045,41,15,62,037,45*74
###2023-11-09 13:07:13.634061$GPGSV,2,2,07,18,77,281,47,23,50,315,45,24,49,136,46,,,,*40
###2023-11-09 13:07:13.636632$GLGSV,2,1,05,70,50,016,35,71,48,288,48,80,17,091,43,85,58,203,49*69
###2023-11-09 13:07:13.638256$GLGSV,2,2,05,86,52,309,47,,,,,,,,,,,,*50
###2023-11-09 13:07:13.640839$GAGSV,1,1,04,07,72,257,45,08,49,042,44,13,64,160,44,26,56,311,45*6E
###2023-11-09 13:07:13.643430$GBGSV,2,1,06,11,24,180,42,14,65,006,45,24,19,133,43,26,23,082,43*66
###2023-11-09 13:07:13.645378$GBGSV,2,2,06,28,43,289,47,33,58,302,47,,,,,,,,*6F
###2023-11-09 13:07:13.646811$GNVTG,35.55,T,,M,0.84,N,1.55,K,A*18
###2023-11-09 13:07:13.729137$GNGGA,130713.90,3611.0517118,N,07544.9770745,W,1,24,0.6,0.969,M,-39.961,M,0.0,*6C
###2023-11-09 13:07:13.731739$GPGSV,2,1,07,05,21,090,41,10,18,292,43,13,24,045,41,15,62,037,45*74
###2023-11-09 13:07:13.733983$GPGSV,2,2,07,18,77,281,47,23,50,315,45,24,49,136,46,,,,*40
###2023-11-09 13:07:13.736565$GLGSV,2,1,05,70,50,016,35,71,48,288,48,80,17,091,43,85,58,203,48*68
###2023-11-09 13:07:13.738181$GLGSV,2,2,05,86,52,309,47,,,,,,,,,,,,*50
###2023-11-09 13:07:13.740759$GAGSV,1,1,04,07,72,257,45,08,49,042,44,13,64,160,44,26,56,311,45*6E
###2023-11-09 13:07:13.743325$GBGSV,2,1,06,11,24,180,42,14,65,006,45,24,19,133,43,26,23,082,43*66
###2023-11-09 13:07:13.745253$GBGSV,2,2,06,28,43,289,47,33,58,302,47,,,,,,,,*6F
###2023-11-09 13:07:13.746676$GNVTG,35.55,T,,M,0.93,N,1.73,K,A*1A
###2023-11-09 13:07:13.831220$GNGGA,130714.00,3611.0517304,N,07544.9770549,W,1,24,0.6,0.973,M,-39.961,M,0.0,*68
###2023-11-09 13:07:13.833793$GPGSV,2,1,07,05,21,090,41,10,18,292,43,13,24,045,42,15,62,037,45*77
###2023-11-09 13:07:13.836035$GPGSV,2,2,07,18,77,281,47,23,50,315,45,24,49,136,46,,,,*40
###2023-11-09 13:07:13.838612$GLGSV,2,1,05,70,50,016,35,71,48,288,48,80,17,091,43,85,58,203,48*68
###2023-11-09 13:07:13.840208$GLGSV,2,2,05,86,52,309,47,,,,,,,,,,,,*50
###2023-11-09 13:07:13.842757$GAGSV,1,1,04,07,72,257,45,08,49,042,44,13,64,160,44,26,56,311,45*6E
###2023-11-09 13:07:13.845322$GBGSV,2,1,06,11,24,180,41,14,65,006,45,24,19,133,43,26,23,082,43*65
###2023-11-09 13:07:13.847273$GBGSV,2,2,06,28,43,289,47,33,58,302,47,,,,,,,,*6F
###2023-11-09 13:07:13.848692$GNVTG,35.55,T,,M,0.82,N,1.51,K,A*1A
###2023-11-09 13:07:13.930353$GNGGA,130714.10,3611.0517442,N,07544.9770375,W,1,24,0.6,0.971,M,-39.961,M,0.0,*67
###2023-11-09 13:07:13.932955$GPGSV,2,1,07,05,21,090,41,10,18,292,44,13,24,045,42,15,62,037,45*70
###2023-11-09 13:07:13.935219$GPGSV,2,2,07,18,77,281,47,23,50,315,46,24,49,136,45,,,,*40
###2023-11-09 13:07:13.937804$GLGSV,2,1,05,70,50,016,35,71,48,288,48,80,17,091,43,85,58,203,48*68
###2023-11-09 13:07:13.939413$GLGSV,2,2,05,86,52,309,48,,,,,,,,,,,,*5F
###2023-11-09 13:07:13.941975$GAGSV,1,1,04,07,72,257,45,08,49,042,44,13,64,160,44,26,56,311,45*6E
###2023-11-09 13:07:13.944549$GBGSV,2,1,06,11,24,180,41,14,65,006,45,24,19,133,43,26,23,082,43*65
###2023-11-09 13:07:13.946481$GBGSV,2,2,06,28,43,289,47,33,58,302,47,,,,,,,,*6F
###2023-11-09 13:07:13.947925$GNVTG,35.55,T,,M,0.60,N,1.12,K,A*11
###2023-11-09 13:07:14.033113$GNGGA,130714.20,3611.0517502,N,07544.9770220,W,1,24,0.6,0.966,M,-39.961,M,0.0,*66
###2023-11-09 13:07:14.035724$GPGSV,2,1,07,05,21,090,41,10,18,292,44,13,24,045,42,15,62,037,45*70
###2023-11-09 13:07:14.038000$GPGSV,2,2,07,18,77,281,47,23,50,315,45,24,49,136,45,,,,*43
###2023-11-09 13:07:14.040572$GLGSV,2,1,05,70,50,016,35,71,48,288,48,80,17,091,43,85,58,203,48*68
###2023-11-09 13:07:14.042183$GLGSV,2,2,05,86,52,309,48,,,,,,,,,,,,*5F
###2023-11-09 13:07:14.044755$GAGSV,1,1,04,07,72,257,45,08,49,042,44,13,64,160,44,26,56,311,45*6E
###2023-11-09 13:07:14.047353$GBGSV,2,1,06,11,24,180,41,14,65,006,45,24,19,133,43,26,23,082,43*65
###2023-11-09 13:07:14.049294$GBGSV,2,2,06,28,43,289,47,33,58,302,47,,,,,,,,*6F
###2023-11-09 13:07:14.050719$GNVTG,35.55,T,,M,0.43,N,0.79,K,A*1C
###2023-11-09 13:07:14.131856$GNGGA,130714.30,3611.0517499,N,07544.9770058,W,1,24,0.6,0.955,M,-39.961,M,0.0,*69
###2023-11-09 13:07:14.134438$GPGSV,2,1,07,05,21,090,41,10,18,292,44,13,24,045,41,15,62,037,45*73
###2023-11-09 13:07:14.136685$GPGSV,2,2,07,18,77,281,47,23,50,315,45,24,49,136,45,,,,*43
###2023-11-09 13:07:14.139257$GLGSV,2,1,05,70,50,016,35,71,48,288,48,80,17,091,43,85,58,203,48*68
###2023-11-09 13:07:14.140859$GLGSV,2,2,05,86,52,309,48,,,,,,,,,,,,*5F
###2023-11-09 13:07:14.143419$GAGSV,1,1,04,07,72,257,45,08,49,042,44,13,64,160,44,26,56,311,45*6E
###2023-11-09 13:07:14.145974$GBGSV,2,1,06,11,24,180,41,14,65,006,45,24,19,133,43,26,23,082,43*65
###2023-11-09 13:07:14.147903$GBGSV,2,2,06,28,43,289,47,33,58,302,47,,,,,,,,*6F
###2023-11-09 13:07:14.149330$GNVTG,35.55,T,,M,0.51,N,0.94,K,A*1C
###2023-11-09 13:07:14.229264$GNGGA,130714.40,3611.0517497,N,07544.9769883,W,1,24,0.6,0.947,M,-39.961,M,0.0,*65
###2023-11-09 13:07:14.231864$GPGSV,2,1,07,05,21,090,41,10,18,292,43,13,24,045,41,15,62,037,45*74
###2023-11-09 13:07:14.234125$GPGSV,2,2,07,18,77,281,47,23,50,315,45,24,49,136,46,,,,*40
###2023-11-09 13:07:14.236686$GLGSV,2,1,05,70,50,016,35,71,48,288,48,80,17,091,43,85,58,203,48*68
###2023-11-09 13:07:14.238306$GLGSV,2,2,05,86,52,309,47,,,,,,,,,,,,*50
###2023-11-09 13:07:14.240881$GAGSV,1,1,04,07,72,257,45,08,49,042,44,13,64,160,44,26,56,311,45*6E
###2023-11-09 13:07:14.243468$GBGSV,2,1,06,11,24,180,42,14,65,006,45,24,19,133,43,26,23,082,42*67
###2023-11-09 13:07:14.245407$GBGSV,2,2,06,28,43,289,47,33,58,302,47,,,,,,,,*6F
###2023-11-09 13:07:14.246840$GNVTG,35.55,T,,M,0.51,N,0.94,K,A*1C
###2023-11-09 13:07:14.329384$GNGGA,130714.50,3611.0517585,N,07544.9769709,W,1,24,0.6,0.950,M,-39.961,M,0.0,*6D
###2023-11-09 13:07:14.331976$GPGSV,2,1,07,05,21,090,41,10,18,292,43,13,24,045,40,15,62,037,45*75
###2023-11-09 13:07:14.334226$GPGSV,2,2,07,18,77,281,47,23,50,315,45,24,49,136,46,,,,*40
###2023-11-09 13:07:14.336793$GLGSV,2,1,05,70,50,016,35,71,48,288,48,80,17,091,43,85,58,203,49*69
###2023-11-09 13:07:14.338411$GLGSV,2,2,05,86,52,309,47,,,,,,,,,,,,*50
###2023-11-09 13:07:14.340981$GAGSV,1,1,04,07,72,257,45,08,49,042,44,13,64,160,44,26,56,311,44*6F
###2023-11-09 13:07:14.343557$GBGSV,2,1,06,11,24,180,42,14,65,006,45,24,19,133,43,26,23,082,41*64
###2023-11-09 13:07:14.345495$GBGSV,2,2,06,28,43,289,47,33,58,302,47,,,,,,,,*6F
###2023-11-09 13:07:14.346941$GNVTG,35.55,T,,M,0.74,N,1.37,K,A*13
###2023-11-09 13:07:14.429277$GNGGA,130714.60,3611.0517796,N,07544.9769544,W,1,24,0.6,0.956,M,-39.961,M,0.0,*63
###2023-11-09 13:07:14.431862$GPGSV,2,1,07,05,21,090,41,10,18,292,43,13,24,045,40,15,62,037,45*75
###2023-11-09 13:07:14.434104$GPGSV,2,2,07,18,77,281,47,23,50,315,45,24,49,136,46,,,,*40
###2023-11-09 13:07:14.436662$GLGSV,2,1,05,70,50,016,35,71,48,288,48,80,17,091,43,85,58,203,49*69
###2023-11-09 13:07:14.438285$GLGSV,2,2,05,86,52,309,47,,,,,,,,,,,,*50
###2023-11-09 13:07:14.440849$GAGSV,1,1,04,07,72,257,45,08,49,042,44,13,64,160,44,26,56,311,44*6F
###2023-11-09 13:07:14.443429$GBGSV,2,1,06,11,24,180,42,14,65,006,45,24,19,133,44,26,23,082,41*63
###2023-11-09 13:07:14.445358$GBGSV,2,2,06,28,43,289,47,33,58,302,47,,,,,,,,*6F
###2023-11-09 13:07:14.446777$GNVTG,25.68,T,,M,1.07,N,1.98,K,A*1C
###2023-11-09 13:07:14.528643$GNGGA,130714.70,3611.0518094,N,07544.9769392,W,1,24,0.6,0.970,M,-39.961,M,0.0,*61
###2023-11-09 13:07:14.531248$GPGSV,2,1,07,05,21,090,41,10,18,292,43,13,24,045,40,15,62,037,45*75
###2023-11-09 13:07:14.533522$GPGSV,2,2,07,18,77,281,47,23,50,315,45,24,49,136,46,,,,*40
###2023-11-09 13:07:14.536092$GLGSV,2,1,05,70,50,016,35,71,48,288,48,80,17,091,43,85,58,203,48*68
###2023-11-09 13:07:14.537721$GLGSV,2,2,05,86,52,309,47,,,,,,,,,,,,*50
###2023-11-09 13:07:14.540302$GAGSV,1,1,04,07,72,257,45,08,49,042,44,13,64,160,44,26,56,311,44*6F
###2023-11-09 13:07:14.542877$GBGSV,2,1,06,11,24,180,42,14,65,006,45,24,19,133,44,26,23,082,41*63
###2023-11-09 13:07:14.544809$GBGSV,2,2,06,28,43,289,47,33,58,302,47,,,,,,,,*6F
###2023-11-09 13:07:14.546236$GNVTG,18.77,T,,M,1.26,N,2.34,K,A*1A
###2023-11-09 13:07:14.629536$GNGGA,130714.80,3611.0518421,N,07544.9769265,W,1,24,0.6,0.980,M,-39.961,M,0.0,*62
###2023-11-09 13:07:14.632433$GPGSV,2,1,07,05,21,090,41,10,18,292,43,13,24,045,42,15,62,037,45*77
###2023-11-09 13:07:14.634698$GPGSV,2,2,07,18,77,281,47,23,50,315,45,24,49,136,46,,,,*40
###2023-11-09 13:07:14.637287$GLGSV,2,1,05,70,50,016,35,71,48,288,48,80,17,091,43,85,58,203,48*68
###2023-11-09 13:07:14.638905$GLGSV,2,2,05,86,52,309,47,,,,,,,,,,,,*50
###2023-11-09 13:07:14.641473$GAGSV,1,1,04,07,72,257,45,08,49,042,44,13,64,160,44,26,56,311,45*6E
###2023-11-09 13:07:14.644045$GBGSV,2,1,06,11,24,180,41,14,65,006,45,24,19,133,43,26,23,082,42*64
###2023-11-09 13:07:14.645982$GBGSV,2,2,06,28,43,289,47,33,58,302,47,,,,,,,,*6F
###2023-11-09 13:07:14.647419$GNVTG,15.79,T,,M,1.21,N,2.23,K,A*18
###2023-11-09 13:07:14.728486$GNGGA,130714.90,3611.0518692,N,07544.9769152,W,1,24,0.6,0.985,M,-39.961,M,0.0,*6B
