###2023-11-09 13:07:57.145732$GBGSV,2,2,06,28,43,287,46,33,59,304,47,,,,,,,,*67
###2023-11-09 13:07:57.147254$GNVTG,248.61,T,,M,4.74,N,8.78,K,A*2A
###2023-11-09 13:07:57.230246$GNGGA,130757.40,3611.0468617,N,07544.9792363,W,1,24,0.6,1.019,M,-39.961,M,0.0,*63
###2023-11-09 13:07:57.232846$GPGSV,2,1,07,05,21,090,43,10,18,292,43,13,24,045,41,15,62,037,46*75
###2023-11-09 13:07:57.235103$GPGSV,2,2,07,18,77,281,45,23,50,315,45,24,49,136,46,,,,*42
###2023-11-09 13:07:57.237703$GLGSV,2,1,05,70,50,017,36,71,48,290,48,80,17,091,44,85,58,203,48*64
###2023-11-09 13:07:57.239318$GLGSV,2,2,05,86,52,309,47,,,,,,,,,,,,*50
###2023-11-09 13:07:57.241891$GAGSV,1,1,04,07,72,258,45,08,49,042,45,13,64,160,45,26,56,310,43*66
###2023-11-09 13:07:57.244483$GBGSV,2,1,06,11,23,180,42,14,65,008,45,24,20,132,45,26,23,081,44*66
###2023-11-09 13:07:57.246437$GBGSV,2,2,06,28,43,287,46,33,59,304,47,,,,,,,,*67
###2023-11-09 13:07:57.247920$GNVTG,254.96,T,,M,4.70,N,8.71,K,A*22
###2023-11-09 13:07:57.329630$GNGGA,130757.50,3611.0468302,N,07544.9793925,W,1,24,0.6,0.996,M,-39.961,M,0.0,*65
###2023-11-09 13:07:57.332207$GPGSV,2,1,07,05,21,090,43,10,18,292,43,13,24,045,41,15,62,037,46*75
###2023-11-09 13:07:57.334450$GPGSV,2,2,07,18,77,281,45,23,50,315,45,24,49,136,46,,,,*42
###2023-11-09 13:07:57.337012$GLGSV,2,1,05,70,50,017,36,71,48,290,48,80,17,091,45,85,58,203,48*65
###2023-11-09 13:07:57.338612$GLGSV,2,2,05,86,52,309,47,,,,,,,,,,,,*50
###2023-11-09 13:07:57.341159$GAGSV,1,1,04,07,72,258,45,08,49,042,44,13,64,160,45,26,56,310,44*60
###2023-11-09 13:07:57.343708$GBGSV,2,1,06,11,23,180,42,14,65,008,45,24,20,132,45,26,23,081,44*66
###2023-11-09 13:07:57.345621$GBGSV,2,2,06,28,43,287,46,33,59,304,47,,,,,,,,*67
###2023-11-09 13:07:57.347084$GNVTG,256.63,T,,M,4.68,N,8.68,K,A*2B
###2023-11-09 13:07:57.430019$GNGGA,130757.60,3611.0467994,N,07544.9795459,W,1,24,0.6,0.983,M,-39.961,M,0.0,*68
###2023-11-09 13:07:57.432620$GPGSV,2,1,07,05,21,090,43,10,18,292,43,13,24,045,41,15,62,037,46*75
###2023-11-09 13:07:57.434873$GPGSV,2,2,07,18,77,281,45,23,50,315,45,24,49,136,46,,,,*42
###2023-11-09 13:07:57.437495$GLGSV,2,1,05,70,50,017,36,71,48,290,49,80,17,091,45,85,58,203,48*64
###2023-11-09 13:07:57.439100$GLGSV,2,2,05,86,52,309,48,,,,,,,,,,,,*5F
###2023-11-09 13:07:57.441668$GAGSV,1,1,04,07,72,258,45,08,49,042,44,13,64,160,45,26,56,310,44*60
###2023-11-09 13:07:57.444250$GBGSV,2,1,06,11,23,180,41,14,65,008,46,24,20,132,44,26,23,081,44*67
###2023-11-09 13:07:57.446182$GBGSV,2,2,06,28,43,287,46,33,59,304,47,,,,,,,,*67
###2023-11-09 13:07:57.447671$GNVTG,255.24,T,,M,4.57,N,8.46,K,A*2B
###2023-11-09 13:07:57.530380$GNGGA,130757.70,3611.0467632,N,07544.9796936,W,1,24,0.6,0.973,M,-39.961,M,0.0,*62
###2023-11-09 13:07:57.532992$GPGSV,2,1,07,05,21,090,42,10,18,292,44,13,24,045,41,15,62,037,46*73
###2023-11-09 13:07:57.535253$GPGSV,2,2,07,18,77,281,45,23,50,315,46,24,49,136,44,,,,*43
###2023-11-09 13:07:57.537846$GLGSV,2,1,05,70,50,017,36,71,48,290,49,80,17,091,44,85,58,203,47*6A
###2023-11-09 13:07:57.539466$GLGSV,2,2,05,86,52,309,48,,,,,,,,,,,,*5F
###2023-11-09 13:07:57.542032$GAGSV,1,1,04,07,72,258,45,08,49,042,45,13,64,160,44,26,56,310,44*60
###2023-11-09 13:07:57.544615$GBGSV,2,1,06,11,23,180,40,14,65,008,46,24,20,132,43,26,23,081,44*61
###2023-11-09 13:07:57.546553$GBGSV,2,2,06,28,43,287,47,33,59,304,47,,,,,,,,*66
###2023-11-09 13:07:57.548033$GNVTG,250.89,T,,M,4.47,N,8.28,K,A*20
###2023-11-09 13:07:57.628871$GNGGA,130757.80,3611.0467177,N,07544.9798345,W,1,24,0.6,0.964,M,-39.961,M,0.0,*6D
###2023-11-09 13:07:57.631452$GPGSV,2,1,07,05,21,090,42,10,18,292,44,13,24,045,41,15,62,037,46*73
###2023-11-09 13:07:57.633699$GPGSV,2,2,07,18,77,281,45,23,50,315,46,24,49,136,44,,,,*43
###2023-11-09 13:07:57.636266$GLGSV,2,1,05,70,50,017,36,71,48,290,49,80,17,091,44,85,58,203,47*6A
###2023-11-09 13:07:57.637878$GLGSV,2,2,05,86,52,309,48,,,,,,,,,,,,*5F
###2023-11-09 13:07:57.640438$GAGSV,1,1,04,07,72,258,44,08,49,042,45,13,64,160,44,26,56,310,44*61
###2023-11-09 13:07:57.643012$GBGSV,2,1,06,11,23,180,40,14,65,008,46,24,20,132,42,26,23,081,44*60
###2023-11-09 13:07:57.644945$GBGSV,2,2,06,28,43,287,47,33,59,304,47,,,,,,,,*66
###2023-11-09 13:07:57.646406$GNVTG,245.36,T,,M,4.41,N,8.17,K,A*2A
###2023-11-09 13:07:57.729016$GNGGA,130757.90,3611.0466660,N,07544.9799664,W,1,24,0.6,0.955,M,-39.961,M,0.0,*69
###2023-11-09 13:07:57.731619$GPGSV,2,1,07,05,21,090,42,10,18,292,44,13,24,045,42,15,62,037,46*70
###2023-11-09 13:07:57.733879$GPGSV,2,2,07,18,77,281,46,23,50,315,46,24,49,136,44,,,,*40
###2023-11-09 13:07:57.736461$GLGSV,2,1,05,70,50,017,36,71,48,290,49,80,17,091,44,85,58,203,47*6A
###2023-11-09 13:07:57.738088$GLGSV,2,2,05,86,52,309,48,,,,,,,,,,,,*5F
###2023-11-09 13:07:57.740668$GAGSV,1,1,04,07,72,258,44,08,49,042,45,13,64,160,44,26,56,310,44*61
###2023-11-09 13:07:57.743254$GBGSV,2,1,06,11,23,180,40,14,65,008,46,24,20,132,42,26,23,081,44*60
###2023-11-09 13:07:57.745197$GBGSV,2,2,06,28,43,287,47,33,59,304,47,,,,,,,,*66
###2023-11-09 13:07:57.746663$GNVTG,242.80,T,,M,4.16,N,7.70,K,A*2C
###2023-11-09 13:07:57.832123$GNGGA,130758.00,3611.0466158,N,07544.9800918,W,1,24,0.6,0.946,M,-39.961,M,0.0,*6A
###2023-11-09 13:07:57.834733$GPGSV,2,1,07,05,21,090,42,10,18,292,44,13,24,045,42,15,62,037,46*70
###2023-11-09 13:07:57.837017$GPGSV,2,2,07,18,77,281,46,23,50,315,45,24,49,136,45,,,,*42
###2023-11-09 13:07:57.839603$GLGSV,2,1,05,70,50,017,36,71,48,290,49,80,17,091,44,85,58,203,47*6A
###2023-11-09 13:07:57.841215$GLGSV,2,2,05,86,52,309,48,,,,,,,,,,,,*5F
###2023-11-09 13:07:57.843791$GAGSV,1,1,04,07,72,258,44,08,49,042,45,13,64,160,44,26,56,310,44*61
###2023-11-09 13:07:57.846385$GBGSV,2,1,06,11,23,180,40,14,65,008,46,24,20,132,43,26,23,081,44*61
###2023-11-09 13:07:57.848340$GBGSV,2,2,06,28,43,287,47,33,59,304,47,,,,,,,,*66
###2023-11-09 13:07:57.849803$GNVTG,244.52,T,,M,4.02,N,7.45,K,A*26
###2023-11-09 13:07:57.932099$GNGGA,130758.10,3611.0465735,N,07544.9802196,W,1,24,0.6,0.945,M,-39.961,M,0.0,*6A
###2023-11-09 13:07:57.934683$GPGSV,2,1,07,05,21,090,43,10,18,292,44,13,24,045,42,15,62,037,46*71
###2023-11-09 13:07:57.936955$GPGSV,2,2,07,18,77,281,46,23,50,315,45,24,49,136,45,,,,*42
###2023-11-09 13:07:57.939515$GLGSV,2,1,05,70,50,017,36,71,48,290,48,80,17,091,45,85,58,203,48*65
###2023-11-09 13:07:57.941109$GLGSV,2,2,05,86,52,309,47,,,,,,,,,,,,*50
###2023-11-09 13:07:57.943652$GAGSV,1,1,04,07,72,258,44,08,49,042,45,13,64,160,44,26,56,310,44*61
###2023-11-09 13:07:57.946206$GBGSV,2,1,06,11,23,180,41,14,65,008,46,24,20,132,43,26,23,081,44*60
###2023-11-09 13:07:57.948145$GBGSV,2,2,06,28,43,287,47,33,59,304,46,,,,,,,,*67
###2023-11-09 13:07:57.949604$GNVTG,250.73,T,,M,4.06,N,7.52,K,A*22
###2023-11-09 13:07:58.031152$GNGGA,130758.20,3611.0465433,N,07544.9803553,W,1,24,0.6,0.953,M,-39.961,M,0.0,*67
###2023-11-09 13:07:58.033765$GPGSV,2,1,07,05,21,090,44,10,18,292,43,13,24,045,40,15,62,037,46*73
###2023-11-09 13:07:58.036029$GPGSV,2,2,07,18,77,281,46,23,50,315,45,24,49,136,45,,,,*42
###2023-11-09 13:07:58.038632$GLGSV,2,1,05,70,50,017,36,71,48,290,48,80,17,091,46,85,58,203,48*66
###2023-11-09 13:07:58.040244$GLGSV,2,2,05,86,52,309,47,,,,,,,,,,,,*50
###2023-11-09 13:07:58.042819$GAGSV,1,1,04,07,72,258,44,08,49,042,45,13,64,160,44,26,56,310,44*61
###2023-11-09 13:07:58.045397$GBGSV,2,1,06,11,23,180,41,14,65,008,46,24,20,132,44,26,23,081,44*67
###2023-11-09 13:07:58.047346$GBGSV,2,2,06,28,43,287,47,33,59,304,46,,,,,,,,*67
###2023-11-09 13:07:58.048807$GNVTG,258.05,T,,M,4.20,N,7.78,K,A*27
###2023-11-09 13:07:58.131990$GNGGA,130758.30,3611.0465195,N,07544.9804963,W,1,24,0.6,0.960,M,-39.961,M,0.0,*67
###2023-11-09 13:07:58.134581$GPGSV,2,1,07,05,21,090,44,10,18,292,43,13,24,045,40,15,62,037,46*73
###2023-11-09 13:07:58.136838$GPGSV,2,2,07,18,77,281,46,23,50,315,45,24,49,136,46,,,,*41
###2023-11-09 13:07:58.139541$GLGSV,2,1,05,70,50,017,36,71,48,290,48,80,17,091,46,85,58,203,48*66
###2023-11-09 13:07:58.141152$GLGSV,2,2,05,86,52,309,47,,,,,,,,,,,,*50
###2023-11-09 13:07:58.143731$GAGSV,1,1,04,07,72,258,44,08,49,042,45,13,64,160,44,26,56,310,44*61
###2023-11-09 13:07:58.146318$GBGSV,2,1,06,11,23,180,41,14,65,008,46,24,20,132,44,26,23,081,44*67
###2023-11-09 13:07:58.148560$GBGSV,2,2,06,28,43,287,47,33,59,304,46,,,,,,,,*67
###2023-11-09 13:07:58.150037$GNVTG,257.72,T,,M,4.26,N,7.88,K,A*21
###2023-11-09 13:07:58.229107$GNGGA,130758.40,3611.0464930,N,07544.9806351,W,1,24,0.6,0.958,M,-39.961,M,0.0,*64
###2023-11-09 13:07:58.231686$GPGSV,2,1,07,05,21,090,43,10,18,292,44,13,24,045,40,15,62,037,46*73
###2023-11-09 13:07:58.233926$GPGSV,2,2,07,18,77,281,46,23,50,315,45,24,49,136,46,,,,*41
###2023-11-09 13:07:58.236484$GLGSV,2,1,05,70,50,017,36,71,48,290,48,80,17,091,46,85,58,203,48*66
###2023-11-09 13:07:58.238096$GLGSV,2,2,05,86,52,309,47,,,,,,,,,,,,*50
###2023-11-09 13:07:58.240656$GAGSV,1,1,04,07,72,258,44,08,49,042,45,13,64,160,44,26,56,310,44*61
###2023-11-09 13:07:58.243233$GBGSV,2,1,06,11,23,180,40,14,65,008,46,24,20,132,44,26,23,081,44*66
###2023-11-09 13:07:58.245164$GBGSV,2,2,06,28,43,287,47,33,59,304,46,,,,,,,,*67
