###2023-11-09 13:06:20.146659$GAGSV,1,1,04,07,72,255,45,08,49,042,44,13,64,160,44,26,56,311,45*6C
###2023-11-09 13:06:20.149284$GBGSV,2,1,06,11,24,180,40,14,65,006,46,24,19,133,41,26,23,082,43*65
###2023-11-09 13:06:20.151259$GBGSV,2,2,06,28,43,289,47,33,58,302,48,,,,,,,,*60
###2023-11-09 13:06:20.152698$GNVTG,67.75,T,,M,0.87,N,1.62,K,A*1A
###2023-11-09 13:06:20.229759$GNGGA,130620.40,3611.0404990,N,07544.9807096,W,1,23,0.6,1.004,M,-39.961,M,0.0,*69
###2023-11-09 13:06:20.232350$GPGSV,2,1,07,05,21,090,41,10,17,292,43,13,25,045,42,15,62,036,46*7B
###2023-11-09 13:06:20.234598$GPGSV,2,2,07,18,77,282,47,23,49,314,45,24,49,137,45,,,,*48
###2023-11-09 13:06:20.237181$GLGSV,1,1,04,71,48,288,49,80,17,091,43,85,58,203,48,86,52,309,48*67
###2023-11-09 13:06:20.239767$GAGSV,1,1,04,07,72,255,45,08,49,042,44,13,64,160,45,26,56,311,45*6D
###2023-11-09 13:06:20.242346$GBGSV,2,1,06,11,24,180,40,14,65,006,46,24,19,133,42,26,23,082,43*66
###2023-11-09 13:06:20.244284$GBGSV,2,2,06,28,43,289,47,33,58,302,48,,,,,,,,*60
###2023-11-09 13:06:20.245716$GNVTG,67.75,T,,M,0.78,N,1.44,K,A*1E
###2023-11-09 13:06:20.332483$GNGGA,130620.50,3611.0405093,N,07544.9806858,W,1,23,0.6,1.017,M,-39.961,M,0.0,*6A
###2023-11-09 13:06:20.335065$GPGSV,2,1,07,05,21,090,41,10,17,292,43,13,25,045,42,15,62,036,46*7B
###2023-11-09 13:06:20.337348$GPGSV,2,2,07,18,77,282,47,23,49,314,45,24,49,137,45,,,,*48
###2023-11-09 13:06:20.339924$GLGSV,1,1,04,71,48,288,49,80,17,091,43,85,58,203,48,86,52,309,48*67
###2023-11-09 13:06:20.342492$GAGSV,1,1,04,07,72,255,45,08,49,042,44,13,64,160,45,26,56,311,45*6D
###2023-11-09 13:06:20.345060$GBGSV,2,1,06,11,24,180,40,14,65,006,45,24,19,133,43,26,23,082,43*64
###2023-11-09 13:06:20.346998$GBGSV,2,2,06,28,43,289,47,33,58,302,48,,,,,,,,*60
###2023-11-09 13:06:20.348435$GNVTG,67.75,T,,M,0.82,N,1.51,K,A*1F
###2023-11-09 13:06:20.430473$GNGGA,130620.60,3611.0405220,N,07544.9806626,W,1,23,0.6,1.034,M,-39.961,M,0.0,*65
###2023-11-09 13:06:20.433044$GPGSV,2,1,07,05,21,090,41,10,17,292,42,13,25,045,42,15,62,036,46*7A
###2023-11-09 13:06:20.435293$GPGSV,2,2,07,18,77,282,47,23,49,314,45,24,49,137,45,,,,*48
###2023-11-09 13:06:20.437879$GLGSV,1,1,04,71,48,288,49,80,17,091,44,85,58,203,48,86,52,309,47*6F
###2023-11-09 13:06:20.440442$GAGSV,1,1,04,07,72,255,45,08,49,042,44,13,64,160,45,26,56,311,45*6D
###2023-11-09 13:06:20.443006$GBGSV,2,1,06,11,24,180,40,14,65,006,45,24,19,133,43,26,23,082,43*64
###2023-11-09 13:06:20.444934$GBGSV,2,2,06,28,43,289,47,33,58,302,47,,,,,,,,*6F
###2023-11-09 13:06:20.446354$GNVTG,67.75,T,,M,0.84,N,1.55,K,A*1D
###2023-11-09 13:06:20.530504$GNGGA,130620.70,3611.0405360,N,07544.9806421,W,1,23,0.6,1.057,M,-39.961,M,0.0,*61
###2023-11-09 13:06:20.533101$GPGSV,2,1,07,05,21,090,42,10,17,292,42,13,25,045,42,15,62,036,46*79
###2023-11-09 13:06:20.535360$GPGSV,2,2,07,18,77,282,47,23,49,314,45,24,49,137,45,,,,*48
###2023-11-09 13:06:20.537947$GLGSV,1,1,04,71,48,288,49,80,17,091,44,85,58,203,48,86,52,309,47*6F
###2023-11-09 13:06:20.540529$GAGSV,1,1,04,07,72,255,45,08,49,042,44,13,64,160,45,26,56,311,45*6D
###2023-11-09 13:06:20.543119$GBGSV,2,1,06,11,24,180,40,14,65,006,45,24,19,133,43,26,23,082,43*64
###2023-11-09 13:06:20.545070$GBGSV,2,2,06,28,43,289,47,33,58,302,47,,,,,,,,*6F
###2023-11-09 13:06:20.546507$GNVTG,67.75,T,,M,0.74,N,1.37,K,A*16
###2023-11-09 13:06:20.631504$GNGGA,130620.80,3611.0405522,N,07544.9806267,W,1,23,0.6,1.083,M,-39.961,M,0.0,*63
###2023-11-09 13:06:20.634101$GPGSV,2,1,07,05,21,090,42,10,17,292,42,13,25,045,42,15,62,036,46*79
###2023-11-09 13:06:20.636363$GPGSV,2,2,07,18,77,282,47,23,49,314,45,24,49,137,45,,,,*48
###2023-11-09 13:06:20.638965$GLGSV,1,1,04,71,48,288,49,80,17,091,44,85,58,203,48,86,52,309,48*60
###2023-11-09 13:06:20.641547$GAGSV,1,1,04,07,72,255,45,08,49,042,44,13,64,160,45,26,56,311,45*6D
###2023-11-09 13:06:20.644125$GBGSV,2,1,06,11,24,180,40,14,65,006,46,24,19,133,43,26,23,082,43*67
###2023-11-09 13:06:20.646070$GBGSV,2,2,06,28,43,289,47,33,58,302,47,,,,,,,,*6F
###2023-11-09 13:06:20.647533$GNVTG,67.75,T,,M,0.74,N,1.37,K,A*16
###2023-11-09 13:06:20.730747$GNGGA,130620.90,3611.0405689,N,07544.9806180,W,1,24,0.6,1.121,M,-39.961,M,0.0,*64
###2023-11-09 13:06:20.733327$GPGSV,2,1,07,05,21,090,42,10,17,292,43,13,25,045,42,15,62,036,46*78
###2023-11-09 13:06:20.735577$GPGSV,2,2,07,18,77,282,47,23,49,314,45,24,49,137,45,,,,*48
###2023-11-09 13:06:20.738173$GLGSV,2,1,05,70,50,016,35,71,48,288,49,80,17,091,44,85,58,203,48*6E
###2023-11-09 13:06:20.739775$GLGSV,2,2,05,86,52,309,48,,,,,,,,,,,,*5F
###2023-11-09 13:06:20.742342$GAGSV,1,1,04,07,72,255,45,08,49,042,44,13,64,160,45,26,56,311,45*6D
###2023-11-09 13:06:20.744935$GBGSV,2,1,06,11,24,180,40,14,65,006,46,24,19,133,43,26,23,082,43*67
###2023-11-09 13:06:20.746878$GBGSV,2,2,06,28,43,289,47,33,58,302,47,,,,,,,,*6F
###2023-11-09 13:06:20.748318$GNVTG,67.75,T,,M,0.56,N,1.04,K,A*16
###2023-11-09 13:06:20.830642$GNGGA,130621.00,3611.0405843,N,07544.9806175,W,1,24,0.6,1.159,M,-39.961,M,0.0,*61
###2023-11-09 13:06:20.833260$GPGSV,2,1,07,05,21,090,42,10,17,292,43,13,25,045,42,15,62,036,46*78
###2023-11-09 13:06:20.835528$GPGSV,2,2,07,18,77,282,47,23,49,314,45,24,49,137,45,,,,*48
###2023-11-09 13:06:20.838116$GLGSV,2,1,05,70,50,016,37,71,48,288,49,80,17,091,43,85,58,203,47*64
###2023-11-09 13:06:20.839736$GLGSV,2,2,05,86,52,309,48,,,,,,,,,,,,*5F
###2023-11-09 13:06:20.842312$GAGSV,1,1,04,07,72,255,45,08,49,042,44,13,64,160,45,26,56,311,45*6D
###2023-11-09 13:06:20.844897$GBGSV,2,1,06,11,24,180,40,14,65,006,46,24,19,133,43,26,23,082,43*67
###2023-11-09 13:06:20.846834$GBGSV,2,2,06,28,43,289,48,33,58,302,47,,,,,,,,*60
###2023-11-09 13:06:20.848280$GNVTG,67.75,T,,M,0.54,N,1.01,K,A*11
###2023-11-09 13:06:20.933608$GNGGA,130621.10,3611.0405996,N,07544.9806234,W,1,24,0.6,1.196,M,-39.961,M,0.0,*6C
###2023-11-09 13:06:20.936187$GPGSV,2,1,07,05,21,090,41,10,17,292,43,13,25,045,42,15,62,036,46*7B
###2023-11-09 13:06:20.938464$GPGSV,2,2,07,18,77,282,47,23,49,314,46,24,49,137,45,,,,*4B
###2023-11-09 13:06:20.941044$GLGSV,2,1,05,70,50,016,37,71,48,288,49,80,17,091,42,85,58,203,47*65
###2023-11-09 13:06:20.942650$GLGSV,2,2,05,86,52,309,48,,,,,,,,,,,,*5F
###2023-11-09 13:06:20.945211$GAGSV,1,1,04,07,72,255,45,08,49,042,44,13,64,160,45,26,56,311,45*6D
###2023-11-09 13:06:20.947806$GBGSV,2,1,06,11,24,180,40,14,65,006,46,24,19,133,42,26,23,082,43*66
###2023-11-09 13:06:20.949735$GBGSV,2,2,06,28,43,289,48,33,58,302,47,,,,,,,,*60
###2023-11-09 13:06:20.951164$GNVTG,67.75,T,,M,0.56,N,1.04,K,A*16
###2023-11-09 13:06:21.031496$GNGGA,130621.20,3611.0406145,N,07544.9806336,W,1,24,0.6,1.243,M,-39.961,M,0.0,*62
###2023-11-09 13:06:21.034079$GPGSV,2,1,07,05,21,090,41,10,17,292,43,13,25,045,42,15,62,036,46*7B
###2023-11-09 13:06:21.036314$GPGSV,2,2,07,18,77,282,46,23,49,314,46,24,49,137,45,,,,*4A
###2023-11-09 13:06:21.038882$GLGSV,2,1,05,70,50,016,36,71,48,288,49,80,17,091,42,85,58,203,47*64
###2023-11-09 13:06:21.040486$GLGSV,2,2,05,86,52,309,48,,,,,,,,,,,,*5F
###2023-11-09 13:06:21.043047$GAGSV,1,1,04,07,72,255,45,08,49,042,44,13,64,160,45,26,56,311,45*6D
###2023-11-09 13:06:21.045604$GBGSV,2,1,06,11,24,180,40,14,65,006,46,24,19,133,42,26,23,082,42*67
###2023-11-09 13:06:21.047540$GBGSV,2,2,06,28,43,289,48,33,58,302,48,,,,,,,,*6F
###2023-11-09 13:06:21.048963$GNVTG,67.75,T,,M,0.62,N,1.15,K,A*11
###2023-11-09 13:06:21.130874$GNGGA,130621.30,3611.0406313,N,07544.9806477,W,1,24,0.6,1.288,M,-39.961,M,0.0,*67
###2023-11-09 13:06:21.133477$GPGSV,2,1,07,05,21,090,41,10,17,292,41,13,25,045,42,15,62,036,46*79
###2023-11-09 13:06:21.135746$GPGSV,2,2,07,18,77,282,46,23,49,314,45,24,49,137,44,,,,*48
###2023-11-09 13:06:21.138350$GLGSV,2,1,05,70,50,016,36,71,48,288,49,80,17,091,42,85,58,203,48*6B
###2023-11-09 13:06:21.139955$GLGSV,2,2,05,86,52,309,48,,,,,,,,,,,,*5F
###2023-11-09 13:06:21.142535$GAGSV,1,1,04,07,72,255,45,08,49,042,43,13,64,160,45,26,56,311,46*69
###2023-11-09 13:06:21.145112$GBGSV,2,1,06,11,24,180,40,14,65,006,46,24,19,133,42,26,23,082,42*67
###2023-11-09 13:06:21.147059$GBGSV,2,2,06,28,43,289,47,33,58,302,48,,,,,,,,*60
###2023-11-09 13:06:21.148478$GNVTG,67.75,T,,M,0.78,N,1.44,K,A*1E
###2023-11-09 13:06:21.235029$GNGGA,130621.40,3611.0406516,N,07544.9806657,W,1,24,0.6,1.317,M,-39.961,M,0.0,*64
###2023-11-09 13:06:21.237968$GPGSV,2,1,07,05,21,090,39,10,17,292,41,13,25,045,42,15,62,036,46*76
###2023-11-09 13:06:21.240224$GPGSV,2,2,07,18,77,282,46,23,49,314,46,24,49,137,44,,,,*4B
###2023-11-09 13:06:21.242792$GLGSV,2,1,05,70,50,016,36,71,48,288,49,80,17,091,42,85,58,203,49*6A
###2023-11-09 13:06:21.244402$GLGSV,2,2,05,86,52,309,48,,,,,,,,,,,,*5F
###2023-11-09 13:06:21.246969$GAGSV,1,1,04,07,72,255,45,08,49,042,43,13,64,160,45,26,56,311,45*6A
###2023-11-09 13:06:21.249537$GBGSV,2,1,06,11,24,180,40,14,65,006,45,24,19,133,42,26,23,082,42*64
###2023-11-09 13:06:21.251474$GBGSV,2,2,06,28,43,289,47,33,58,302,48,,,,,,,,*60
###2023-11-09 13:06:21.252905$GNVTG,67.75,T,,M,0.97,N,1.80,K,A*17
###2023-11-09 13:06:21.329620$GNGGA,130621.50,3611.0406763,N,07544.9806859,W,1,24,0.6,1.339,M,-39.961,M,0.0,*69
###2023-11-09 13:06:21.332185$GPGSV,2,1,07,05,21,090,40,10,17,292,41,13,25,045,42,15,62,036,46*78
