###2023-11-09 13:10:05.333990$GPGSV,2,1,07,05,20,090,40,10,19,293,43,13,24,045,40,15,61,037,46*75
###2023-11-09 13:10:05.336259$GPGSV,2,2,07,18,78,277,47,23,50,316,45,24,50,134,45,,,,*4C
###2023-11-09 13:10:05.338891$GLGSV,2,1,05,70,49,019,35,71,48,291,49,80,19,089,42,85,57,203,48*6F
###2023-11-09 13:10:05.340509$GLGSV,2,2,05,86,53,308,48,,,,,,,,,,,,*5F
###2023-11-09 13:10:05.343072$GAGSV,1,1,04,07,73,259,45,08,48,043,44,13,63,161,44,26,57,310,45*67
###2023-11-09 13:10:05.345639$GBGSV,2,1,06,11,22,180,40,14,65,009,45,24,21,132,43,26,23,080,43*65
###2023-11-09 13:10:05.347598$GBGSV,2,2,06,28,43,286,47,33,59,305,47,,,,,,,,*66
###2023-11-09 13:10:05.349035$GNVTG,83.57,T,,M,4.16,N,7.70,K,A*19
###2023-11-09 13:10:05.431085$GNGGA,131005.60,3611.0504456,N,07544.8942835,W,1,24,0.6,0.458,M,-39.961,M,0.0,*66
###2023-11-09 13:10:05.433661$GPGSV,2,1,07,05,20,090,40,10,19,293,43,13,24,045,40,15,61,037,46*75
###2023-11-09 13:10:05.435897$GPGSV,2,2,07,18,78,277,47,23,50,316,45,24,50,134,46,,,,*4F
###2023-11-09 13:10:05.438474$GLGSV,2,1,05,70,49,019,35,71,48,291,48,80,19,089,42,85,57,203,48*6E
###2023-11-09 13:10:05.440074$GLGSV,2,2,05,86,53,308,47,,,,,,,,,,,,*50
###2023-11-09 13:10:05.442617$GAGSV,1,1,04,07,73,259,45,08,48,043,43,13,63,161,44,26,57,310,45*60
###2023-11-09 13:10:05.445173$GBGSV,2,1,06,11,22,180,40,14,65,009,45,24,21,132,43,26,23,080,43*65
###2023-11-09 13:10:05.447099$GBGSV,2,2,06,28,43,286,46,33,59,305,47,,,,,,,,*67
###2023-11-09 13:10:05.448517$GNVTG,79.88,T,,M,4.18,N,7.74,K,A*14
###2023-11-09 13:10:05.530850$GNGGA,131005.70,3611.0504654,N,07544.8941427,W,1,24,0.6,0.453,M,-39.961,M,0.0,*60
###2023-11-09 13:10:05.533440$GPGSV,2,1,07,05,20,090,40,10,19,293,42,13,24,045,40,15,61,037,46*74
###2023-11-09 13:10:05.535682$GPGSV,2,2,07,18,78,277,47,23,50,316,45,24,50,134,46,,,,*4F
###2023-11-09 13:10:05.538276$GLGSV,2,1,05,70,49,019,35,71,48,291,48,80,19,089,42,85,57,203,49*6F
###2023-11-09 13:10:05.539887$GLGSV,2,2,05,86,53,308,47,,,,,,,,,,,,*50
###2023-11-09 13:10:05.542468$GAGSV,1,1,04,07,73,259,45,08,48,043,43,13,63,161,45,26,57,310,45*61
###2023-11-09 13:10:05.545051$GBGSV,2,1,06,11,22,180,40,14,65,009,45,24,21,132,43,26,23,080,42*64
###2023-11-09 13:10:05.547002$GBGSV,2,2,06,28,43,286,46,33,59,305,47,,,,,,,,*67
###2023-11-09 13:10:05.548436$GNVTG,80.46,T,,M,4.18,N,7.74,K,A*10
###2023-11-09 13:10:05.630854$GNGGA,131005.80,3611.0504824,N,07544.8940010,W,1,24,0.6,0.439,M,-39.961,M,0.0,*6B
###2023-11-09 13:10:05.633435$GPGSV,2,1,07,05,20,090,41,10,19,293,43,13,24,045,40,15,61,037,45*77
###2023-11-09 13:10:05.635687$GPGSV,2,2,07,18,78,277,47,23,50,316,45,24,50,134,46,,,,*4F
###2023-11-09 13:10:05.638292$GLGSV,2,1,05,70,49,019,35,71,48,291,48,80,19,089,42,85,57,203,48*6E
###2023-11-09 13:10:05.639905$GLGSV,2,2,05,86,53,308,48,,,,,,,,,,,,*5F
###2023-11-09 13:10:05.642474$GAGSV,1,1,04,07,73,259,45,08,48,043,43,13,63,161,45,26,57,310,45*61
###2023-11-09 13:10:05.645050$GBGSV,2,1,06,11,22,180,40,14,65,009,45,24,21,132,42,26,23,080,42*65
###2023-11-09 13:10:05.646993$GBGSV,2,2,06,28,43,286,46,33,59,305,47,,,,,,,,*67
###2023-11-09 13:10:05.648418$GNVTG,82.62,T,,M,4.20,N,7.78,K,A*13
###2023-11-09 13:10:05.730976$GNGGA,131005.90,3611.0504913,N,07544.8938584,W,1,24,0.6,0.422,M,-39.961,M,0.0,*62
###2023-11-09 13:10:05.733555$GPGSV,2,1,07,05,20,090,41,10,19,293,43,13,24,045,40,15,61,037,45*77
###2023-11-09 13:10:05.735800$GPGSV,2,2,07,18,78,277,47,23,50,316,45,24,50,134,46,,,,*4F
###2023-11-09 13:10:05.738378$GLGSV,2,1,05,70,49,019,35,71,48,291,48,80,19,089,42,85,57,203,48*6E
###2023-11-09 13:10:05.739979$GLGSV,2,2,05,86,53,308,48,,,,,,,,,,,,*5F
###2023-11-09 13:10:05.742529$GAGSV,1,1,04,07,73,259,45,08,48,043,44,13,63,161,45,26,57,310,45*66
###2023-11-09 13:10:05.745098$GBGSV,2,1,06,11,22,180,40,14,65,009,45,24,21,132,42,26,23,080,42*65
###2023-11-09 13:10:05.747031$GBGSV,2,2,06,28,43,286,46,33,59,305,47,,,,,,,,*67
###2023-11-09 13:10:05.748448$GNVTG,88.38,T,,M,4.16,N,7.70,K,A*1B
###2023-11-09 13:10:05.837520$GNGGA,131006.00,3611.0504875,N,07544.8937162,W,1,24,0.6,0.404,M,-39.961,M,0.0,*6E
###2023-11-09 13:10:05.840123$GPGSV,2,1,07,05,20,090,41,10,19,293,44,13,24,045,40,15,61,037,45*70
###2023-11-09 13:10:05.842375$GPGSV,2,2,07,18,78,277,47,23,50,316,45,24,50,134,46,,,,*4F
###2023-11-09 13:10:05.844957$GLGSV,2,1,05,70,49,019,35,71,48,291,48,80,19,089,43,85,57,203,48*6F
###2023-11-09 13:10:05.846567$GLGSV,2,2,05,86,53,308,48,,,,,,,,,,,,*5F
###2023-11-09 13:10:05.849165$GAGSV,1,1,04,07,73,259,45,08,48,043,44,13,63,161,45,26,57,310,45*66
###2023-11-09 13:10:05.851751$GBGSV,2,1,06,11,22,180,42,14,65,009,45,24,21,132,44,26,23,080,42*61
###2023-11-09 13:10:05.853688$GBGSV,2,2,06,28,43,286,47,33,59,305,47,,,,,,,,*66
###2023-11-09 13:10:05.855122$GNVTG,95.40,T,,M,4.16,N,7.70,K,A*18
###2023-11-09 13:10:05.937155$GNGGA,131006.10,3611.0504749,N,07544.8935761,W,1,24,0.6,0.410,M,-39.961,M,0.0,*6D
###2023-11-09 13:10:05.939756$GPGSV,2,1,07,05,20,090,41,10,19,293,44,13,24,045,40,15,61,037,45*70
###2023-11-09 13:10:05.942010$GPGSV,2,2,07,18,78,277,47,23,50,316,45,24,50,134,46,,,,*4F
###2023-11-09 13:10:05.944585$GLGSV,2,1,05,70,49,019,35,71,48,291,48,80,19,089,43,85,57,203,49*6E
###2023-11-09 13:10:05.946191$GLGSV,2,2,05,86,53,308,47,,,,,,,,,,,,*50
###2023-11-09 13:10:05.948778$GAGSV,1,1,04,07,73,259,45,08,48,043,44,13,63,161,45,26,57,310,45*66
###2023-11-09 13:10:05.951373$GBGSV,2,1,06,11,22,180,42,14,65,009,45,24,21,132,44,26,23,080,42*61
###2023-11-09 13:10:05.953321$GBGSV,2,2,06,28,43,286,47,33,59,305,47,,,,,,,,*66
###2023-11-09 13:10:05.954758$GNVTG,97.10,T,,M,4.08,N,7.56,K,A*14
###2023-11-09 13:10:06.035093$GNGGA,131006.20,3611.0504659,N,07544.8934383,W,1,24,0.6,0.439,M,-39.961,M,0.0,*6C
###2023-11-09 13:10:06.037681$GPGSV,2,1,07,05,20,090,41,10,19,293,44,13,24,045,41,15,61,037,45*71
###2023-11-09 13:10:06.039924$GPGSV,2,2,07,18,78,277,47,23,50,316,45,24,50,134,46,,,,*4F
###2023-11-09 13:10:06.042467$GLGSV,2,1,05,70,49,019,35,71,48,291,49,80,19,089,43,85,57,203,48*6E
###2023-11-09 13:10:06.044068$GLGSV,2,2,05,86,53,308,47,,,,,,,,,,,,*50
###2023-11-09 13:10:06.046626$GAGSV,1,1,04,07,73,259,45,08,48,043,44,13,63,161,45,26,57,310,44*67
###2023-11-09 13:10:06.049206$GBGSV,2,1,06,11,22,180,42,14,65,009,45,24,21,132,45,26,23,080,42*60
###2023-11-09 13:10:06.051130$GBGSV,2,2,06,28,43,286,47,33,59,305,47,,,,,,,,*66
###2023-11-09 13:10:06.052552$GNVTG,91.96,T,,M,3.98,N,7.38,K,A*1A
###2023-11-09 13:10:06.131007$GNGGA,131006.30,3611.0504676,N,07544.8933018,W,1,24,0.6,0.478,M,-39.961,M,0.0,*63
###2023-11-09 13:10:06.133619$GPGSV,2,1,07,05,20,090,41,10,19,293,44,13,24,045,41,15,61,037,44*70
###2023-11-09 13:10:06.135886$GPGSV,2,2,07,18,78,277,47,23,50,316,45,24,50,134,46,,,,*4F
###2023-11-09 13:10:06.138486$GLGSV,2,1,05,70,49,019,35,71,48,291,49,80,19,089,43,85,57,203,49*6F
###2023-11-09 13:10:06.140105$GLGSV,2,2,05,86,53,308,47,,,,,,,,,,,,*50
###2023-11-09 13:10:06.142672$GAGSV,1,1,04,07,73,259,45,08,48,043,44,13,63,161,45,26,57,310,44*67
###2023-11-09 13:10:06.145249$GBGSV,2,1,06,11,22,180,42,14,65,009,45,24,21,132,45,26,23,080,42*60
###2023-11-09 13:10:06.147194$GBGSV,2,2,06,28,43,286,47,33,59,305,47,,,,,,,,*66
###2023-11-09 13:10:06.148622$GNVTG,86.79,T,,M,4.00,N,7.42,K,A*16
###2023-11-09 13:10:06.231371$GNGGA,131006.40,3611.0504766,N,07544.8931624,W,1,24,0.6,0.529,M,-39.961,M,0.0,*6A
###2023-11-09 13:10:06.233985$GPGSV,2,1,07,05,20,090,41,10,19,293,43,13,24,045,42,15,61,037,45*75
###2023-11-09 13:10:06.236255$GPGSV,2,2,07,18,78,277,47,23,50,316,45,24,50,134,46,,,,*4F
###2023-11-09 13:10:06.238861$GLGSV,2,1,05,70,49,019,35,71,48,291,49,80,19,089,43,85,57,203,48*6E
###2023-11-09 13:10:06.240480$GLGSV,2,2,05,86,53,308,47,,,,,,,,,,,,*50
###2023-11-09 13:10:06.243063$GAGSV,1,1,04,07,73,259,45,08,48,043,44,13,63,161,44,26,57,310,44*66
###2023-11-09 13:10:06.245655$GBGSV,2,1,06,11,22,180,42,14,65,009,45,24,21,132,44,26,23,080,42*61
###2023-11-09 13:10:06.247610$GBGSV,2,2,06,28,43,286,47,33,59,305,47,,,,,,,,*66
###2023-11-09 13:10:06.249043$GNVTG,84.58,T,,M,4.18,N,7.74,K,A*1B
###2023-11-09 13:10:06.330836$GNGGA,131006.50,3611.0504835,N,07544.8930180,W,1,24,0.6,0.563,M,-39.961,M,0.0,*64
###2023-11-09 13:10:06.333412$GPGSV,2,1,07,05,20,090,41,10,19,293,43,13,24,045,42,15,61,037,45*75
###2023-11-09 13:10:06.335952$GPGSV,2,2,07,18,78,277,47,23,50,316,46,24,50,134,45,,,,*4F
###2023-11-09 13:10:06.338546$GLGSV,2,1,05,70,49,019,35,71,48,291,48,80,19,089,43,85,57,203,48*6F
###2023-11-09 13:10:06.340153$GLGSV,2,2,05,86,53,308,48,,,,,,,,,,,,*5F
###2023-11-09 13:10:06.342695$GAGSV,1,1,04,07,73,259,45,08,48,043,44,13,63,161,44,26,57,310,45*67
###2023-11-09 13:10:06.345248$GBGSV,2,1,06,11,22,180,41,14,65,009,45,24,21,132,43,26,23,080,42*65
###2023-11-09 13:10:06.347187$GBGSV,2,2,06,28,43,286,47,33,59,305,48,,,,,,,,*69
###2023-11-09 13:10:06.348609$GNVTG,88.94,T,,M,4.30,N,7.96,K,A*11
###2023-11-09 13:10:06.432503$GNGGA,131006.60,3611.0504782,N,07544.8928704,W,1,24,0.6,0.565,M,-39.961,M,0.0,*61
###2023-11-09 13:10:06.435111$GPGSV,2,1,07,05,20,090,41,10,19,293,43,13,24,045,42,15,61,037,45*75
