###2023-11-09 13:06:54.734690$GPGSV,2,1,07,05,21,090,41,10,18,292,44,13,24,045,40,15,62,037,45*72
###2023-11-09 13:06:54.736994$GPGSV,2,2,07,18,77,281,47,23,50,315,45,24,49,136,46,,,,*40
###2023-11-09 13:06:54.739578$GLGSV,2,1,05,70,50,016,36,71,48,288,48,80,17,091,43,85,58,203,48*6B
###2023-11-09 13:06:54.741190$GLGSV,2,2,05,86,52,309,47,,,,,,,,,,,,*50
###2023-11-09 13:06:54.743757$GAGSV,1,1,04,07,72,255,45,08,49,042,44,13,64,160,44,26,56,311,45*6C
###2023-11-09 13:06:54.746338$GBGSV,2,1,06,11,24,180,43,14,65,006,45,24,19,133,44,26,23,082,42*61
###2023-11-09 13:06:54.748287$GBGSV,2,2,06,28,43,289,47,33,58,302,47,,,,,,,,*6F
###2023-11-09 13:06:54.749717$GNVTG,27.06,T,,M,1.19,N,2.20,K,A*19
###2023-11-09 13:06:54.833762$GNGGA,130655.00,3611.0473489,N,07544.9779887,W,1,24,0.6,0.992,M,-39.961,M,0.0,*64
###2023-11-09 13:06:54.836366$GPGSV,2,1,07,05,21,090,41,10,18,292,44,13,24,045,41,15,62,037,45*73
###2023-11-09 13:06:54.838645$GPGSV,2,2,07,18,77,281,47,23,50,315,45,24,49,136,46,,,,*40
###2023-11-09 13:06:54.841221$GLGSV,2,1,05,70,50,016,36,71,48,288,48,80,17,091,43,85,58,203,48*6B
###2023-11-09 13:06:54.842833$GLGSV,2,2,05,86,52,309,47,,,,,,,,,,,,*50
###2023-11-09 13:06:54.845400$GAGSV,1,1,04,07,72,255,45,08,49,042,44,13,64,160,44,26,56,311,45*6C
###2023-11-09 13:06:54.847995$GBGSV,2,1,06,11,24,180,41,14,65,006,45,24,19,133,44,26,23,082,42*63
###2023-11-09 13:06:54.849945$GBGSV,2,2,06,28,43,289,47,33,58,302,47,,,,,,,,*6F
###2023-11-09 13:06:54.851386$GNVTG,25.22,T,,M,1.28,N,2.38,K,A*16
###2023-11-09 13:06:54.932752$GNGGA,130655.10,3611.0473780,N,07544.9779719,W,1,24,0.6,0.992,M,-39.961,M,0.0,*67
###2023-11-09 13:06:54.935350$GPGSV,2,1,07,05,21,090,42,10,18,292,44,13,24,045,41,15,62,037,46*73
###2023-11-09 13:06:54.937624$GPGSV,2,2,07,18,77,281,47,23,50,315,45,24,49,136,46,,,,*40
###2023-11-09 13:06:54.940183$GLGSV,2,1,05,70,50,016,35,71,48,288,48,80,17,091,43,85,58,203,48*68
###2023-11-09 13:06:54.941789$GLGSV,2,2,05,86,52,309,47,,,,,,,,,,,,*50
###2023-11-09 13:06:54.944343$GAGSV,1,1,04,07,72,255,45,08,49,042,44,13,64,160,44,26,56,311,45*6C
###2023-11-09 13:06:54.946926$GBGSV,2,1,06,11,24,180,41,14,65,006,45,24,19,133,44,26,23,082,42*63
###2023-11-09 13:06:54.948869$GBGSV,2,2,06,28,43,289,47,33,58,302,47,,,,,,,,*6F
###2023-11-09 13:06:54.950296$GNVTG,26.46,T,,M,1.01,N,1.87,K,A*1B
###2023-11-09 13:06:55.032609$GNGGA,130655.20,3611.0473999,N,07544.9779574,W,1,24,0.6,0.985,M,-39.961,M,0.0,*6D
###2023-11-09 13:06:55.035209$GPGSV,2,1,07,05,21,090,42,10,18,292,44,13,24,045,43,15,62,037,46*71
###2023-11-09 13:06:55.037487$GPGSV,2,2,07,18,77,281,47,23,50,315,45,24,49,136,46,,,,*40
###2023-11-09 13:06:55.040059$GLGSV,2,1,05,70,50,016,35,71,48,288,48,80,17,091,44,85,58,203,48*6F
###2023-11-09 13:06:55.041668$GLGSV,2,2,05,86,52,309,48,,,,,,,,,,,,*5F
###2023-11-09 13:06:55.044228$GAGSV,1,1,04,07,72,255,45,08,49,042,44,13,64,160,44,26,56,311,45*6C
###2023-11-09 13:06:55.046800$GBGSV,2,1,06,11,24,180,41,14,65,006,45,24,19,133,43,26,23,082,43*65
###2023-11-09 13:06:55.048740$GBGSV,2,2,06,28,43,289,47,33,58,302,47,,,,,,,,*6F
###2023-11-09 13:06:55.050165$GNVTG,26.46,T,,M,0.76,N,1.40,K,A*11
###2023-11-09 13:06:55.132619$GNGGA,130655.30,3611.0474150,N,07544.9779444,W,1,24,0.6,0.981,M,-39.961,M,0.0,*60
###2023-11-09 13:06:55.135208$GPGSV,2,1,07,05,21,090,42,10,18,292,43,13,24,045,43,15,62,037,46*76
###2023-11-09 13:06:55.137485$GPGSV,2,2,07,18,77,281,47,23,50,315,45,24,49,136,46,,,,*40
###2023-11-09 13:06:55.140051$GLGSV,2,1,05,70,50,016,36,71,48,288,48,80,17,091,44,85,58,203,48*6C
###2023-11-09 13:06:55.141663$GLGSV,2,2,05,86,52,309,48,,,,,,,,,,,,*5F
###2023-11-09 13:06:55.144235$GAGSV,1,1,04,07,72,255,45,08,49,042,45,13,64,160,44,26,56,311,45*6D
###2023-11-09 13:06:55.146799$GBGSV,2,1,06,11,24,180,41,14,65,006,45,24,19,133,43,26,23,082,43*65
###2023-11-09 13:06:55.148744$GBGSV,2,2,06,28,43,289,47,33,58,302,47,,,,,,,,*6F
###2023-11-09 13:06:55.150173$GNVTG,26.46,T,,M,0.56,N,1.04,K,A*13
###2023-11-09 13:06:55.231732$GNGGA,130655.40,3611.0474264,N,07544.9779307,W,1,24,0.6,0.977,M,-39.961,M,0.0,*6A
###2023-11-09 13:06:55.234298$GPGSV,2,1,07,05,21,090,42,10,18,292,42,13,24,045,42,15,62,037,46*76
###2023-11-09 13:06:55.236530$GPGSV,2,2,07,18,77,281,47,23,50,315,45,24,49,136,46,,,,*40
###2023-11-09 13:06:55.239109$GLGSV,2,1,05,70,50,016,36,71,48,288,48,80,17,091,43,85,58,203,48*6B
###2023-11-09 13:06:55.240713$GLGSV,2,2,05,86,52,309,47,,,,,,,,,,,,*50
###2023-11-09 13:06:55.243263$GAGSV,1,1,04,07,72,255,45,08,49,042,45,13,64,160,44,26,56,311,45*6D
###2023-11-09 13:06:55.245822$GBGSV,2,1,06,11,24,180,41,14,65,006,45,24,19,133,43,26,23,082,43*65
###2023-11-09 13:06:55.247766$GBGSV,2,2,06,28,43,289,47,33,58,302,47,,,,,,,,*6F
###2023-11-09 13:06:55.249187$GNVTG,26.46,T,,M,0.56,N,1.04,K,A*13
###2023-11-09 13:06:55.331360$GNGGA,130655.50,3611.0474400,N,07544.9779156,W,1,24,0.6,0.975,M,-39.961,M,0.0,*6B
###2023-11-09 13:06:55.333948$GPGSV,2,1,07,05,21,090,42,10,18,292,42,13,24,045,42,15,62,037,46*76
###2023-11-09 13:06:55.336195$GPGSV,2,2,07,18,77,281,47,23,50,315,45,24,49,136,46,,,,*40
###2023-11-09 13:06:55.338778$GLGSV,2,1,05,70,50,016,35,71,48,288,48,80,17,091,43,85,58,203,48*68
###2023-11-09 13:06:55.340386$GLGSV,2,2,05,86,52,309,47,,,,,,,,,,,,*50
###2023-11-09 13:06:55.342962$GAGSV,1,1,04,07,72,255,45,08,49,042,45,13,64,160,44,26,56,311,45*6D
###2023-11-09 13:06:55.345528$GBGSV,2,1,06,11,24,180,41,14,65,006,45,24,19,133,43,26,23,082,43*65
###2023-11-09 13:06:55.347470$GBGSV,2,2,06,28,43,289,47,33,58,302,47,,,,,,,,*6F
###2023-11-09 13:06:55.348898$GNVTG,26.46,T,,M,0.74,N,1.37,K,A*13
###2023-11-09 13:06:55.432250$GNGGA,130655.60,3611.0474598,N,07544.9778987,W,1,24,0.6,0.968,M,-39.961,M,0.0,*61
###2023-11-09 13:06:55.434842$GPGSV,2,1,07,05,21,090,42,10,18,292,42,13,24,045,41,15,62,037,46*75
###2023-11-09 13:06:55.437119$GPGSV,2,2,07,18,77,281,47,23,50,315,45,24,49,136,46,,,,*40
###2023-11-09 13:06:55.439698$GLGSV,2,1,05,70,50,016,35,71,48,288,48,80,17,091,43,85,58,203,48*68
###2023-11-09 13:06:55.441306$GLGSV,2,2,05,86,52,309,47,,,,,,,,,,,,*50
###2023-11-09 13:06:55.443867$GAGSV,1,1,04,07,72,255,45,08,49,042,45,13,64,160,44,26,56,311,45*6D
###2023-11-09 13:06:55.446446$GBGSV,2,1,06,11,24,180,42,14,65,006,45,24,19,133,43,26,23,082,43*66
###2023-11-09 13:06:55.448393$GBGSV,2,2,06,28,43,289,47,33,58,302,47,,,,,,,,*6F
###2023-11-09 13:06:55.449825$GNVTG,26.46,T,,M,0.97,N,1.80,K,A*12
###2023-11-09 13:06:55.530607$GNGGA,130655.70,3611.0474845,N,07544.9778812,W,1,24,0.6,0.957,M,-39.961,M,0.0,*6C
###2023-11-09 13:06:55.533190$GPGSV,2,1,07,05,21,090,42,10,18,292,42,13,24,045,41,15,62,037,46*75
###2023-11-09 13:06:55.535436$GPGSV,2,2,07,18,77,281,47,23,50,315,45,24,49,136,46,,,,*40
###2023-11-09 13:06:55.538019$GLGSV,2,1,05,70,50,016,35,71,48,288,48,80,17,091,43,85,58,203,48*68
###2023-11-09 13:06:55.539616$GLGSV,2,2,05,86,52,309,47,,,,,,,,,,,,*50
###2023-11-09 13:06:55.542168$GAGSV,1,1,04,07,72,255,45,08,49,042,44,13,64,160,44,26,56,311,45*6C
###2023-11-09 13:06:55.544741$GBGSV,2,1,06,11,24,180,42,14,65,006,45,24,19,133,43,26,23,082,43*66
###2023-11-09 13:06:55.546667$GBGSV,2,2,06,28,43,289,47,33,58,302,47,,,,,,,,*6F
###2023-11-09 13:06:55.548106$GNVTG,28.45,T,,M,1.07,N,1.98,K,A*1E
###2023-11-09 13:06:55.629891$GNGGA,130655.80,3611.0475107,N,07544.9778642,W,1,24,0.6,0.947,M,-39.961,M,0.0,*67
###2023-11-09 13:06:55.632491$GPGSV,2,1,07,05,21,090,42,10,18,292,43,13,24,045,41,15,62,037,46*74
###2023-11-09 13:06:55.634742$GPGSV,2,2,07,18,77,281,47,23,50,315,45,24,49,136,46,,,,*40
###2023-11-09 13:06:55.637326$GLGSV,2,1,05,70,50,016,35,71,48,288,48,80,17,091,43,85,58,203,48*68
###2023-11-09 13:06:55.638934$GLGSV,2,2,05,86,52,309,47,,,,,,,,,,,,*50
###2023-11-09 13:06:55.641501$GAGSV,1,1,04,07,72,255,45,08,49,042,44,13,64,160,44,26,56,311,45*6C
###2023-11-09 13:06:55.644072$GBGSV,2,1,06,11,24,180,42,14,65,006,45,24,19,133,43,26,23,082,43*66
###2023-11-09 13:06:55.646010$GBGSV,2,2,06,28,43,289,47,33,58,302,47,,,,,,,,*6F
###2023-11-09 13:06:55.647455$GNVTG,27.79,T,,M,1.07,N,1.98,K,A*1E
###2023-11-09 13:06:55.731610$GNGGA,130655.90,3611.0475349,N,07544.9778496,W,1,24,0.6,0.937,M,-39.961,M,0.0,*62
###2023-11-09 13:06:55.734200$GPGSV,2,1,07,05,21,090,42,10,18,292,43,13,24,045,41,15,62,037,45*77
###2023-11-09 13:06:55.736757$GPGSV,2,2,07,18,77,281,47,23,50,315,45,24,49,136,46,,,,*40
###2023-11-09 13:06:55.739483$GLGSV,2,1,05,70,50,016,35,71,48,288,48,80,17,091,43,85,58,203,48*68
###2023-11-09 13:06:55.741100$GLGSV,2,2,05,86,52,309,47,,,,,,,,,,,,*50
###2023-11-09 13:06:55.743688$GAGSV,1,1,04,07,72,255,45,08,49,042,44,13,64,160,44,26,56,311,45*6C
###2023-11-09 13:06:55.746259$GBGSV,2,1,06,11,24,180,42,14,65,006,45,24,19,133,43,26,23,082,43*66
###2023-11-09 13:06:55.748209$GBGSV,2,2,06,28,43,289,47,33,58,302,47,,,,,,,,*6F
###2023-11-09 13:06:55.749653$GNVTG,27.79,T,,M,0.87,N,1.62,K,A*12
###2023-11-09 13:06:55.831745$GNGGA,130656.00,3611.0475568,N,07544.9778371,W,1,24,0.6,0.941,M,-39.961,M,0.0,*62
###2023-11-09 13:06:55.834328$GPGSV,2,1,07,05,21,090,42,10,18,292,44,13,24,045,41,15,62,037,45*70
