###2023-11-09 13:06:36.856793$GNVTG,21.34,T,,M,0.97,N,1.80,K,A*10
###2023-11-09 13:06:36.935862$GNGGA,130637.10,3611.0436104,N,07544.9795033,W,1,24,0.6,0.868,M,-39.961,M,0.0,*61
###2023-11-09 13:06:36.938476$GPGSV,2,1,07,05,21,090,42,10,18,292,43,13,24,045,41,15,62,037,46*74
###2023-11-09 13:06:36.940729$GPGSV,2,2,07,18,77,281,47,23,49,314,45,24,49,137,46,,,,*48
###2023-11-09 13:06:36.943291$GLGSV,2,1,05,70,50,016,36,71,48,288,48,80,17,091,44,85,58,203,48*6C
###2023-11-09 13:06:36.944886$GLGSV,2,2,05,86,52,309,47,,,,,,,,,,,,*50
###2023-11-09 13:06:36.947455$GAGSV,1,1,04,07,72,255,45,08,49,042,44,13,64,160,44,26,56,311,45*6C
###2023-11-09 13:06:36.950025$GBGSV,2,1,06,11,24,180,41,14,65,006,46,24,19,133,43,26,23,082,41*64
###2023-11-09 13:06:36.951980$GBGSV,2,2,06,28,43,289,47,33,58,302,47,,,,,,,,*6F
###2023-11-09 13:06:36.953422$GNVTG,21.34,T,,M,0.86,N,1.58,K,A*15
###2023-11-09 13:06:37.032739$GNGGA,130637.20,3611.0436329,N,07544.9794909,W,1,24,0.6,0.859,M,-39.961,M,0.0,*6C
###2023-11-09 13:06:37.035343$GPGSV,2,1,07,05,21,090,42,10,18,292,43,13,24,045,41,15,62,037,46*74
###2023-11-09 13:06:37.037612$GPGSV,2,2,07,18,77,281,47,23,49,314,45,24,49,137,46,,,,*48
###2023-11-09 13:06:37.040179$GLGSV,2,1,05,70,50,016,36,71,48,288,48,80,17,091,44,85,58,203,48*6C
###2023-11-09 13:06:37.041790$GLGSV,2,2,05,86,52,309,47,,,,,,,,,,,,*50
###2023-11-09 13:06:37.044359$GAGSV,1,1,04,07,72,255,45,08,49,042,44,13,64,160,44,26,56,311,45*6C
###2023-11-09 13:06:37.046958$GBGSV,2,1,06,11,24,180,41,14,65,006,46,24,19,133,43,26,23,082,41*64
###2023-11-09 13:06:37.048895$GBGSV,2,2,06,28,43,289,47,33,58,302,47,,,,,,,,*6F
###2023-11-09 13:06:37.050320$GNVTG,21.34,T,,M,0.93,N,1.73,K,A*18
###2023-11-09 13:06:37.133109$GNGGA,130637.30,3611.0436557,N,07544.9794777,W,1,24,0.6,0.862,M,-39.961,M,0.0,*6D
###2023-11-09 13:06:37.135702$GPGSV,2,1,07,05,21,090,42,10,18,292,43,13,24,045,41,15,62,037,46*74
###2023-11-09 13:06:37.137983$GPGSV,2,2,07,18,77,281,47,23,49,314,45,24,49,137,46,,,,*48
###2023-11-09 13:06:37.140574$GLGSV,2,1,05,70,50,016,36,71,48,288,48,80,17,091,44,85,58,203,48*6C
###2023-11-09 13:06:37.142174$GLGSV,2,2,05,86,52,309,47,,,,,,,,,,,,*50
###2023-11-09 13:06:37.144726$GAGSV,1,1,04,07,72,255,45,08,49,042,44,13,64,160,44,26,56,311,45*6C
###2023-11-09 13:06:37.147322$GBGSV,2,1,06,11,24,180,41,14,65,006,46,24,19,133,43,26,23,082,42*67
###2023-11-09 13:06:37.149263$GBGSV,2,2,06,28,43,289,47,33,58,302,47,,,,,,,,*6F
###2023-11-09 13:06:37.150696$GNVTG,21.34,T,,M,0.89,N,1.66,K,A*17
###2023-11-09 13:06:37.237100$GNGGA,130637.40,3611.0436782,N,07544.9794663,W,1,24,0.6,0.866,M,-39.961,M,0.0,*60
###2023-11-09 13:06:37.239672$GPGSV,2,1,07,05,21,090,42,10,18,292,43,13,24,045,41,15,62,037,45*77
###2023-11-09 13:06:37.241918$GPGSV,2,2,07,18,77,281,47,23,49,314,45,24,49,137,46,,,,*48
###2023-11-09 13:06:37.244477$GLGSV,2,1,05,70,50,016,36,71,48,288,48,80,17,091,44,85,58,203,48*6C
###2023-11-09 13:06:37.246079$GLGSV,2,2,05,86,52,309,47,,,,,,,,,,,,*50
###2023-11-09 13:06:37.248633$GAGSV,1,1,04,07,72,255,45,08,49,042,44,13,64,160,44,26,56,311,45*6C
###2023-11-09 13:06:37.251217$GBGSV,2,1,06,11,24,180,41,14,65,006,46,24,19,133,43,26,23,082,42*67
###2023-11-09 13:06:37.253170$GBGSV,2,2,06,28,43,289,47,33,58,302,47,,,,,,,,*6F
###2023-11-09 13:06:37.254605$GNVTG,21.34,T,,M,0.89,N,1.66,K,A*17
###2023-11-09 13:06:37.331224$GNGGA,130637.50,3611.0437006,N,07544.9794582,W,1,24,0.6,0.869,M,-39.961,M,0.0,*68
###2023-11-09 13:06:37.333801$GPGSV,2,1,07,05,21,090,42,10,18,292,43,13,24,045,41,15,62,037,45*77
###2023-11-09 13:06:37.336038$GPGSV,2,2,07,18,77,281,47,23,49,314,45,24,49,137,45,,,,*4B
###2023-11-09 13:06:37.338633$GLGSV,2,1,05,70,50,016,36,71,48,288,48,80,17,091,44,85,58,203,48*6C
###2023-11-09 13:06:37.340243$GLGSV,2,2,05,86,52,309,47,,,,,,,,,,,,*50
###2023-11-09 13:06:37.342811$GAGSV,1,1,04,07,72,255,45,08,49,042,44,13,64,160,44,26,56,311,45*6C
###2023-11-09 13:06:37.345379$GBGSV,2,1,06,11,24,180,42,14,65,006,46,24,19,133,43,26,23,082,42*64
###2023-11-09 13:06:37.347322$GBGSV,2,2,06,28,43,289,47,33,58,302,47,,,,,,,,*6F
###2023-11-09 13:06:37.348754$GNVTG,21.34,T,,M,0.82,N,1.51,K,A*18
###2023-11-09 13:06:37.432721$GNGGA,130637.60,3611.0437207,N,07544.9794540,W,1,24,0.6,0.881,M,-39.961,M,0.0,*60
###2023-11-09 13:06:37.435305$GPGSV,2,1,07,05,21,090,42,10,18,292,43,13,24,045,41,15,62,037,45*77
###2023-11-09 13:06:37.437562$GPGSV,2,2,07,18,77,281,47,23,49,314,45,24,49,137,45,,,,*4B
###2023-11-09 13:06:37.440147$GLGSV,2,1,05,70,50,016,36,71,48,288,48,80,17,091,44,85,58,203,48*6C
###2023-11-09 13:06:37.441750$GLGSV,2,2,05,86,52,309,47,,,,,,,,,,,,*50
###2023-11-09 13:06:37.444322$GAGSV,1,1,04,07,72,255,45,08,49,042,44,13,64,160,44,26,56,311,45*6C
###2023-11-09 13:06:37.446891$GBGSV,2,1,06,11,24,180,42,14,65,006,46,24,19,133,43,26,23,082,42*64
###2023-11-09 13:06:37.448843$GBGSV,2,2,06,28,43,289,47,33,58,302,47,,,,,,,,*6F
###2023-11-09 13:06:37.450264$GNVTG,21.34,T,,M,0.70,N,1.30,K,A*12
###2023-11-09 13:06:37.532097$GNGGA,130637.70,3611.0437403,N,07544.9794528,W,1,24,0.6,0.897,M,-39.961,M,0.0,*6A
###2023-11-09 13:06:37.534671$GPGSV,2,1,07,05,21,090,42,10,18,292,43,13,24,045,41,15,62,037,45*77
###2023-11-09 13:06:37.536921$GPGSV,2,2,07,18,77,281,47,23,49,314,45,24,49,137,45,,,,*4B
###2023-11-09 13:06:37.539476$GLGSV,2,1,05,70,50,016,36,71,48,288,48,80,17,091,44,85,58,203,48*6C
###2023-11-09 13:06:37.541077$GLGSV,2,2,05,86,52,309,47,,,,,,,,,,,,*50
###2023-11-09 13:06:37.543629$GAGSV,1,1,04,07,72,255,45,08,49,042,44,13,64,160,44,26,56,311,45*6C
###2023-11-09 13:06:37.546183$GBGSV,2,1,06,11,24,180,42,14,65,006,46,24,19,133,43,26,23,082,42*64
###2023-11-09 13:06:37.548116$GBGSV,2,2,06,28,43,289,47,33,58,302,48,,,,,,,,*60
###2023-11-09 13:06:37.549537$GNVTG,21.34,T,,M,0.76,N,1.40,K,A*13
###2023-11-09 13:06:37.632241$GNGGA,130637.80,3611.0437617,N,07544.9794528,W,1,24,0.6,0.916,M,-39.961,M,0.0,*6A
###2023-11-09 13:06:37.634830$GPGSV,2,1,07,05,21,090,42,10,18,292,43,13,24,045,42,15,62,037,45*74
###2023-11-09 13:06:37.637093$GPGSV,2,2,07,18,77,281,47,23,49,314,45,24,49,137,45,,,,*4B
###2023-11-09 13:06:37.639677$GLGSV,2,1,05,70,50,016,36,71,48,288,48,80,17,091,44,85,58,203,48*6C
###2023-11-09 13:06:37.641275$GLGSV,2,2,05,86,52,309,47,,,,,,,,,,,,*50
###2023-11-09 13:06:37.643843$GAGSV,1,1,04,07,72,255,45,08,49,042,44,13,64,160,44,26,56,311,45*6C
###2023-11-09 13:06:37.646413$GBGSV,2,1,06,11,24,180,42,14,65,006,46,24,19,133,43,26,23,082,42*64
###2023-11-09 13:06:37.648361$GBGSV,2,2,06,28,43,289,47,33,58,302,47,,,,,,,,*6F
###2023-11-09 13:06:37.649791$GNVTG,21.34,T,,M,0.84,N,1.55,K,A*1A
###2023-11-09 13:06:37.733234$GNGGA,130637.90,3611.0437869,N,07544.9794533,W,1,24,0.6,0.944,M,-39.961,M,0.0,*61
###2023-11-09 13:06:37.735825$GPGSV,2,1,07,05,21,090,42,10,18,292,43,13,24,045,42,15,62,037,45*74
###2023-11-09 13:06:37.738091$GPGSV,2,2,07,18,77,281,47,23,49,314,45,24,49,137,45,,,,*4B
###2023-11-09 13:06:37.740672$GLGSV,2,1,05,70,50,016,36,71,48,288,48,80,17,091,44,85,58,203,48*6C
###2023-11-09 13:06:37.742275$GLGSV,2,2,05,86,52,309,47,,,,,,,,,,,,*50
###2023-11-09 13:06:37.744857$GAGSV,1,1,04,07,72,255,45,08,49,042,44,13,64,160,44,26,56,311,45*6C
###2023-11-09 13:06:37.747447$GBGSV,2,1,06,11,24,180,42,14,65,006,46,24,19,133,43,26,23,082,42*64
###2023-11-09 13:06:37.749386$GBGSV,2,2,06,28,43,289,47,33,58,302,47,,,,,,,,*6F
###2023-11-09 13:06:37.750842$GNVTG,358.55,T,,M,1.03,N,1.91,K,A*26
###2023-11-09 13:06:37.837747$GNGGA,130638.00,3611.0438158,N,07544.9794543,W,1,24,0.6,0.970,M,-39.961,M,0.0,*63
###2023-11-09 13:06:37.840328$GPGSV,2,1,07,05,21,090,42,10,18,292,43,13,24,045,41,15,62,037,46*74
###2023-11-09 13:06:37.842575$GPGSV,2,2,07,18,77,281,47,23,49,314,45,24,49,137,45,,,,*4B
###2023-11-09 13:06:37.845136$GLGSV,2,1,05,70,50,016,36,71,48,288,48,80,17,091,44,85,58,203,48*6C
###2023-11-09 13:06:37.846733$GLGSV,2,2,05,86,52,309,47,,,,,,,,,,,,*50
###2023-11-09 13:06:37.849299$GAGSV,1,1,04,07,72,255,45,08,49,042,44,13,64,160,44,26,56,311,45*6C
###2023-11-09 13:06:37.851878$GBGSV,2,1,06,11,24,180,41,14,65,006,46,24,19,133,43,26,23,082,42*67
###2023-11-09 13:06:37.853821$GBGSV,2,2,06,28,43,289,47,33,58,302,47,,,,,,,,*6F
###2023-11-09 13:06:37.855287$GNVTG,357.38,T,,M,1.09,N,2.02,K,A*21
###2023-11-09 13:06:37.936247$GNGGA,130638.10,3611.0438438,N,07544.9794560,W,1,24,0.6,0.992,M,-39.961,M,0.0,*6C
###2023-11-09 13:06:37.938891$GPGSV,2,1,07,05,21,090,42,10,18,292,43,13,24,045,41,15,62,037,46*74
###2023-11-09 13:06:37.941163$GPGSV,2,2,07,18,77,281,47,23,50,315,45,24,49,137,45,,,,*42
###2023-11-09 13:06:37.943753$GLGSV,2,1,05,70,50,016,36,71,48,288,48,80,17,091,44,85,58,203,48*6C
###2023-11-09 13:06:37.945367$GLGSV,2,2,05,86,52,309,47,,,,,,,,,,,,*50
###2023-11-09 13:06:37.947950$GAGSV,1,1,04,07,72,255,45,08,49,042,44,13,64,160,44,26,56,311,45*6C
###2023-11-09 13:06:37.950539$GBGSV,2,1,06,11,24,180,41,14,65,006,46,24,19,133,43,26,23,082,42*67
###2023-11-09 13:06:37.952478$GBGSV,2,2,06,28,43,289,47,33,58,302,47,,,,,,,,*6F
###2023-11-09 13:06:37.953943$GNVTG,357.38,T,,M,0.97,N,1.80,K,A*2E
