###2023-11-09 13:10:37.631008$GNGGA,131037.80,3611.0657102,N,07544.8792623,W,1,24,0.6,0.514,M,-39.960,M,0.0,*6A
###2023-11-09 13:10:37.633624$GPGSV,2,1,07,05,20,091,44,10,19,294,42,13,23,045,44,15,60,038,46*7B
###2023-11-09 13:10:37.635891$GPGSV,2,2,07,18,78,272,46,23,51,317,47,24,51,133,46,,,,*4F
###2023-11-09 13:10:37.638485$GLGSV,2,1,05,70,49,019,36,71,48,291,48,80,19,089,45,85,56,202,48*6A
###2023-11-09 13:10:37.640101$GLGSV,2,2,05,86,54,306,48,,,,,,,,,,,,*56
###2023-11-09 13:10:37.642673$GAGSV,1,1,04,07,73,259,45,08,48,043,45,13,63,161,44,26,57,310,45*66
###2023-11-09 13:10:37.645252$GBGSV,2,1,06,11,22,180,41,14,65,009,45,24,21,132,44,26,23,080,44*64
###2023-11-09 13:10:37.647206$GBGSV,2,2,06,28,43,286,46,33,59,305,47,,,,,,,,*67
###2023-11-09 13:10:37.648687$GNVTG,302.94,T,,M,5.02,N,9.29,K,A*2A
###2023-11-09 13:10:37.732237$GNGGA,131037.90,3611.0657887,N,07544.8794083,W,1,24,0.6,0.526,M,-39.960,M,0.0,*64
###2023-11-09 13:10:37.734833$GPGSV,2,1,07,05,20,091,43,10,19,294,42,13,23,045,44,15,60,038,46*7C
###2023-11-09 13:10:37.737108$GPGSV,2,2,07,18,78,272,46,23,51,317,47,24,51,133,46,,,,*4F
###2023-11-09 13:10:37.739683$GLGSV,2,1,05,70,49,019,36,71,48,291,48,80,19,089,45,85,56,202,48*6A
###2023-11-09 13:10:37.741296$GLGSV,2,2,05,86,54,306,48,,,,,,,,,,,,*56
###2023-11-09 13:10:37.743862$GAGSV,1,1,04,07,73,259,45,08,48,043,44,13,63,161,45,26,57,310,45*66
###2023-11-09 13:10:37.746446$GBGSV,2,1,06,11,22,180,41,14,65,009,45,24,21,132,44,26,23,080,44*64
###2023-11-09 13:10:37.748403$GBGSV,2,2,06,28,43,286,46,33,59,305,47,,,,,,,,*67
###2023-11-09 13:10:37.749873$GNVTG,304.16,T,,M,5.13,N,9.50,K,A*28
###2023-11-09 13:10:37.835723$GNGGA,131038.00,3611.0658663,N,07544.8795565,W,1,24,0.6,0.526,M,-39.960,M,0.0,*65
###2023-11-09 13:10:37.838325$GPGSV,2,1,07,05,20,091,43,10,19,294,42,13,23,045,43,15,60,038,46*7B
###2023-11-09 13:10:37.840573$GPGSV,2,2,07,18,78,272,46,23,51,317,46,24,51,133,46,,,,*4E
###2023-11-09 13:10:37.843146$GLGSV,2,1,05,70,49,019,36,71,48,291,48,80,19,089,45,85,56,202,48*6A
###2023-11-09 13:10:37.844752$GLGSV,2,2,05,86,54,306,48,,,,,,,,,,,,*56
###2023-11-09 13:10:37.847322$GAGSV,1,1,04,07,73,259,45,08,48,043,44,13,63,161,45,26,57,310,45*66
###2023-11-09 13:10:37.849890$GBGSV,2,1,06,11,22,180,42,14,65,009,45,24,21,132,44,26,23,080,44*67
###2023-11-09 13:10:37.851821$GBGSV,2,2,06,28,43,286,46,33,59,305,47,,,,,,,,*67
###2023-11-09 13:10:37.853278$GNVTG,301.61,T,,M,5.09,N,9.43,K,A*24
###2023-11-09 13:10:37.934984$GNGGA,131038.10,3611.0659391,N,07544.8797073,W,1,24,0.6,0.516,M,-39.960,M,0.0,*6E
###2023-11-09 13:10:37.937617$GPGSV,2,1,07,05,20,091,44,10,19,294,42,13,23,045,43,15,60,038,46*7C
###2023-11-09 13:10:37.939880$GPGSV,2,2,07,18,78,272,46,23,51,317,46,24,51,133,46,,,,*4E
###2023-11-09 13:10:37.942460$GLGSV,2,1,05,70,49,019,36,71,48,291,48,80,19,089,45,85,56,202,48*6A
###2023-11-09 13:10:37.944064$GLGSV,2,2,05,86,54,306,48,,,,,,,,,,,,*56
###2023-11-09 13:10:37.946633$GAGSV,1,1,04,07,73,259,45,08,48,043,44,13,63,161,45,26,57,310,45*66
###2023-11-09 13:10:37.949245$GBGSV,2,1,06,11,22,180,42,14,65,009,44,24,21,132,44,26,23,080,44*66
###2023-11-09 13:10:37.951179$GBGSV,2,2,06,28,43,286,46,33,59,305,47,,,,,,,,*67
###2023-11-09 13:10:37.952645$GNVTG,299.99,T,,M,5.03,N,9.32,K,A*2F
###2023-11-09 13:10:38.035237$GNGGA,131038.20,3611.0660083,N,07544.8798572,W,1,24,0.6,0.520,M,-39.960,M,0.0,*69
###2023-11-09 13:10:38.037848$GPGSV,2,1,07,05,20,091,44,10,19,294,41,13,23,045,43,15,60,038,46*7F
###2023-11-09 13:10:38.040107$GPGSV,2,2,07,18,78,272,46,23,51,317,46,24,51,133,46,,,,*4E
###2023-11-09 13:10:38.042685$GLGSV,2,1,05,70,49,019,36,71,48,291,48,80,19,089,46,85,56,202,48*69
###2023-11-09 13:10:38.044286$GLGSV,2,2,05,86,54,306,48,,,,,,,,,,,,*56
###2023-11-09 13:10:38.046850$GAGSV,1,1,04,07,73,259,45,08,48,043,45,13,63,161,45,26,57,310,45*67
###2023-11-09 13:10:38.049423$GBGSV,2,1,06,11,22,180,42,14,65,009,45,24,21,132,44,26,23,080,44*67
###2023-11-09 13:10:38.051360$GBGSV,2,2,06,28,43,286,46,33,59,305,47,,,,,,,,*67
###2023-11-09 13:10:38.052823$GNVTG,299.30,T,,M,4.96,N,9.18,K,A*29
###2023-11-09 13:10:38.136973$GNGGA,131038.30,3611.0660768,N,07544.8800067,W,1,24,0.6,0.529,M,-39.960,M,0.0,*6C
###2023-11-09 13:10:38.139541$GPGSV,2,1,07,05,20,091,44,10,19,294,41,13,23,045,44,15,60,038,46*78
###2023-11-09 13:10:38.141789$GPGSV,2,2,07,18,78,272,46,23,51,317,45,24,51,133,46,,,,*4D
###2023-11-09 13:10:38.144341$GLGSV,2,1,05,70,49,019,36,71,48,291,48,80,19,089,46,85,56,202,48*69
###2023-11-09 13:10:38.145940$GLGSV,2,2,05,86,54,306,48,,,,,,,,,,,,*56
###2023-11-09 13:10:38.148503$GAGSV,1,1,04,07,73,259,45,08,48,043,45,13,63,161,45,26,57,310,45*67
###2023-11-09 13:10:38.151063$GBGSV,2,1,06,11,22,180,41,14,65,009,45,24,21,132,44,26,23,080,45*65
###2023-11-09 13:10:38.152987$GBGSV,2,2,06,28,43,286,46,33,59,305,47,,,,,,,,*67
###2023-11-09 13:10:38.154442$GNVTG,299.75,T,,M,4.98,N,9.22,K,A*2F
###2023-11-09 13:10:38.232021$GNGGA,131038.40,3611.0661425,N,07544.8801561,W,1,24,0.6,0.546,M,-39.960,M,0.0,*6B
###2023-11-09 13:10:38.234640$GPGSV,2,1,07,05,20,091,44,10,19,294,41,13,23,045,44,15,60,038,46*78
###2023-11-09 13:10:38.236895$GPGSV,2,2,07,18,78,272,46,23,51,317,45,24,51,133,45,,,,*4E
###2023-11-09 13:10:38.239493$GLGSV,2,1,05,70,49,019,36,71,48,291,48,80,19,089,46,85,56,202,48*69
###2023-11-09 13:10:38.241102$GLGSV,2,2,05,86,54,306,48,,,,,,,,,,,,*56
###2023-11-09 13:10:38.243673$GAGSV,1,1,04,07,73,259,45,08,48,043,45,13,63,161,45,26,57,310,45*67
###2023-11-09 13:10:38.246255$GBGSV,2,1,06,11,22,180,41,14,65,009,45,24,21,132,44,26,23,080,45*65
###2023-11-09 13:10:38.248214$GBGSV,2,2,06,28,43,286,46,33,59,305,47,,,,,,,,*67
###2023-11-09 13:10:38.249686$GNVTG,297.08,T,,M,4.88,N,9.04,K,A*2E
###2023-11-09 13:10:38.333984$GNGGA,131038.50,3611.0661990,N,07544.8803073,W,1,24,0.6,0.555,M,-39.960,M,0.0,*6F
###2023-11-09 13:10:38.336574$GPGSV,2,1,07,05,20,091,45,10,19,294,41,13,23,045,44,15,60,038,46*79
###2023-11-09 13:10:38.338841$GPGSV,2,2,07,18,78,272,46,23,51,317,46,24,51,133,45,,,,*4D
###2023-11-09 13:10:38.341414$GLGSV,2,1,05,70,49,019,36,71,48,291,48,80,19,089,46,85,56,202,48*69
###2023-11-09 13:10:38.343016$GLGSV,2,2,05,86,54,306,48,,,,,,,,,,,,*56
###2023-11-09 13:10:38.345574$GAGSV,1,1,04,07,73,259,44,08,48,043,45,13,63,161,44,26,57,310,45*67
###2023-11-09 13:10:38.348153$GBGSV,2,1,06,11,22,180,41,14,65,009,45,24,21,132,44,26,23,080,45*65
###2023-11-09 13:10:38.350082$GBGSV,2,2,06,28,43,286,46,33,59,305,47,,,,,,,,*67
###2023-11-09 13:10:38.351541$GNVTG,292.42,T,,M,4.74,N,8.78,K,A*2C
###2023-11-09 13:10:38.433992$GNGGA,131038.60,3611.0662442,N,07544.8804592,W,1,24,0.6,0.566,M,-39.960,M,0.0,*60
###2023-11-09 13:10:38.436577$GPGSV,2,1,07,05,20,091,44,10,19,294,41,13,23,045,44,15,60,038,46*78
###2023-11-09 13:10:38.438864$GPGSV,2,2,07,18,78,272,46,23,51,317,46,24,51,133,45,,,,*4D
###2023-11-09 13:10:38.441419$GLGSV,2,1,05,70,49,019,36,71,48,291,48,80,19,089,46,85,56,202,48*69
###2023-11-09 13:10:38.443012$GLGSV,2,2,05,86,54,306,48,,,,,,,,,,,,*56
###2023-11-09 13:10:38.445570$GAGSV,1,1,04,07,73,259,45,08,48,043,45,13,63,161,45,26,57,310,45*67
###2023-11-09 13:10:38.448152$GBGSV,2,1,06,11,22,180,41,14,65,009,45,24,21,132,44,26,23,080,45*65
###2023-11-09 13:10:38.450069$GBGSV,2,2,06,28,43,286,46,33,59,305,47,,,,,,,,*67
###2023-11-09 13:10:38.451521$GNVTG,287.75,T,,M,4.65,N,8.60,K,A*25
###2023-11-09 13:10:38.532609$GNGGA,131038.70,3611.0662816,N,07544.8806146,W,1,24,0.6,0.562,M,-39.960,M,0.0,*67
###2023-11-09 13:10:38.535196$GPGSV,2,1,07,05,20,091,44,10,19,294,41,13,23,045,43,15,60,038,46*7F
###2023-11-09 13:10:38.537469$GPGSV,2,2,07,18,78,272,46,23,51,317,46,24,51,133,45,,,,*4D
###2023-11-09 13:10:38.540058$GLGSV,2,1,05,70,49,019,36,71,48,291,48,80,19,089,46,85,56,202,48*69
###2023-11-09 13:10:38.541662$GLGSV,2,2,05,86,54,306,48,,,,,,,,,,,,*56
###2023-11-09 13:10:38.544223$GAGSV,1,1,04,07,73,259,45,08,48,043,45,13,63,161,45,26,57,310,45*67
###2023-11-09 13:10:38.546811$GBGSV,2,1,06,11,22,180,42,14,65,009,45,24,21,132,44,26,23,080,45*66
###2023-11-09 13:10:38.548753$GBGSV,2,2,06,28,43,286,46,33,59,305,47,,,,,,,,*67
###2023-11-09 13:10:38.550224$GNVTG,285.32,T,,M,4.70,N,8.71,K,A*20
###2023-11-09 13:10:38.634012$GNGGA,131038.80,3611.0663177,N,07544.8807686,W,1,24,0.6,0.550,M,-39.960,M,0.0,*6C
###2023-11-09 13:10:38.636615$GPGSV,2,1,07,05,20,091,43,10,19,294,41,13,23,045,43,15,60,038,46*78
###2023-11-09 13:10:38.638893$GPGSV,2,2,07,18,78,272,46,23,51,317,46,24,51,133,45,,,,*4D
###2023-11-09 13:10:38.641477$GLGSV,2,1,05,70,49,019,36,71,48,291,48,80,19,089,46,85,56,202,48*69
###2023-11-09 13:10:38.643089$GLGSV,2,2,05,86,54,306,48,,,,,,,,,,,,*56
###2023-11-09 13:10:38.645666$GAGSV,1,1,04,07,73,259,45,08,48,043,45,13,63,161,46,26,57,310,45*64
###2023-11-09 13:10:38.648275$GBGSV,2,1,06,11,22,180,42,14,65,009,45,24,21,132,45,26,23,080,45*67
###2023-11-09 13:10:38.650214$GBGSV,2,2,06,28,43,286,46,33,59,305,47,,,,,,,,*67
###2023-11-09 13:10:38.651673$GNVTG,286.91,T,,M,4.53,N,8.39,K,A*27
###2023-11-09 13:10:38.732990$GNGGA,131038.90,3611.0663579,N,07544.8809143,W,1,24,0.6,0.546,M,-39.960,M,0.0,*60
