###2023-11-09 13:06:35.748714$GBGSV,2,2,06,28,43,289,46,33,58,302,47,,,,,,,,*6E
###2023-11-09 13:06:35.750211$GNVTG,344.23,T,,M,1.01,N,1.87,K,A*2F
###2023-11-09 13:06:35.837264$GNGGA,130636.00,3611.0433443,N,07544.9795974,W,1,24,0.6,0.958,M,-39.961,M,0.0,*6A
###2023-11-09 13:06:35.839874$GPGSV,2,1,07,05,21,090,41,10,18,292,43,13,24,045,41,15,62,037,46*77
###2023-11-09 13:06:35.842136$GPGSV,2,2,07,18,77,281,47,23,49,314,45,24,49,137,46,,,,*48
###2023-11-09 13:06:35.844703$GLGSV,2,1,05,70,50,016,35,71,48,288,48,80,17,091,44,85,58,203,48*6F
###2023-11-09 13:06:35.846316$GLGSV,2,2,05,86,52,309,47,,,,,,,,,,,,*50
###2023-11-09 13:06:35.848893$GAGSV,1,1,04,07,72,255,45,08,49,042,44,13,64,160,44,26,56,311,45*6C
###2023-11-09 13:06:35.851481$GBGSV,2,1,06,11,24,180,41,14,65,006,45,24,19,133,43,26,23,082,41*67
###2023-11-09 13:06:35.853418$GBGSV,2,2,06,28,43,289,46,33,58,302,47,,,,,,,,*6E
###2023-11-09 13:06:35.854880$GNVTG,353.74,T,,M,1.07,N,1.98,K,A*23
###2023-11-09 13:06:35.944237$GNGGA,130636.10,3611.0433724,N,07544.9796005,W,1,24,0.6,0.929,M,-39.961,M,0.0,*63
###2023-11-09 13:06:35.946821$GPGSV,2,1,07,05,21,090,41,10,18,292,43,13,24,045,41,15,62,037,46*77
###2023-11-09 13:06:35.949102$GPGSV,2,2,07,18,77,281,47,23,49,314,45,24,49,137,46,,,,*48
###2023-11-09 13:06:35.951679$GLGSV,2,1,05,70,50,016,35,71,48,288,48,80,17,091,44,85,58,203,48*6F
###2023-11-09 13:06:35.953292$GLGSV,2,2,05,86,52,309,47,,,,,,,,,,,,*50
###2023-11-09 13:06:35.955869$GAGSV,1,1,04,07,72,255,45,08,49,042,44,13,64,160,44,26,56,311,45*6C
###2023-11-09 13:06:35.958474$GBGSV,2,1,06,11,24,180,41,14,65,006,46,24,19,133,43,26,23,082,41*64
###2023-11-09 13:06:35.960417$GBGSV,2,2,06,28,43,289,46,33,58,302,47,,,,,,,,*6E
###2023-11-09 13:06:35.961884$GNVTG,353.74,T,,M,0.95,N,1.76,K,A*29
###2023-11-09 13:06:36.034844$GNGGA,130636.20,3611.0433956,N,07544.9796014,W,1,24,0.6,0.910,M,-39.961,M,0.0,*61
###2023-11-09 13:06:36.037438$GPGSV,2,1,07,05,21,090,42,10,18,292,43,13,24,045,41,15,62,037,46*74
###2023-11-09 13:06:36.039685$GPGSV,2,2,07,18,77,281,47,23,49,314,45,24,49,137,46,,,,*48
###2023-11-09 13:06:36.042256$GLGSV,2,1,05,70,50,016,35,71,48,288,48,80,17,091,45,85,58,203,48*6E
###2023-11-09 13:06:36.043854$GLGSV,2,2,05,86,52,309,47,,,,,,,,,,,,*50
###2023-11-09 13:06:36.046416$GAGSV,1,1,04,07,72,255,45,08,49,042,44,13,64,160,44,26,56,311,45*6C
###2023-11-09 13:06:36.048998$GBGSV,2,1,06,11,24,180,41,14,65,006,46,24,19,133,43,26,23,082,41*64
###2023-11-09 13:06:36.050939$GBGSV,2,2,06,28,43,289,46,33,58,302,47,,,,,,,,*6E
###2023-11-09 13:06:36.052419$GNVTG,353.74,T,,M,0.74,N,1.37,K,A*23
###2023-11-09 13:06:36.131995$GNGGA,130636.30,3611.0434139,N,07544.9796000,W,1,24,0.6,0.897,M,-39.961,M,0.0,*6D
###2023-11-09 13:06:36.134585$GPGSV,2,1,07,05,21,090,42,10,18,292,43,13,24,045,41,15,62,037,46*74
###2023-11-09 13:06:36.136846$GPGSV,2,2,07,18,77,281,47,23,49,314,45,24,49,137,46,,,,*48
###2023-11-09 13:06:36.139418$GLGSV,2,1,05,70,50,016,36,71,48,288,48,80,17,091,45,85,58,203,48*6D
###2023-11-09 13:06:36.141025$GLGSV,2,2,05,86,52,309,47,,,,,,,,,,,,*50
###2023-11-09 13:06:36.143572$GAGSV,1,1,04,07,72,255,45,08,49,042,44,13,64,160,44,26,56,311,45*6C
###2023-11-09 13:06:36.146142$GBGSV,2,1,06,11,24,180,41,14,65,006,46,24,19,133,43,26,23,082,41*64
###2023-11-09 13:06:36.148080$GBGSV,2,2,06,28,43,289,47,33,58,302,47,,,,,,,,*6F
###2023-11-09 13:06:36.149544$GNVTG,353.74,T,,M,0.60,N,1.12,K,A*21
###2023-11-09 13:06:36.235614$GNGGA,130636.40,3611.0434310,N,07544.9795965,W,1,24,0.6,0.890,M,-39.961,M,0.0,*6D
###2023-11-09 13:06:36.238232$GPGSV,2,1,07,05,21,090,42,10,18,292,44,13,24,045,41,15,62,037,46*73
###2023-11-09 13:06:36.240488$GPGSV,2,2,07,18,77,281,47,23,49,314,45,24,49,137,46,,,,*48
###2023-11-09 13:06:36.243045$GLGSV,2,1,05,70,50,016,36,71,48,288,48,80,17,091,45,85,58,203,48*6D
###2023-11-09 13:06:36.244639$GLGSV,2,2,05,86,52,309,47,,,,,,,,,,,,*50
###2023-11-09 13:06:36.247197$GAGSV,1,1,04,07,72,255,45,08,49,042,45,13,64,160,44,26,56,311,45*6D
###2023-11-09 13:06:36.249771$GBGSV,2,1,06,11,24,180,41,14,65,006,46,24,19,133,43,26,23,082,41*64
###2023-11-09 13:06:36.251716$GBGSV,2,2,06,28,43,289,48,33,58,302,47,,,,,,,,*60
###2023-11-09 13:06:36.253176$GNVTG,353.74,T,,M,0.66,N,1.22,K,A*24
###2023-11-09 13:06:36.332969$GNGGA,130636.50,3611.0434504,N,07544.9795896,W,1,24,0.6,0.894,M,-39.961,M,0.0,*66
###2023-11-09 13:06:36.335552$GPGSV,2,1,07,05,21,090,42,10,18,292,44,13,24,045,41,15,62,037,46*73
###2023-11-09 13:06:36.337809$GPGSV,2,2,07,18,77,281,47,23,49,314,45,24,49,137,46,,,,*48
###2023-11-09 13:06:36.340369$GLGSV,2,1,05,70,50,016,36,71,48,288,48,80,17,091,44,85,58,203,48*6C
###2023-11-09 13:06:36.341962$GLGSV,2,2,05,86,52,309,47,,,,,,,,,,,,*50
###2023-11-09 13:06:36.344497$GAGSV,1,1,04,07,72,255,45,08,49,042,45,13,64,160,44,26,56,311,45*6D
###2023-11-09 13:06:36.347053$GBGSV,2,1,06,11,24,180,41,14,65,006,46,24,19,133,43,26,23,082,41*64
###2023-11-09 13:06:36.348977$GBGSV,2,2,06,28,43,289,47,33,58,302,47,,,,,,,,*6F
###2023-11-09 13:06:36.350426$GNVTG,353.74,T,,M,0.82,N,1.51,K,A*2A
###2023-11-09 13:06:36.432843$GNGGA,130636.60,3611.0434737,N,07544.9795779,W,1,24,0.6,0.900,M,-39.961,M,0.0,*65
###2023-11-09 13:06:36.435437$GPGSV,2,1,07,05,21,090,42,10,18,292,44,13,24,045,41,15,62,037,46*73
###2023-11-09 13:06:36.437737$GPGSV,2,2,07,18,77,281,47,23,49,314,45,24,49,137,46,,,,*48
###2023-11-09 13:06:36.440316$GLGSV,2,1,05,70,50,016,36,71,48,288,48,80,17,091,44,85,58,203,48*6C
###2023-11-09 13:06:36.441920$GLGSV,2,2,05,86,52,309,47,,,,,,,,,,,,*50
###2023-11-09 13:06:36.444491$GAGSV,1,1,04,07,72,255,45,08,49,042,44,13,64,160,44,26,56,311,45*6C
###2023-11-09 13:06:36.447095$GBGSV,2,1,06,11,24,180,42,14,65,006,46,24,19,133,43,26,23,082,41*67
###2023-11-09 13:06:36.449038$GBGSV,2,2,06,28,43,289,47,33,58,302,47,,,,,,,,*6F
###2023-11-09 13:06:36.450467$GNVTG,23.03,T,,M,1.01,N,1.87,K,A*1F
###2023-11-09 13:06:36.533731$GNGGA,130636.70,3611.0435009,N,07544.9795630,W,1,24,0.6,0.904,M,-39.961,M,0.0,*67
###2023-11-09 13:06:36.536331$GPGSV,2,1,07,05,21,090,42,10,18,292,44,13,24,045,41,15,62,037,46*73
###2023-11-09 13:06:36.538620$GPGSV,2,2,07,18,77,281,47,23,49,314,45,24,49,137,46,,,,*48
###2023-11-09 13:06:36.541223$GLGSV,2,1,05,70,50,016,36,71,48,288,48,80,17,091,44,85,58,203,48*6C
###2023-11-09 13:06:36.542836$GLGSV,2,2,05,86,52,309,47,,,,,,,,,,,,*50
###2023-11-09 13:06:36.545421$GAGSV,1,1,04,07,72,255,45,08,49,042,44,13,64,160,44,26,56,311,45*6C
###2023-11-09 13:06:36.548010$GBGSV,2,1,06,11,24,180,42,14,65,006,46,24,19,133,43,26,23,082,41*67
###2023-11-09 13:06:36.549941$GBGSV,2,2,06,28,43,289,47,33,58,302,47,,,,,,,,*6F
###2023-11-09 13:06:36.551371$GNVTG,22.78,T,,M,1.15,N,2.12,K,A*18
###2023-11-09 13:06:36.633117$GNGGA,130636.80,3611.0435308,N,07544.9795469,W,1,24,0.6,0.901,M,-39.961,M,0.0,*61
###2023-11-09 13:06:36.635713$GPGSV,2,1,07,05,21,090,42,10,18,292,44,13,24,045,41,15,62,037,46*73
###2023-11-09 13:06:36.637983$GPGSV,2,2,07,18,77,281,47,23,49,314,45,24,49,137,46,,,,*48
###2023-11-09 13:06:36.640529$GLGSV,2,1,05,70,50,016,36,71,48,288,48,80,17,091,44,85,58,203,48*6C
###2023-11-09 13:06:36.642114$GLGSV,2,2,05,86,52,309,47,,,,,,,,,,,,*50
###2023-11-09 13:06:36.644650$GAGSV,1,1,04,07,72,255,45,08,49,042,44,13,64,160,44,26,56,311,45*6C
###2023-11-09 13:06:36.647222$GBGSV,2,1,06,11,24,180,42,14,65,006,46,24,19,133,43,26,23,082,41*67
###2023-11-09 13:06:36.649146$GBGSV,2,2,06,28,43,289,47,33,58,302,47,,,,,,,,*6F
###2023-11-09 13:06:36.650573$GNVTG,22.86,T,,M,1.22,N,2.27,K,A*1B
###2023-11-09 13:06:36.732728$GNGGA,130636.90,3611.0435608,N,07544.9795311,W,1,24,0.6,0.894,M,-39.961,M,0.0,*60
###2023-11-09 13:06:36.735327$GPGSV,2,1,07,05,21,090,42,10,18,292,44,13,24,045,41,15,62,037,46*73
###2023-11-09 13:06:36.737607$GPGSV,2,2,07,18,77,281,47,23,49,314,45,24,49,137,46,,,,*48
###2023-11-09 13:06:36.740171$GLGSV,2,1,05,70,50,016,36,71,48,288,48,80,17,091,44,85,58,203,48*6C
###2023-11-09 13:06:36.741777$GLGSV,2,2,05,86,52,309,47,,,,,,,,,,,,*50
###2023-11-09 13:06:36.744335$GAGSV,1,1,04,07,72,255,45,08,49,042,44,13,64,160,44,26,56,311,45*6C
###2023-11-09 13:06:36.746898$GBGSV,2,1,06,11,24,180,42,14,65,006,46,24,19,133,43,26,23,082,41*67
###2023-11-09 13:06:36.749157$GBGSV,2,2,06,28,43,289,47,33,58,302,47,,,,,,,,*6F
###2023-11-09 13:06:36.750613$GNVTG,21.34,T,,M,1.17,N,2.16,K,A*15
###2023-11-09 13:06:36.838879$GNGGA,130637.00,3611.0435876,N,07544.9795164,W,1,24,0.6,0.881,M,-39.961,M,0.0,*6B
###2023-11-09 13:06:36.841476$GPGSV,2,1,07,05,21,090,42,10,18,292,42,13,24,045,41,15,62,037,46*75
###2023-11-09 13:06:36.843728$GPGSV,2,2,07,18,77,281,47,23,49,314,45,24,49,137,46,,,,*48
###2023-11-09 13:06:36.846305$GLGSV,2,1,05,70,50,016,36,71,48,288,48,80,17,091,44,85,58,203,48*6C
###2023-11-09 13:06:36.847936$GLGSV,2,2,05,86,52,309,47,,,,,,,,,,,,*50
###2023-11-09 13:06:36.850511$GAGSV,1,1,04,07,72,255,45,08,49,042,44,13,64,160,44,26,56,311,45*6C
###2023-11-09 13:06:36.853094$GBGSV,2,1,06,11,24,180,41,14,65,006,46,24,19,133,43,26,23,082,41*64
###2023-11-09 13:06:36.855031$GBGSV,2,2,06,28,43,289,47,33,58,302,47,,,,,,,,*6F
