###2023-11-09 13:06:39.135176$GPGSV,2,1,07,05,21,090,42,10,18,292,44,13,24,045,40,15,62,037,46*72
###2023-11-09 13:06:39.137488$GPGSV,2,2,07,18,77,281,47,23,50,315,45,24,49,136,45,,,,*43
###2023-11-09 13:06:39.140067$GLGSV,2,1,05,70,50,016,36,71,48,288,48,80,17,091,45,85,58,203,48*6D
###2023-11-09 13:06:39.141678$GLGSV,2,2,05,86,52,309,47,,,,,,,,,,,,*50
###2023-11-09 13:06:39.144240$GAGSV,1,1,04,07,72,255,45,08,49,042,44,13,64,160,44,26,56,311,45*6C
###2023-11-09 13:06:39.146814$GBGSV,2,1,06,11,24,180,41,14,65,006,46,24,19,133,42,26,23,082,42*66
###2023-11-09 13:06:39.148774$GBGSV,2,2,06,28,43,289,47,33,58,302,47,,,,,,,,*6F
###2023-11-09 13:06:39.150244$GNVTG,357.38,T,,M,0.08,N,0.14,K,A*24
###2023-11-09 13:06:39.233015$GNGGA,130639.40,3611.0439812,N,07544.9794286,W,1,24,0.6,1.072,M,-39.961,M,0.0,*64
###2023-11-09 13:06:39.235641$GPGSV,2,1,07,05,21,090,42,10,18,292,44,13,24,045,40,15,62,037,46*72
###2023-11-09 13:06:39.237936$GPGSV,2,2,07,18,77,281,46,23,50,315,45,24,49,136,46,,,,*41
###2023-11-09 13:06:39.240528$GLGSV,2,1,05,70,50,016,36,71,48,288,48,80,17,091,44,85,58,203,48*6C
###2023-11-09 13:06:39.242141$GLGSV,2,2,05,86,52,309,47,,,,,,,,,,,,*50
###2023-11-09 13:06:39.244710$GAGSV,1,1,04,07,72,255,45,08,49,042,44,13,64,160,44,26,56,311,45*6C
###2023-11-09 13:06:39.247303$GBGSV,2,1,06,11,24,180,41,14,65,006,46,24,19,133,43,26,23,082,42*67
###2023-11-09 13:06:39.249252$GBGSV,2,2,06,28,43,289,47,33,58,302,47,,,,,,,,*6F
###2023-11-09 13:06:39.250723$GNVTG,357.38,T,,M,0.31,N,0.58,K,A*26
###2023-11-09 13:06:39.331587$GNGGA,130639.50,3611.0439898,N,07544.9794244,W,1,24,0.6,1.070,M,-39.961,M,0.0,*6B
###2023-11-09 13:06:39.334175$GPGSV,2,1,07,05,21,090,42,10,18,292,44,13,24,045,40,15,62,037,46*72
###2023-11-09 13:06:39.336415$GPGSV,2,2,07,18,77,281,46,23,50,315,45,24,49,136,45,,,,*42
###2023-11-09 13:06:39.339002$GLGSV,2,1,05,70,50,016,36,71,48,288,48,80,17,091,44,85,58,203,48*6C
###2023-11-09 13:06:39.340606$GLGSV,2,2,05,86,52,309,47,,,,,,,,,,,,*50
###2023-11-09 13:06:39.343162$GAGSV,1,1,04,07,72,255,45,08,49,042,44,13,64,160,44,26,56,311,45*6C
###2023-11-09 13:06:39.345724$GBGSV,2,1,06,11,24,180,42,14,65,006,46,24,19,133,43,26,23,082,42*64
###2023-11-09 13:06:39.347655$GBGSV,2,2,06,28,43,289,47,33,58,302,47,,,,,,,,*6F
###2023-11-09 13:06:39.349109$GNVTG,357.38,T,,M,0.41,N,0.76,K,A*2D
###2023-11-09 13:06:39.429633$GNGGA,130639.60,3611.0440000,N,07544.9794201,W,1,24,0.6,1.065,M,-39.961,M,0.0,*6A
###2023-11-09 13:06:39.432234$GPGSV,2,1,07,05,21,090,42,10,18,292,44,13,24,045,41,15,62,037,46*73
###2023-11-09 13:06:39.434485$GPGSV,2,2,07,18,77,281,47,23,50,315,45,24,49,136,45,,,,*43
###2023-11-09 13:06:39.437088$GLGSV,2,1,05,70,50,016,36,71,48,288,48,80,17,091,44,85,58,203,48*6C
###2023-11-09 13:06:39.438709$GLGSV,2,2,05,86,52,309,47,,,,,,,,,,,,*50
###2023-11-09 13:06:39.441278$GAGSV,1,1,04,07,72,255,45,08,49,042,44,13,64,160,44,26,56,311,45*6C
###2023-11-09 13:06:39.443855$GBGSV,2,1,06,11,24,180,42,14,65,006,46,24,19,133,43,26,23,082,42*64
###2023-11-09 13:06:39.445795$GBGSV,2,2,06,28,43,289,47,33,58,302,47,,,,,,,,*6F
###2023-11-09 13:06:39.447279$GNVTG,357.38,T,,M,0.41,N,0.76,K,A*2D
###2023-11-09 13:06:39.532116$GNGGA,130639.70,3611.0440100,N,07544.9794163,W,1,24,0.6,1.059,M,-39.961,M,0.0,*62
###2023-11-09 13:06:39.534707$GPGSV,2,1,07,05,21,090,42,10,18,292,44,13,24,045,41,15,62,037,46*73
###2023-11-09 13:06:39.536996$GPGSV,2,2,07,18,77,281,47,23,50,315,45,24,49,136,45,,,,*43
###2023-11-09 13:06:39.539571$GLGSV,2,1,05,70,50,016,36,71,48,288,48,80,17,091,44,85,58,203,48*6C
###2023-11-09 13:06:39.541180$GLGSV,2,2,05,86,52,309,47,,,,,,,,,,,,*50
###2023-11-09 13:06:39.543747$GAGSV,1,1,04,07,72,255,45,08,49,042,44,13,64,160,44,26,56,311,45*6C
###2023-11-09 13:06:39.546318$GBGSV,2,1,06,11,24,180,42,14,65,006,46,24,19,133,43,26,23,082,42*64
###2023-11-09 13:06:39.548258$GBGSV,2,2,06,28,43,289,47,33,58,302,47,,,,,,,,*6F
###2023-11-09 13:06:39.549723$GNVTG,357.38,T,,M,0.39,N,0.72,K,A*26
###2023-11-09 13:06:39.631980$GNGGA,130639.80,3611.0440189,N,07544.9794133,W,1,24,0.6,1.048,M,-39.961,M,0.0,*69
###2023-11-09 13:06:39.634560$GPGSV,2,1,07,05,21,090,42,10,18,292,43,13,24,045,41,15,62,037,46*74
###2023-11-09 13:06:39.636818$GPGSV,2,2,07,18,77,281,47,23,50,315,45,24,49,136,45,,,,*43
###2023-11-09 13:06:39.639410$GLGSV,2,1,05,70,50,016,36,71,48,288,47,80,17,091,44,85,58,203,48*63
###2023-11-09 13:06:39.641014$GLGSV,2,2,05,86,52,309,47,,,,,,,,,,,,*50
###2023-11-09 13:06:39.643559$GAGSV,1,1,04,07,72,255,45,08,49,042,44,13,64,160,44,26,56,311,45*6C
###2023-11-09 13:06:39.646137$GBGSV,2,1,06,11,24,180,42,14,65,006,46,24,19,133,43,26,23,082,42*64
###2023-11-09 13:06:39.648078$GBGSV,2,2,06,28,43,289,47,33,58,302,47,,,,,,,,*6F
###2023-11-09 13:06:39.649539$GNVTG,357.38,T,,M,0.33,N,0.61,K,A*2E
###2023-11-09 13:06:39.730250$GNGGA,130639.90,3611.0440255,N,07544.9794097,W,1,24,0.6,1.042,M,-39.961,M,0.0,*6F
###2023-11-09 13:06:39.732861$GPGSV,2,1,07,05,21,090,42,10,18,292,43,13,24,045,41,15,62,037,46*74
###2023-11-09 13:06:39.735115$GPGSV,2,2,07,18,77,281,47,23,50,315,45,24,49,136,45,,,,*43
###2023-11-09 13:06:39.737715$GLGSV,2,1,05,70,50,016,36,71,48,288,47,80,17,091,44,85,58,203,48*63
###2023-11-09 13:06:39.739323$GLGSV,2,2,05,86,52,309,47,,,,,,,,,,,,*50
###2023-11-09 13:06:39.741885$GAGSV,1,1,04,07,72,255,45,08,49,042,44,13,64,160,44,26,56,311,45*6C
###2023-11-09 13:06:39.744472$GBGSV,2,1,06,11,24,180,42,14,65,006,46,24,19,133,43,26,23,082,42*64
###2023-11-09 13:06:39.746416$GBGSV,2,2,06,28,43,289,47,33,58,302,47,,,,,,,,*6F
###2023-11-09 13:06:39.747900$GNVTG,357.38,T,,M,0.23,N,0.43,K,A*2F
###2023-11-09 13:06:39.832986$GNGGA,130640.00,3611.0440320,N,07544.9794049,W,1,24,0.6,1.024,M,-39.961,M,0.0,*68
###2023-11-09 13:06:39.835598$GPGSV,2,1,07,05,21,090,42,10,18,292,43,13,24,045,41,15,62,037,46*74
###2023-11-09 13:06:39.837881$GPGSV,2,2,07,18,77,281,47,23,50,315,45,24,49,136,46,,,,*40
###2023-11-09 13:06:39.840462$GLGSV,2,1,05,70,50,016,36,71,48,288,47,80,17,091,44,85,58,203,48*63
###2023-11-09 13:06:39.842082$GLGSV,2,2,05,86,52,309,47,,,,,,,,,,,,*50
###2023-11-09 13:06:39.844646$GAGSV,1,1,04,07,72,255,45,08,49,042,44,13,64,160,44,26,56,311,45*6C
###2023-11-09 13:06:39.847238$GBGSV,2,1,06,11,24,180,42,14,65,006,46,24,19,133,43,26,23,082,42*64
###2023-11-09 13:06:39.849168$GBGSV,2,2,06,28,43,289,47,33,58,302,47,,,,,,,,*6F
###2023-11-09 13:06:39.850635$GNVTG,357.38,T,,M,0.35,N,0.65,K,A*2C
###2023-11-09 13:06:39.934738$GNGGA,130640.10,3611.0440400,N,07544.9793984,W,1,24,0.6,1.000,M,-39.961,M,0.0,*65
###2023-11-09 13:06:39.937350$GPGSV,2,1,07,05,21,090,42,10,18,292,43,13,24,045,41,15,62,037,46*74
###2023-11-09 13:06:39.939592$GPGSV,2,2,07,18,77,281,47,23,50,315,45,24,49,136,46,,,,*40
###2023-11-09 13:06:39.942154$GLGSV,2,1,05,70,50,016,36,71,48,288,47,80,17,091,44,85,58,203,48*63
###2023-11-09 13:06:39.943753$GLGSV,2,2,05,86,52,309,47,,,,,,,,,,,,*50
###2023-11-09 13:06:39.946301$GAGSV,1,1,04,07,72,255,45,08,49,042,44,13,64,160,44,26,56,311,45*6C
###2023-11-09 13:06:39.948886$GBGSV,2,1,06,11,24,180,42,14,65,006,46,24,19,133,43,26,23,082,42*64
###2023-11-09 13:06:39.950836$GBGSV,2,2,06,28,43,289,47,33,58,302,47,,,,,,,,*6F
###2023-11-09 13:06:39.952317$GNVTG,357.38,T,,M,0.37,N,0.68,K,A*23
###2023-11-09 13:06:40.031970$GNGGA,130640.20,3611.0440488,N,07544.9793901,W,1,24,0.6,0.977,M,-39.961,M,0.0,*63
###2023-11-09 13:06:40.034568$GPGSV,2,1,07,05,21,090,42,10,18,292,43,13,24,045,41,15,62,037,46*74
###2023-11-09 13:06:40.036830$GPGSV,2,2,07,18,77,281,47,23,50,315,45,24,49,136,46,,,,*40
###2023-11-09 13:06:40.039420$GLGSV,2,1,05,70,50,016,36,71,48,288,47,80,17,091,44,85,58,203,48*63
###2023-11-09 13:06:40.041035$GLGSV,2,2,05,86,52,309,47,,,,,,,,,,,,*50
###2023-11-09 13:06:40.043603$GAGSV,1,1,04,07,72,255,45,08,49,042,44,13,64,160,44,26,56,311,45*6C
###2023-11-09 13:06:40.046191$GBGSV,2,1,06,11,24,180,42,14,65,006,46,24,19,133,43,26,23,082,42*64
###2023-11-09 13:06:40.048140$GBGSV,2,2,06,28,43,289,47,33,58,302,47,,,,,,,,*6F
###2023-11-09 13:06:40.049615$GNVTG,357.38,T,,M,0.45,N,0.83,K,A*23
###2023-11-09 13:06:40.133105$GNGGA,130640.30,3611.0440597,N,07544.9793793,W,1,24,0.6,0.954,M,-39.961,M,0.0,*69
###2023-11-09 13:06:40.135984$GPGSV,2,1,07,05,21,090,42,10,18,292,43,13,24,045,41,15,62,037,46*74
###2023-11-09 13:06:40.138388$GPGSV,2,2,07,18,77,281,47,23,50,315,45,24,49,136,46,,,,*40
###2023-11-09 13:06:40.140983$GLGSV,2,1,05,70,50,016,36,71,48,288,47,80,17,091,44,85,58,203,48*63
###2023-11-09 13:06:40.142604$GLGSV,2,2,05,86,52,309,47,,,,,,,,,,,,*50
###2023-11-09 13:06:40.145183$GAGSV,1,1,04,07,72,255,45,08,49,042,44,13,64,160,44,26,56,311,45*6C
###2023-11-09 13:06:40.147788$GBGSV,2,1,06,11,24,180,42,14,65,006,46,24,19,133,43,26,23,082,42*64
###2023-11-09 13:06:40.149742$GBGSV,2,2,06,28,43,289,47,33,58,302,47,,,,,,,,*6F
###2023-11-09 13:06:40.151217$GNVTG,357.38,T,,M,0.58,N,1.08,K,A*2D
###2023-11-09 13:06:40.230234$GNGGA,130640.40,3611.0440712,N,07544.9793658,W,1,24,0.6,0.932,M,-39.961,M,0.0,*67
###2023-11-09 13:06:40.232821$GPGSV,2,1,07,05,21,090,41,10,18,292,43,13,24,045,41,15,62,037,46*77
