###2023-11-09 13:10:16.442670$GAGSV,1,1,04,07,73,259,45,08,48,043,44,13,63,161,46,26,57,310,44*64
###2023-11-09 13:10:16.445278$GBGSV,2,1,06,11,22,180,44,14,65,009,45,24,21,132,46,26,23,080,42*65
###2023-11-09 13:10:16.447279$GBGSV,2,2,06,28,43,286,46,33,59,305,46,,,,,,,,*66
###2023-11-09 13:10:16.448732$GNVTG,82.77,T,,M,3.83,N,7.09,K,A*1F
###2023-11-09 13:10:16.529618$GNGGA,131016.70,3611.0498827,N,07544.8793266,W,1,24,0.6,0.758,M,-39.961,M,0.0,*66
###2023-11-09 13:10:16.532196$GPGSV,2,1,07,05,20,091,41,10,19,293,43,13,24,045,39,15,61,037,44*79
###2023-11-09 13:10:16.534449$GPGSV,2,2,07,18,78,277,46,23,50,316,43,24,50,134,46,,,,*48
###2023-11-09 13:10:16.537027$GLGSV,2,1,05,70,49,019,35,71,48,291,48,80,19,089,43,85,56,202,50*66
###2023-11-09 13:10:16.538632$GLGSV,2,2,05,86,54,306,47,,,,,,,,,,,,*59
###2023-11-09 13:10:16.541183$GAGSV,1,1,04,07,73,259,45,08,48,043,44,13,63,161,45,26,57,310,43*60
###2023-11-09 13:10:16.543752$GBGSV,2,1,06,11,22,180,43,14,65,009,45,24,21,132,46,26,23,080,42*62
###2023-11-09 13:10:16.545676$GBGSV,2,2,06,28,43,286,46,33,59,305,46,,,,,,,,*66
###2023-11-09 13:10:16.547113$GNVTG,68.57,T,,M,3.98,N,7.38,K,A*11
###2023-11-09 13:10:16.628506$GNGGA,131016.80,3611.0499236,N,07544.8791976,W,1,24,0.6,0.767,M,-39.961,M,0.0,*66
###2023-11-09 13:10:16.631091$GPGSV,2,1,07,05,20,091,41,10,19,293,44,13,24,045,39,15,61,037,44*7E
###2023-11-09 13:10:16.633341$GPGSV,2,2,07,18,78,277,46,23,50,316,44,24,50,134,46,,,,*4F
###2023-11-09 13:10:16.635897$GLGSV,2,1,05,70,49,019,35,71,48,291,48,80,19,089,43,85,56,202,48*6F
###2023-11-09 13:10:16.637514$GLGSV,2,2,05,86,54,306,47,,,,,,,,,,,,*59
###2023-11-09 13:10:16.640090$GAGSV,1,1,04,07,73,259,45,08,48,043,44,13,63,161,45,26,57,310,44*67
###2023-11-09 13:10:16.642672$GBGSV,2,1,06,11,22,180,41,14,65,009,45,24,21,132,44,26,23,080,42*62
###2023-11-09 13:10:16.644612$GBGSV,2,2,06,28,43,286,46,33,59,305,46,,,,,,,,*66
###2023-11-09 13:10:16.646039$GNVTG,68.30,T,,M,4.12,N,7.63,K,A*1B
###2023-11-09 13:10:16.729782$GNGGA,131016.90,3611.0499569,N,07544.8790650,W,1,24,0.6,0.753,M,-39.961,M,0.0,*67
###2023-11-09 13:10:16.732396$GPGSV,2,1,07,05,20,091,41,10,19,293,45,13,24,045,41,15,61,037,45*71
###2023-11-09 13:10:16.734670$GPGSV,2,2,07,18,78,277,46,23,50,316,45,24,50,134,46,,,,*4E
###2023-11-09 13:10:16.737288$GLGSV,2,1,05,70,49,019,35,71,48,291,48,80,19,089,43,85,56,202,47*60
###2023-11-09 13:10:16.738907$GLGSV,2,2,05,86,54,306,48,,,,,,,,,,,,*56
###2023-11-09 13:10:16.741479$GAGSV,1,1,04,07,73,259,45,08,48,043,45,13,63,161,45,26,57,310,44*66
###2023-11-09 13:10:16.744058$GBGSV,2,1,06,11,22,180,40,14,65,009,45,24,21,132,42,26,23,080,42*65
###2023-11-09 13:10:16.746011$GBGSV,2,2,06,28,43,286,47,33,59,305,47,,,,,,,,*66
###2023-11-09 13:10:16.747463$GNVTG,76.67,T,,M,4.06,N,7.52,K,A*11
###2023-11-09 13:10:16.832504$GNGGA,131017.00,3611.0499743,N,07544.8789292,W,1,24,0.6,0.726,M,-39.961,M,0.0,*65
###2023-11-09 13:10:16.835100$GPGSV,2,1,07,05,20,091,41,10,19,293,45,13,24,045,42,15,61,037,45*72
###2023-11-09 13:10:16.837372$GPGSV,2,2,07,18,78,277,46,23,50,316,45,24,50,134,45,,,,*4D
###2023-11-09 13:10:16.839937$GLGSV,2,1,05,70,49,019,35,71,48,291,49,80,19,089,43,85,56,202,46*60
###2023-11-09 13:10:16.841536$GLGSV,2,2,05,86,54,306,48,,,,,,,,,,,,*56
###2023-11-09 13:10:16.844095$GAGSV,1,1,04,07,73,259,45,08,48,043,46,13,63,161,45,26,57,310,44*65
###2023-11-09 13:10:16.846655$GBGSV,2,1,06,11,22,180,38,14,65,009,45,24,21,132,42,26,23,080,42*6A
###2023-11-09 13:10:16.848596$GBGSV,2,2,06,28,43,286,47,33,59,305,48,,,,,,,,*69
###2023-11-09 13:10:16.850017$GNVTG,84.10,T,,M,4.04,N,7.49,K,A*14
###2023-11-09 13:10:16.930868$GNGGA,131017.10,3611.0499763,N,07544.8787878,W,1,24,0.6,0.708,M,-39.961,M,0.0,*6A
###2023-11-09 13:10:16.933468$GPGSV,2,1,07,05,20,091,41,10,19,293,45,13,24,045,42,15,61,037,45*72
###2023-11-09 13:10:16.935718$GPGSV,2,2,07,18,78,277,46,23,50,316,45,24,50,134,45,,,,*4D
###2023-11-09 13:10:16.938303$GLGSV,2,1,05,70,49,019,35,71,48,291,49,80,19,089,43,85,56,202,47*61
###2023-11-09 13:10:16.939912$GLGSV,2,2,05,86,54,306,48,,,,,,,,,,,,*56
###2023-11-09 13:10:16.942481$GAGSV,1,1,04,07,73,259,45,08,48,043,46,13,63,161,44,26,57,310,44*64
###2023-11-09 13:10:16.945058$GBGSV,2,1,06,11,22,180,38,14,65,009,45,24,21,132,42,26,23,080,42*6A
###2023-11-09 13:10:16.947019$GBGSV,2,2,06,28,43,286,47,33,59,305,48,,,,,,,,*69
###2023-11-09 13:10:16.948454$GNVTG,92.38,T,,M,4.30,N,7.96,K,A*1C
###2023-11-09 13:10:17.032732$GNGGA,131017.20,3611.0499673,N,07544.8786396,W,1,24,0.6,0.687,M,-39.961,M,0.0,*65
###2023-11-09 13:10:17.035320$GPGSV,2,1,07,05,20,091,41,10,19,293,44,13,24,045,41,15,61,037,44*71
###2023-11-09 13:10:17.037596$GPGSV,2,2,07,18,78,277,47,23,50,316,45,24,50,134,45,,,,*4C
###2023-11-09 13:10:17.040178$GLGSV,2,1,05,70,49,019,35,71,48,291,49,80,19,089,43,85,56,202,48*6E
###2023-11-09 13:10:17.041791$GLGSV,2,2,05,86,54,306,48,,,,,,,,,,,,*56
###2023-11-09 13:10:17.044353$GAGSV,1,1,04,07,73,259,45,08,48,043,45,13,63,161,44,26,57,310,44*67
###2023-11-09 13:10:17.046942$GBGSV,2,1,06,11,22,180,40,14,65,009,45,24,21,132,43,26,23,080,42*64
###2023-11-09 13:10:17.048883$GBGSV,2,2,06,28,43,286,47,33,59,305,47,,,,,,,,*66
###2023-11-09 13:10:17.050312$GNVTG,94.91,T,,M,4.41,N,8.17,K,A*19
###2023-11-09 13:10:17.129614$GNGGA,131017.30,3611.0499607,N,07544.8784921,W,1,24,0.6,0.647,M,-39.961,M,0.0,*6F
###2023-11-09 13:10:17.132184$GPGSV,2,1,07,05,20,091,41,10,19,293,43,13,24,045,40,15,61,037,44*77
###2023-11-09 13:10:17.134423$GPGSV,2,2,07,18,78,277,46,23,50,316,43,24,50,134,46,,,,*48
###2023-11-09 13:10:17.136986$GLGSV,2,1,05,70,49,019,35,71,48,291,48,80,19,089,43,85,56,202,49*6E
###2023-11-09 13:10:17.138587$GLGSV,2,2,05,86,54,306,47,,,,,,,,,,,,*59
###2023-11-09 13:10:17.141135$GAGSV,1,1,04,07,73,259,45,08,48,043,45,13,63,161,45,26,57,310,44*66
###2023-11-09 13:10:17.143695$GBGSV,2,1,06,11,22,180,42,14,65,009,45,24,21,132,44,26,23,080,42*61
###2023-11-09 13:10:17.145613$GBGSV,2,2,06,28,43,286,47,33,59,305,46,,,,,,,,*67
###2023-11-09 13:10:17.147045$GNVTG,90.51,T,,M,4.24,N,7.85,K,A*16
###2023-11-09 13:10:17.229657$GNGGA,131017.40,3611.0499707,N,07544.8783486,W,1,23,0.6,0.603,M,-39.961,M,0.0,*69
###2023-11-09 13:10:17.232264$GPGSV,2,1,07,05,20,091,41,10,19,293,43,13,24,045,39,15,61,037,44*79
###2023-11-09 13:10:17.234522$GPGSV,2,2,07,18,78,277,46,23,50,316,44,24,50,134,46,,,,*4F
###2023-11-09 13:10:17.237113$GLGSV,1,1,04,71,48,291,48,80,19,089,43,85,56,202,49,86,54,306,47*61
###2023-11-09 13:10:17.239688$GAGSV,1,1,04,07,73,259,45,08,48,043,44,13,63,161,45,26,57,310,44*67
###2023-11-09 13:10:17.242272$GBGSV,2,1,06,11,22,180,43,14,65,009,44,24,21,132,45,26,23,080,42*60
###2023-11-09 13:10:17.244213$GBGSV,2,2,06,28,43,286,46,33,59,305,46,,,,,,,,*66
###2023-11-09 13:10:17.245648$GNVTG,79.57,T,,M,4.22,N,7.81,K,A*15
###2023-11-09 13:10:17.330748$GNGGA,131017.50,3611.0499998,N,07544.8782086,W,1,23,0.6,0.579,M,-39.961,M,0.0,*6B
###2023-11-09 13:10:17.333353$GPGSV,2,1,07,05,20,091,41,10,19,293,43,13,24,045,39,15,61,037,44*79
###2023-11-09 13:10:17.335615$GPGSV,2,2,07,18,78,277,46,23,50,316,44,24,50,134,46,,,,*4F
###2023-11-09 13:10:17.338248$GLGSV,1,1,04,71,48,291,48,80,19,089,43,85,56,202,49,86,54,306,47*61
###2023-11-09 13:10:17.340846$GAGSV,1,1,04,07,73,259,45,08,48,043,44,13,63,161,45,26,57,310,43*60
###2023-11-09 13:10:17.343420$GBGSV,2,1,06,11,22,180,43,14,65,009,44,24,21,132,45,26,23,080,42*60
###2023-11-09 13:10:17.345357$GBGSV,2,2,06,28,43,286,46,33,59,305,46,,,,,,,,*66
###2023-11-09 13:10:17.346788$GNVTG,71.45,T,,M,4.26,N,7.88,K,A*13
###2023-11-09 13:10:17.429029$GNGGA,131017.60,3611.0500383,N,07544.8780721,W,1,23,0.6,0.571,M,-39.961,M,0.0,*69
###2023-11-09 13:10:17.431614$GPGSV,2,1,07,05,20,091,41,10,19,293,44,13,24,045,39,15,61,037,44*7E
###2023-11-09 13:10:17.433858$GPGSV,2,2,07,18,78,277,46,23,50,316,44,24,50,134,46,,,,*4F
###2023-11-09 13:10:17.436420$GLGSV,1,1,04,71,48,291,48,80,19,089,43,85,56,202,49,86,54,306,47*61
###2023-11-09 13:10:17.439007$GAGSV,1,1,04,07,73,259,45,08,48,043,44,13,63,161,45,26,57,310,44*67
###2023-11-09 13:10:17.441574$GBGSV,2,1,06,11,22,180,43,14,65,009,44,24,21,132,44,26,23,080,42*61
###2023-11-09 13:10:17.443502$GBGSV,2,2,06,28,43,286,46,33,59,305,46,,,,,,,,*66
###2023-11-09 13:10:17.445225$GNVTG,69.85,T,,M,4.20,N,7.78,K,A*1F
###2023-11-09 13:10:17.528647$GNGGA,131017.70,3611.0500730,N,07544.8779351,W,1,24,0.6,0.566,M,-39.961,M,0.0,*60
###2023-11-09 13:10:17.531261$GPGSV,2,1,07,05,20,091,41,10,19,293,45,13,24,045,42,15,61,037,45*72
###2023-11-09 13:10:17.533530$GPGSV,2,2,07,18,78,277,47,23,50,316,44,24,50,134,45,,,,*4D
###2023-11-09 13:10:17.536117$GLGSV,2,1,05,70,49,019,35,71,48,291,49,80,19,089,43,85,56,202,48*6E
###2023-11-09 13:10:17.537743$GLGSV,2,2,05,86,54,306,48,,,,,,,,,,,,*56
###2023-11-09 13:10:17.540318$GAGSV,1,1,04,07,73,259,45,08,48,043,45,13,63,161,45,26,57,310,44*66
###2023-11-09 13:10:17.542901$GBGSV,2,1,06,11,22,180,41,14,65,009,45,24,21,132,43,26,23,080,42*65
###2023-11-09 13:10:17.544829$GBGSV,2,2,06,28,43,286,48,33,59,305,48,,,,,,,,*66
###2023-11-09 13:10:17.546291$GNVTG,74.40,T,,M,4.24,N,7.85,K,A*1C
