###2023-11-09 13:06:10.635567$GLGSV,2,1,05,70,50,016,35,71,48,288,49,80,17,091,45,85,59,204,48*69
###2023-11-09 13:06:10.637224$GLGSV,2,2,05,86,52,311,48,,,,,,,,,,,,*56
###2023-11-09 13:06:10.639806$GAGSV,1,1,04,07,72,255,45,08,49,042,45,13,64,160,45,26,56,311,45*6C
###2023-11-09 13:06:10.642384$GBGSV,2,1,06,11,24,180,40,14,65,006,45,24,19,133,42,26,23,082,43*65
###2023-11-09 13:06:10.644321$GBGSV,2,2,06,28,43,289,48,33,58,302,48,,,,,,,,*6F
###2023-11-09 13:06:10.645745$GNVTG,69.44,T,,M,0.56,N,1.04,K,A*1A
###2023-11-09 13:06:10.729766$GNGGA,130610.90,3611.0392038,N,07544.9825971,W,1,23,0.6,0.891,M,-39.962,M,0.0,*62
###2023-11-09 13:06:10.732379$GPGSV,2,1,07,05,21,089,42,10,17,292,44,13,25,045,40,15,62,036,46*75
###2023-11-09 13:06:10.734629$GPGSV,2,2,07,18,77,285,47,23,49,314,46,24,49,137,45,,,,*4C
###2023-11-09 13:06:10.737218$GLGSV,1,1,04,71,48,288,49,80,17,091,45,85,59,204,48,86,52,311,48*6E
###2023-11-09 13:06:10.739792$GAGSV,1,1,04,07,72,255,45,08,49,042,45,13,64,160,45,26,56,311,45*6C
###2023-11-09 13:06:10.742353$GBGSV,2,1,06,11,24,180,41,14,65,006,45,24,19,133,42,26,23,082,43*64
###2023-11-09 13:06:10.744279$GBGSV,2,2,06,28,43,289,48,33,58,302,48,,,,,,,,*6F
###2023-11-09 13:06:10.745704$GNVTG,69.44,T,,M,0.74,N,1.37,K,A*1A
###2023-11-09 13:06:10.832100$GNGGA,130611.00,3611.0392144,N,07544.9825692,W,1,23,0.6,0.919,M,-39.962,M,0.0,*63
###2023-11-09 13:06:10.834687$GPGSV,2,1,07,05,21,089,42,10,17,292,44,13,25,045,39,15,62,036,46*7B
###2023-11-09 13:06:10.836947$GPGSV,2,2,07,18,77,285,47,23,49,314,46,24,49,137,45,,,,*4C
###2023-11-09 13:06:10.839505$GLGSV,1,1,04,71,48,288,49,80,17,091,45,85,59,204,48,86,52,311,48*6E
###2023-11-09 13:06:10.842051$GAGSV,1,1,04,07,72,255,45,08,49,042,45,13,64,160,45,26,56,311,45*6C
###2023-11-09 13:06:10.844608$GBGSV,2,1,06,11,24,180,41,14,65,006,45,24,19,133,42,26,23,082,43*64
###2023-11-09 13:06:10.846522$GBGSV,2,2,06,28,43,289,48,33,58,302,47,,,,,,,,*60
###2023-11-09 13:06:10.847959$GNVTG,60.86,T,,M,1.01,N,1.87,K,A*15
###2023-11-09 13:06:10.931617$GNGGA,130611.10,3611.0392304,N,07544.9825396,W,1,23,0.6,0.949,M,-39.962,M,0.0,*60
###2023-11-09 13:06:10.934217$GPGSV,2,1,07,05,21,089,42,10,17,292,43,13,25,045,39,15,62,036,46*7C
###2023-11-09 13:06:10.936464$GPGSV,2,2,07,18,77,285,46,23,49,314,46,24,49,137,45,,,,*4D
###2023-11-09 13:06:10.939047$GLGSV,1,1,04,71,48,288,49,80,17,091,45,85,59,204,48,86,52,311,48*6E
###2023-11-09 13:06:10.941629$GAGSV,1,1,04,07,72,255,45,08,49,042,45,13,64,160,45,26,56,311,45*6C
###2023-11-09 13:06:10.944204$GBGSV,2,1,06,11,24,180,41,14,65,006,46,24,19,133,42,26,23,082,43*67
###2023-11-09 13:06:10.946143$GBGSV,2,2,06,28,43,289,48,33,58,302,47,,,,,,,,*60
###2023-11-09 13:06:10.947582$GNVTG,50.26,T,,M,1.03,N,1.91,K,A*19
###2023-11-09 13:06:11.032723$GNGGA,130611.20,3611.0392491,N,07544.9825136,W,1,24,0.6,0.988,M,-39.962,M,0.0,*6A
###2023-11-09 13:06:11.035299$GPGSV,2,1,07,05,21,089,42,10,17,292,42,13,25,045,41,15,62,036,46*72
###2023-11-09 13:06:11.037568$GPGSV,2,2,07,18,77,285,46,23,49,314,46,24,49,137,45,,,,*4D
###2023-11-09 13:06:11.040148$GLGSV,2,1,05,70,50,016,35,71,48,288,48,80,17,091,45,85,59,204,48*68
###2023-11-09 13:06:11.041748$GLGSV,2,2,05,86,52,311,48,,,,,,,,,,,,*56
###2023-11-09 13:06:11.044302$GAGSV,1,1,04,07,72,255,45,08,49,042,45,13,64,160,45,26,56,311,45*6C
###2023-11-09 13:06:11.046884$GBGSV,2,1,06,11,24,180,41,14,65,006,46,24,19,133,42,26,23,082,43*67
###2023-11-09 13:06:11.048832$GBGSV,2,2,06,28,43,289,48,33,58,302,47,,,,,,,,*60
###2023-11-09 13:06:11.050255$GNVTG,50.26,T,,M,0.97,N,1.80,K,A*15
###2023-11-09 13:06:11.129746$GNGGA,130611.30,3611.0392666,N,07544.9824956,W,1,24,0.6,1.026,M,-39.962,M,0.0,*62
###2023-11-09 13:06:11.132338$GPGSV,2,1,07,05,21,089,43,10,17,292,42,13,25,045,42,15,62,036,46*70
###2023-11-09 13:06:11.134589$GPGSV,2,2,07,18,77,285,46,23,49,314,46,24,49,137,45,,,,*4D
###2023-11-09 13:06:11.137179$GLGSV,2,1,05,70,50,016,35,71,48,288,48,80,17,091,45,85,59,204,48*68
###2023-11-09 13:06:11.138785$GLGSV,2,2,05,86,52,311,48,,,,,,,,,,,,*56
###2023-11-09 13:06:11.141340$GAGSV,1,1,04,07,72,255,45,08,49,042,45,13,64,160,45,26,56,311,45*6C
###2023-11-09 13:06:11.143910$GBGSV,2,1,06,11,24,180,41,14,65,006,46,24,19,133,42,26,23,082,44*60
###2023-11-09 13:06:11.145839$GBGSV,2,2,06,28,43,289,48,33,58,302,47,,,,,,,,*60
###2023-11-09 13:06:11.147282$GNVTG,50.26,T,,M,0.66,N,1.22,K,A*13
###2023-11-09 13:06:11.230384$GNGGA,130611.40,3611.0392802,N,07544.9824888,W,1,24,0.6,1.063,M,-39.962,M,0.0,*6A
###2023-11-09 13:06:11.232974$GPGSV,2,1,07,05,21,089,43,10,17,292,42,13,25,045,42,15,62,036,46*70
###2023-11-09 13:06:11.235230$GPGSV,2,2,07,18,77,285,46,23,49,314,46,24,49,137,45,,,,*4D
###2023-11-09 13:06:11.237823$GLGSV,2,1,05,70,50,016,35,71,48,288,49,80,17,091,45,85,59,204,48*69
###2023-11-09 13:06:11.239426$GLGSV,2,2,05,86,52,311,48,,,,,,,,,,,,*56
###2023-11-09 13:06:11.241979$GAGSV,1,1,04,07,72,255,45,08,49,042,45,13,64,160,45,26,56,311,45*6C
###2023-11-09 13:06:11.244560$GBGSV,2,1,06,11,24,180,40,14,65,006,46,24,19,133,43,26,23,082,44*60
###2023-11-09 13:06:11.246491$GBGSV,2,2,06,28,43,289,48,33,58,302,47,,,,,,,,*60
###2023-11-09 13:06:11.247926$GNVTG,50.26,T,,M,0.45,N,0.83,K,A*18
###2023-11-09 13:06:11.330361$GNGGA,130611.50,3611.0392910,N,07544.9824908,W,1,24,0.6,1.100,M,-39.962,M,0.0,*64
###2023-11-09 13:06:11.332955$GPGSV,2,1,07,05,21,089,43,10,17,292,42,13,25,045,41,15,62,036,46*73
###2023-11-09 13:06:11.335204$GPGSV,2,2,07,18,77,285,47,23,49,314,46,24,49,137,45,,,,*4C
###2023-11-09 13:06:11.337796$GLGSV,2,1,05,70,50,016,35,71,48,288,50,80,17,091,45,85,59,204,48*61
###2023-11-09 13:06:11.339402$GLGSV,2,2,05,86,52,311,48,,,,,,,,,,,,*56
###2023-11-09 13:06:11.341957$GAGSV,1,1,04,07,72,255,45,08,49,042,45,13,64,160,45,26,56,311,45*6C
###2023-11-09 13:06:11.344530$GBGSV,2,1,06,11,24,180,40,14,65,006,45,24,19,133,43,26,23,082,44*63
###2023-11-09 13:06:11.346460$GBGSV,2,2,06,28,43,289,48,33,58,302,47,,,,,,,,*60
###2023-11-09 13:06:11.347898$GNVTG,50.26,T,,M,0.41,N,0.76,K,A*16
###2023-11-09 13:06:11.430612$GNGGA,130611.60,3611.0393015,N,07544.9824980,W,1,23,0.6,1.138,M,-39.962,M,0.0,*66
###2023-11-09 13:06:11.433193$GPGSV,2,1,07,05,21,089,43,10,17,292,43,13,25,045,40,15,62,036,46*73
###2023-11-09 13:06:11.435432$GPGSV,2,2,07,18,77,285,47,23,49,314,46,24,49,137,45,,,,*4C
###2023-11-09 13:06:11.438048$GLGSV,1,1,04,71,48,288,50,80,17,091,44,85,59,204,48,86,52,311,48*67
###2023-11-09 13:06:11.440626$GAGSV,1,1,04,07,72,255,45,08,49,042,45,13,64,160,45,26,56,311,45*6C
###2023-11-09 13:06:11.443187$GBGSV,2,1,06,11,24,180,40,14,65,006,45,24,19,133,43,26,23,082,43*64
###2023-11-09 13:06:11.445114$GBGSV,2,2,06,28,43,289,48,33,58,302,47,,,,,,,,*60
###2023-11-09 13:06:11.446533$GNVTG,50.26,T,,M,0.51,N,0.94,K,A*1B
###2023-11-09 13:06:11.528745$GNGGA,130611.70,3611.0393147,N,07544.9825052,W,1,23,0.6,1.182,M,-39.962,M,0.0,*67
###2023-11-09 13:06:11.531326$GPGSV,2,1,07,05,21,089,42,10,17,292,44,13,25,045,40,15,62,036,46*75
###2023-11-09 13:06:11.533578$GPGSV,2,2,07,18,77,285,47,23,49,314,46,24,49,137,45,,,,*4C
###2023-11-09 13:06:11.536151$GLGSV,1,1,04,71,48,288,49,80,17,091,44,85,59,204,48,86,52,311,48*6F
###2023-11-09 13:06:11.538737$GAGSV,1,1,04,07,72,255,45,08,49,042,44,13,64,160,45,26,56,311,45*6D
###2023-11-09 13:06:11.541297$GBGSV,2,1,06,11,24,180,40,14,65,006,45,24,19,133,43,26,23,082,43*64
###2023-11-09 13:06:11.543231$GBGSV,2,2,06,28,43,289,48,33,58,302,47,,,,,,,,*60
###2023-11-09 13:06:11.544660$GNVTG,50.26,T,,M,0.60,N,1.12,K,A*16
###2023-11-09 13:06:11.629770$GNGGA,130611.80,3611.0393328,N,07544.9825122,W,1,23,0.6,1.220,M,-39.962,M,0.0,*6E
###2023-11-09 13:06:11.632390$GPGSV,2,1,07,05,21,089,42,10,17,292,44,13,25,045,40,15,62,036,46*75
###2023-11-09 13:06:11.634665$GPGSV,2,2,07,18,77,285,47,23,49,314,46,24,49,137,45,,,,*4C
###2023-11-09 13:06:11.637267$GLGSV,1,1,04,71,48,288,49,80,17,091,44,85,59,204,48,86,52,311,48*6F
###2023-11-09 13:06:11.639842$GAGSV,1,1,04,07,72,255,45,08,49,042,44,13,64,160,45,26,56,311,45*6D
###2023-11-09 13:06:11.642427$GBGSV,2,1,06,11,24,180,40,14,65,006,45,24,19,133,43,26,23,082,43*64
###2023-11-09 13:06:11.644376$GBGSV,2,2,06,28,43,289,48,33,58,302,47,,,,,,,,*60
###2023-11-09 13:06:11.646110$GNVTG,50.26,T,,M,0.80,N,1.48,K,A*17
###2023-11-09 13:06:11.728628$GNGGA,130611.90,3611.0393529,N,07544.9825215,W,1,23,0.6,1.255,M,-39.962,M,0.0,*6D
###2023-11-09 13:06:11.731219$GPGSV,2,1,07,05,21,089,42,10,17,292,44,13,25,045,40,15,62,036,46*75
###2023-11-09 13:06:11.733468$GPGSV,2,2,07,18,77,285,47,23,49,314,46,24,49,137,45,,,,*4C
###2023-11-09 13:06:11.736033$GLGSV,1,1,04,71,48,288,49,80,17,091,44,85,59,204,48,86,52,311,47*60
###2023-11-09 13:06:11.738606$GAGSV,1,1,04,07,72,255,45,08,49,042,44,13,64,160,45,26,56,311,45*6D
###2023-11-09 13:06:11.741169$GBGSV,2,1,06,11,24,180,40,14,65,006,45,24,19,133,43,26,23,082,43*64
###2023-11-09 13:06:11.743102$GBGSV,2,2,06,28,43,289,48,33,58,302,47,,,,,,,,*60
###2023-11-09 13:06:11.744520$GNVTG,50.26,T,,M,0.80,N,1.48,K,A*17
###2023-11-09 13:06:11.835361$GNGGA,130612.00,3611.0393724,N,07544.9825358,W,1,23,0.6,1.285,M,-39.962,M,0.0,*6D
###2023-11-09 13:06:11.837986$GPGSV,2,1,07,05,21,089,42,10,17,292,43,13,25,045,40,15,62,036,46*72
