###2023-11-09 13:09:15.041249$GLGSV,2,2,05,86,53,308,49,,,,,,,,,,,,*5E
###2023-11-09 13:09:15.043838$GAGSV,1,1,04,07,73,259,46,08,48,043,44,13,63,161,45,26,57,310,45*65
###2023-11-09 13:09:15.046417$GBGSV,2,1,06,11,23,180,40,14,65,008,45,24,20,132,42,26,23,081,42*65
###2023-11-09 13:09:15.048391$GBGSV,2,2,06,28,43,287,46,33,59,304,48,,,,,,,,*68
###2023-11-09 13:09:15.049829$GNVTG,45.33,T,,M,3.42,N,6.34,K,A*16
###2023-11-09 13:09:15.128145$GNGGA,130915.30,3611.0303668,N,07544.9575054,W,1,24,0.6,0.630,M,-39.962,M,0.0,*6D
###2023-11-09 13:09:15.130760$GPGSV,2,1,07,05,20,090,41,10,19,293,42,13,24,045,40,15,61,037,46*75
###2023-11-09 13:09:15.133021$GPGSV,2,2,07,18,78,277,47,23,50,316,45,24,50,134,45,,,,*4C
###2023-11-09 13:09:15.135611$GLGSV,2,1,05,70,50,017,36,71,48,290,47,80,18,090,43,85,57,203,49*6C
###2023-11-09 13:09:15.137252$GLGSV,2,2,05,86,53,308,48,,,,,,,,,,,,*5F
###2023-11-09 13:09:15.139838$GAGSV,1,1,04,07,73,259,46,08,48,043,44,13,63,161,45,26,57,310,45*65
###2023-11-09 13:09:15.142420$GBGSV,2,1,06,11,23,180,40,14,65,008,45,24,20,132,43,26,23,081,42*64
###2023-11-09 13:09:15.144366$GBGSV,2,2,06,28,43,287,46,33,59,304,48,,,,,,,,*68
###2023-11-09 13:09:15.145796$GNVTG,50.44,T,,M,3.46,N,6.41,K,A*14
###2023-11-09 13:09:15.228628$GNGGA,130915.40,3611.0304276,N,07544.9574129,W,1,24,0.6,0.599,M,-39.962,M,0.0,*6C
###2023-11-09 13:09:15.231218$GPGSV,2,1,07,05,20,090,41,10,19,293,41,13,24,045,40,15,61,037,46*76
###2023-11-09 13:09:15.233468$GPGSV,2,2,07,18,78,277,47,23,50,316,45,24,50,134,46,,,,*4F
###2023-11-09 13:09:15.236042$GLGSV,2,1,05,70,50,017,36,71,48,290,46,80,18,090,45,85,57,203,49*6B
###2023-11-09 13:09:15.237671$GLGSV,2,2,05,86,53,308,47,,,,,,,,,,,,*50
###2023-11-09 13:09:15.240242$GAGSV,1,1,04,07,73,259,45,08,48,043,44,13,63,161,45,26,57,310,44*67
###2023-11-09 13:09:15.242818$GBGSV,2,1,06,11,23,180,42,14,65,008,45,24,20,132,45,26,23,081,42*60
###2023-11-09 13:09:15.244749$GBGSV,2,2,06,28,43,287,46,33,59,304,47,,,,,,,,*67
###2023-11-09 13:09:15.246178$GNVTG,50.36,T,,M,3.46,N,6.41,K,A*11
###2023-11-09 13:09:15.328000$GNGGA,130915.50,3611.0304904,N,07544.9573223,W,1,24,0.6,0.572,M,-39.962,M,0.0,*68
###2023-11-09 13:09:15.330572$GPGSV,2,1,07,05,20,090,43,10,19,293,41,13,24,045,40,15,61,037,46*74
###2023-11-09 13:09:15.332809$GPGSV,2,2,07,18,78,277,46,23,50,316,44,24,50,134,46,,,,*4F
###2023-11-09 13:09:15.335373$GLGSV,2,1,05,70,50,017,36,71,48,290,46,80,18,090,46,85,57,203,49*68
###2023-11-09 13:09:15.336999$GLGSV,2,2,05,86,53,308,47,,,,,,,,,,,,*50
###2023-11-09 13:09:15.339567$GAGSV,1,1,04,07,73,259,45,08,48,043,44,13,63,161,45,26,57,310,44*67
###2023-11-09 13:09:15.342138$GBGSV,2,1,06,11,23,180,43,14,65,008,45,24,20,132,46,26,23,081,43*63
###2023-11-09 13:09:15.344065$GBGSV,2,2,06,28,43,287,46,33,59,304,46,,,,,,,,*66
###2023-11-09 13:09:15.345491$GNVTG,47.44,T,,M,3.48,N,6.44,K,A*19
###2023-11-09 13:09:15.428062$GNGGA,130915.60,3611.0305592,N,07544.9572393,W,1,24,0.6,0.562,M,-39.962,M,0.0,*63
###2023-11-09 13:09:15.430688$GPGSV,2,1,07,05,20,090,43,10,19,293,41,13,24,045,40,15,61,037,46*74
###2023-11-09 13:09:15.432958$GPGSV,2,2,07,18,78,277,46,23,50,316,44,24,50,134,46,,,,*4F
###2023-11-09 13:09:15.435534$GLGSV,2,1,05,70,50,017,36,71,48,290,46,80,18,090,46,85,57,203,50*60
###2023-11-09 13:09:15.437154$GLGSV,2,2,05,86,53,308,47,,,,,,,,,,,,*50
###2023-11-09 13:09:15.439728$GAGSV,1,1,04,07,73,259,45,08,48,043,44,13,63,161,46,26,57,310,44*64
###2023-11-09 13:09:15.442320$GBGSV,2,1,06,11,23,180,43,14,65,008,45,24,20,132,46,26,23,081,43*63
###2023-11-09 13:09:15.444262$GBGSV,2,2,06,28,43,287,45,33,59,304,46,,,,,,,,*65
###2023-11-09 13:09:15.445694$GNVTG,40.26,T,,M,3.44,N,6.37,K,A*12
###2023-11-09 13:09:15.529024$GNGGA,130915.70,3611.0306336,N,07544.9571626,W,1,24,0.6,0.566,M,-39.962,M,0.0,*65
###2023-11-09 13:09:15.531631$GPGSV,2,1,07,05,20,090,43,10,19,293,42,13,24,045,40,15,61,037,46*77
###2023-11-09 13:09:15.533891$GPGSV,2,2,07,18,78,277,46,23,50,316,45,24,50,134,46,,,,*4E
###2023-11-09 13:09:15.536472$GLGSV,2,1,05,70,50,017,36,71,48,290,46,80,18,090,46,85,57,203,50*60
###2023-11-09 13:09:15.538099$GLGSV,2,2,05,86,53,308,48,,,,,,,,,,,,*5F
###2023-11-09 13:09:15.540680$GAGSV,1,1,04,07,73,259,45,08,48,043,44,13,63,161,46,26,57,310,44*64
###2023-11-09 13:09:15.543264$GBGSV,2,1,06,11,23,180,43,14,65,008,45,24,20,132,45,26,23,081,43*60
###2023-11-09 13:09:15.545209$GBGSV,2,2,06,28,43,287,45,33,59,304,47,,,,,,,,*64
###2023-11-09 13:09:15.546650$GNVTG,38.06,T,,M,3.52,N,6.52,K,A*1B
###2023-11-09 13:09:15.628125$GNGGA,130915.80,3611.0307076,N,07544.9570827,W,1,24,0.6,0.566,M,-39.962,M,0.0,*62
###2023-11-09 13:09:15.630719$GPGSV,2,1,07,05,20,090,42,10,19,293,43,13,24,045,40,15,61,037,46*77
###2023-11-09 13:09:15.632966$GPGSV,2,2,07,18,78,277,47,23,50,316,45,24,50,134,46,,,,*4F
###2023-11-09 13:09:15.635539$GLGSV,2,1,05,70,50,017,36,71,48,290,47,80,18,090,45,85,57,203,49*6A
###2023-11-09 13:09:15.637150$GLGSV,2,2,05,86,53,308,48,,,,,,,,,,,,*5F
###2023-11-09 13:09:15.639726$GAGSV,1,1,04,07,73,259,45,08,48,043,44,13,63,161,46,26,57,310,45*65
###2023-11-09 13:09:15.642313$GBGSV,2,1,06,11,23,180,42,14,65,008,45,24,20,132,43,26,23,081,42*66
###2023-11-09 13:09:15.644249$GBGSV,2,2,06,28,43,287,46,33,59,304,48,,,,,,,,*68
###2023-11-09 13:09:15.645671$GNVTG,43.42,T,,M,3.56,N,6.59,K,A*18
###2023-11-09 13:09:15.728034$GNGGA,130915.90,3611.0307749,N,07544.9569908,W,1,24,0.6,0.568,M,-39.962,M,0.0,*62
###2023-11-09 13:09:15.730631$GPGSV,2,1,07,05,20,090,41,10,19,293,44,13,24,045,40,15,61,037,46*73
###2023-11-09 13:09:15.732895$GPGSV,2,2,07,18,78,277,47,23,50,316,46,24,50,134,45,,,,*4F
###2023-11-09 13:09:15.735480$GLGSV,2,1,05,70,50,017,36,71,48,290,48,80,18,090,44,85,57,203,49*64
###2023-11-09 13:09:15.737117$GLGSV,2,2,05,86,53,308,49,,,,,,,,,,,,*5E
###2023-11-09 13:09:15.739706$GAGSV,1,1,04,07,73,259,45,08,48,043,44,13,63,161,45,26,57,310,46*65
###2023-11-09 13:09:15.742300$GBGSV,2,1,06,11,23,180,40,14,65,008,45,24,20,132,43,26,23,081,42*64
###2023-11-09 13:09:15.744249$GBGSV,2,2,06,28,43,287,46,33,59,304,48,,,,,,,,*68
###2023-11-09 13:09:15.745686$GNVTG,51.06,T,,M,3.65,N,6.77,K,A*17
###2023-11-09 13:09:15.832614$GNGGA,130916.00,3611.0308351,N,07544.9568860,W,1,24,0.6,0.562,M,-39.962,M,0.0,*6E
###2023-11-09 13:09:15.835216$GPGSV,2,1,07,05,20,090,41,10,19,293,44,13,24,045,40,15,61,037,46*73
###2023-11-09 13:09:15.837510$GPGSV,2,2,07,18,78,277,47,23,50,316,46,24,50,134,45,,,,*4F
###2023-11-09 13:09:15.840117$GLGSV,2,1,05,70,50,017,36,71,48,290,48,80,18,090,44,85,57,203,49*64
###2023-11-09 13:09:15.841737$GLGSV,2,2,05,86,53,308,49,,,,,,,,,,,,*5E
###2023-11-09 13:09:15.844315$GAGSV,1,1,04,07,73,259,46,08,48,043,44,13,63,161,45,26,57,310,46*66
###2023-11-09 13:09:15.846917$GBGSV,2,1,06,11,23,180,40,14,65,008,45,24,20,132,42,26,23,081,41*66
###2023-11-09 13:09:15.848873$GBGSV,2,2,06,28,43,287,46,33,59,304,48,,,,,,,,*68
###2023-11-09 13:09:15.850311$GNVTG,57.28,T,,M,3.83,N,7.09,K,A*1D
###2023-11-09 13:09:15.932002$GNGGA,130916.10,3611.0308903,N,07544.9567726,W,1,24,0.6,0.557,M,-39.962,M,0.0,*66
###2023-11-09 13:09:15.934593$GPGSV,2,1,07,05,20,090,41,10,19,293,44,13,24,045,40,15,61,037,46*73
###2023-11-09 13:09:15.936847$GPGSV,2,2,07,18,78,277,47,23,50,316,46,24,50,134,45,,,,*4F
###2023-11-09 13:09:15.939443$GLGSV,2,1,05,70,50,017,36,71,48,290,48,80,18,090,44,85,57,203,49*64
###2023-11-09 13:09:15.941059$GLGSV,2,2,05,86,53,308,49,,,,,,,,,,,,*5E
###2023-11-09 13:09:15.943630$GAGSV,1,1,04,07,73,259,46,08,48,043,44,13,63,161,45,26,57,310,46*66
###2023-11-09 13:09:15.946214$GBGSV,2,1,06,11,23,180,40,14,65,008,45,24,20,132,43,26,23,081,41*67
###2023-11-09 13:09:15.948165$GBGSV,2,2,06,28,43,287,46,33,59,304,48,,,,,,,,*68
###2023-11-09 13:09:15.949591$GNVTG,59.70,T,,M,3.85,N,7.13,K,A*13
###2023-11-09 13:09:16.032237$GNGGA,130916.20,3611.0309465,N,07544.9566601,W,1,24,0.6,0.544,M,-39.962,M,0.0,*6E
###2023-11-09 13:09:16.034831$GPGSV,2,1,07,05,20,090,42,10,19,293,42,13,24,045,40,15,61,037,46*76
###2023-11-09 13:09:16.037109$GPGSV,2,2,07,18,78,277,47,23,50,316,45,24,50,134,45,,,,*4C
###2023-11-09 13:09:16.039692$GLGSV,2,1,05,70,50,017,36,71,48,290,46,80,18,090,45,85,57,203,49*6B
###2023-11-09 13:09:16.041296$GLGSV,2,2,05,86,53,308,48,,,,,,,,,,,,*5F
###2023-11-09 13:09:16.044175$GAGSV,1,1,04,07,73,259,45,08,48,043,44,13,63,161,46,26,57,310,45*65
###2023-11-09 13:09:16.046776$GBGSV,2,1,06,11,23,180,42,14,65,008,45,24,20,132,44,26,23,081,42*61
###2023-11-09 13:09:16.048745$GBGSV,2,2,06,28,43,287,46,33,59,304,48,,,,,,,,*68
###2023-11-09 13:09:16.050187$GNVTG,56.05,T,,M,3.81,N,7.06,K,A*1E
###2023-11-09 13:09:16.131368$GNGGA,130916.30,3611.0310089,N,07544.9565560,W,1,24,0.6,0.530,M,-39.962,M,0.0,*65
###2023-11-09 13:09:16.133968$GPGSV,2,1,07,05,20,090,43,10,19,293,40,13,24,045,40,15,61,037,46*75
###2023-11-09 13:09:16.136240$GPGSV,2,2,07,18,78,277,47,23,50,316,44,24,50,134,45,,,,*4D
###2023-11-09 13:09:16.138966$GLGSV,2,1,05,70,50,017,36,71,48,290,46,80,18,090,45,85,57,203,50*63
###2023-11-09 13:09:16.140589$GLGSV,2,2,05,86,53,308,47,,,,,,,,,,,,*50
