###2023-11-09 13:10:07.538635$GLGSV,2,1,05,70,49,019,35,71,48,291,48,80,19,089,41,85,57,203,49*6C
###2023-11-09 13:10:07.540263$GLGSV,2,2,05,86,53,308,47,,,,,,,,,,,,*50
###2023-11-09 13:10:07.542834$GAGSV,1,1,04,07,73,259,45,08,48,043,43,13,63,161,45,26,57,310,44*60
###2023-11-09 13:10:07.545411$GBGSV,2,1,06,11,22,180,43,14,65,009,45,24,21,132,44,26,23,080,41*63
###2023-11-09 13:10:07.547362$GBGSV,2,2,06,28,43,286,46,33,59,305,46,,,,,,,,*66
###2023-11-09 13:10:07.548837$GNVTG,104.91,T,,M,4.00,N,7.42,K,A*2B
###2023-11-09 13:10:07.629763$GNGGA,131007.80,3611.0501731,N,07544.8911968,W,1,24,0.6,0.499,M,-39.961,M,0.0,*6F
###2023-11-09 13:10:07.632373$GPGSV,2,1,07,05,20,090,37,10,19,293,44,13,24,045,39,15,61,037,44*7E
###2023-11-09 13:10:07.634638$GPGSV,2,2,07,18,78,277,46,23,50,316,45,24,50,134,46,,,,*4E
###2023-11-09 13:10:07.637228$GLGSV,2,1,05,70,49,019,35,71,48,291,48,80,19,089,41,85,57,203,49*6C
###2023-11-09 13:10:07.638841$GLGSV,2,2,05,86,53,308,47,,,,,,,,,,,,*50
###2023-11-09 13:10:07.641404$GAGSV,1,1,04,07,73,259,45,08,48,043,43,13,63,161,45,26,57,310,44*60
###2023-11-09 13:10:07.643986$GBGSV,2,1,06,11,22,180,43,14,65,009,44,24,21,132,44,26,23,080,40*63
###2023-11-09 13:10:07.645921$GBGSV,2,2,06,28,43,286,46,33,59,305,46,,,,,,,,*66
###2023-11-09 13:10:07.647373$GNVTG,89.93,T,,M,4.08,N,7.56,K,A*10
###2023-11-09 13:10:07.730898$GNGGA,131007.90,3611.0501767,N,07544.8910545,W,1,23,0.6,0.556,M,-39.961,M,0.0,*6A
###2023-11-09 13:10:07.733523$GPGSV,2,1,07,05,20,090,37,10,19,293,44,13,24,045,42,15,61,037,45*73
###2023-11-09 13:10:07.735795$GPGSV,2,2,07,18,78,277,47,23,50,316,45,24,50,134,46,,,,*4F
###2023-11-09 13:10:07.738418$GLGSV,1,1,04,71,48,291,49,80,19,089,39,85,57,203,48,86,53,308,47*65
###2023-11-09 13:10:07.741002$GAGSV,1,1,04,07,73,259,45,08,48,043,43,13,63,161,45,26,57,310,44*60
###2023-11-09 13:10:07.743583$GBGSV,2,1,06,11,22,180,42,14,65,009,45,24,21,132,44,26,23,080,41*62
###2023-11-09 13:10:07.745525$GBGSV,2,2,06,28,43,286,47,33,59,305,46,,,,,,,,*67
###2023-11-09 13:10:07.746975$GNVTG,86.87,T,,M,4.28,N,7.92,K,A*10
###2023-11-09 13:10:07.833981$GNGGA,131008.00,3611.0501754,N,07544.8909111,W,1,24,0.6,0.573,M,-39.961,M,0.0,*61
###2023-11-09 13:10:07.836573$GPGSV,2,1,07,05,20,090,39,10,19,293,44,13,24,045,44,15,61,037,46*78
###2023-11-09 13:10:07.838844$GPGSV,2,2,07,18,78,277,47,23,50,316,45,24,50,134,46,,,,*4F
###2023-11-09 13:10:07.841411$GLGSV,2,1,05,70,49,019,35,71,48,291,49,80,19,089,42,85,57,203,48*6F
###2023-11-09 13:10:07.843010$GLGSV,2,2,05,86,53,308,47,,,,,,,,,,,,*50
###2023-11-09 13:10:07.845571$GAGSV,1,1,04,07,73,259,44,08,48,043,44,13,63,161,45,26,57,310,44*66
###2023-11-09 13:10:07.848161$GBGSV,2,1,06,11,22,180,41,14,65,009,45,24,21,132,43,26,23,080,42*65
###2023-11-09 13:10:07.850094$GBGSV,2,2,06,28,43,286,47,33,59,305,46,,,,,,,,*67
###2023-11-09 13:10:07.851519$GNVTG,95.42,T,,M,4.16,N,7.70,K,A*1A
###2023-11-09 13:10:07.939995$GNGGA,131008.10,3611.0501521,N,07544.8907758,W,1,24,0.6,0.568,M,-39.961,M,0.0,*6F
###2023-11-09 13:10:07.942602$GPGSV,2,1,07,05,20,090,42,10,19,293,44,13,24,045,44,15,61,037,46*74
###2023-11-09 13:10:07.944855$GPGSV,2,2,07,18,78,277,47,23,50,316,45,24,50,134,45,,,,*4C
###2023-11-09 13:10:07.947456$GLGSV,2,1,05,70,49,019,35,71,48,291,48,80,19,089,44,85,56,202,48*68
###2023-11-09 13:10:07.949069$GLGSV,2,2,05,86,53,308,47,,,,,,,,,,,,*50
###2023-11-09 13:10:07.951643$GAGSV,1,1,04,07,73,259,45,08,48,043,45,13,63,161,44,26,57,310,44*67
###2023-11-09 13:10:07.954217$GBGSV,2,1,06,11,22,180,41,14,65,009,45,24,21,132,43,26,23,080,42*65
###2023-11-09 13:10:07.956146$GBGSV,2,2,06,28,43,286,47,33,59,305,46,,,,,,,,*67
###2023-11-09 13:10:07.957626$GNVTG,109.03,T,,M,4.02,N,7.45,K,A*28
###2023-11-09 13:10:08.034241$GNGGA,131008.20,3611.0501096,N,07544.8906526,W,1,24,0.6,0.587,M,-39.961,M,0.0,*6E
###2023-11-09 13:10:08.036822$GPGSV,2,1,07,05,20,090,42,10,19,293,44,13,24,045,44,15,61,037,46*74
###2023-11-09 13:10:08.039092$GPGSV,2,2,07,18,78,277,47,23,50,316,45,24,50,134,45,,,,*4C
###2023-11-09 13:10:08.041660$GLGSV,2,1,05,70,49,019,35,71,48,291,49,80,19,089,44,85,56,202,48*69
###2023-11-09 13:10:08.043264$GLGSV,2,2,05,86,53,308,48,,,,,,,,,,,,*5F
###2023-11-09 13:10:08.045836$GAGSV,1,1,04,07,73,259,45,08,48,043,45,13,63,161,44,26,57,310,44*67
###2023-11-09 13:10:08.048429$GBGSV,2,1,06,11,22,180,41,14,65,009,45,24,21,132,43,26,23,080,42*65
###2023-11-09 13:10:08.050371$GBGSV,2,2,06,28,43,286,47,33,59,305,47,,,,,,,,*66
###2023-11-09 13:10:08.051838$GNVTG,117.30,T,,M,3.87,N,7.16,K,A*2B
###2023-11-09 13:10:08.135621$GNGGA,131008.30,3611.0500627,N,07544.8905396,W,1,24,0.6,0.640,M,-39.961,M,0.0,*64
###2023-11-09 13:10:08.138347$GPGSV,2,1,07,05,20,090,41,10,19,293,44,13,24,045,42,15,61,037,45*72
###2023-11-09 13:10:08.140596$GPGSV,2,2,07,18,78,277,46,23,50,316,45,24,50,134,45,,,,*4D
###2023-11-09 13:10:08.143158$GLGSV,2,1,05,70,49,019,35,71,48,291,49,80,19,089,43,85,56,202,48*6E
###2023-11-09 13:10:08.144763$GLGSV,2,2,05,86,53,308,47,,,,,,,,,,,,*50
###2023-11-09 13:10:08.147337$GAGSV,1,1,04,07,73,259,45,08,48,043,44,13,63,161,44,26,57,310,45*67
###2023-11-09 13:10:08.149927$GBGSV,2,1,06,11,22,180,42,14,65,009,45,24,21,132,42,26,23,080,42*67
###2023-11-09 13:10:08.151853$GBGSV,2,2,06,28,43,286,47,33,59,305,47,,,,,,,,*66
###2023-11-09 13:10:08.153319$GNVTG,117.04,T,,M,3.60,N,6.66,K,A*23
###2023-11-09 13:10:08.231773$GNGGA,131008.40,3611.0500262,N,07544.8904301,W,1,24,0.6,0.716,M,-39.961,M,0.0,*6B
###2023-11-09 13:10:08.234399$GPGSV,2,1,07,05,20,090,39,10,19,293,44,13,24,045,40,15,61,037,45*7F
###2023-11-09 13:10:08.236664$GPGSV,2,2,07,18,78,277,46,23,50,316,44,24,50,134,46,,,,*4F
###2023-11-09 13:10:08.239289$GLGSV,2,1,05,70,49,019,35,71,48,291,48,80,19,089,42,85,56,202,49*6F
###2023-11-09 13:10:08.240907$GLGSV,2,2,05,86,53,308,47,,,,,,,,,,,,*50
###2023-11-09 13:10:08.243479$GAGSV,1,1,04,07,73,259,45,08,48,043,44,13,63,161,44,26,57,310,45*67
###2023-11-09 13:10:08.246059$GBGSV,2,1,06,11,22,180,42,14,65,009,44,24,21,132,42,26,23,080,41*65
###2023-11-09 13:10:08.248014$GBGSV,2,2,06,28,43,286,47,33,59,305,47,,,,,,,,*66
###2023-11-09 13:10:08.249481$GNVTG,107.63,T,,M,3.40,N,6.30,K,A*22
###2023-11-09 13:10:08.354047$GNGGA,131008.50,3611.0500123,N,07544.8903211,W,1,24,0.6,0.808,M,-39.961,M,0.0,*6B
###2023-11-09 13:10:08.356643$GPGSV,2,1,07,05,20,090,39,10,19,293,43,13,24,045,39,15,61,037,45*76
###2023-11-09 13:10:08.358926$GPGSV,2,2,07,18,78,277,46,23,50,316,44,24,50,134,45,,,,*4C
###2023-11-09 13:10:08.361515$GLGSV,2,1,05,70,49,019,35,71,48,291,48,80,19,089,41,85,56,202,49*6C
###2023-11-09 13:10:08.363133$GLGSV,2,2,05,86,53,308,47,,,,,,,,,,,,*50
###2023-11-09 13:10:08.365720$GAGSV,1,1,04,07,73,259,45,08,48,043,44,13,63,161,45,26,57,310,45*66
###2023-11-09 13:10:08.368327$GBGSV,2,1,06,11,22,180,43,14,65,009,44,24,21,132,42,26,23,080,39*6B
###2023-11-09 13:10:08.370275$GBGSV,2,2,06,28,43,286,47,33,59,305,47,,,,,,,,*66
###2023-11-09 13:10:08.371703$GNVTG,90.91,T,,M,3.17,N,5.87,K,A*1D
###2023-11-09 13:10:08.430792$GNGGA,131008.60,3611.0500168,N,07544.8902142,W,1,24,0.6,0.897,M,-39.961,M,0.0,*65
###2023-11-09 13:10:08.433377$GPGSV,2,1,07,05,20,090,39,10,19,293,42,13,24,045,40,15,61,037,45*79
###2023-11-09 13:10:08.435629$GPGSV,2,2,07,18,78,277,46,23,50,316,45,24,50,134,45,,,,*4D
###2023-11-09 13:10:08.438240$GLGSV,2,1,05,70,49,019,35,71,48,291,48,80,19,089,41,85,56,202,49*6C
###2023-11-09 13:10:08.439843$GLGSV,2,2,05,86,53,308,48,,,,,,,,,,,,*5F
###2023-11-09 13:10:08.442411$GAGSV,1,1,04,07,73,259,45,08,48,043,44,13,63,161,45,26,57,310,46*65
###2023-11-09 13:10:08.444988$GBGSV,2,1,06,11,22,180,43,14,65,009,44,24,21,132,42,26,23,080,41*64
###2023-11-09 13:10:08.446924$GBGSV,2,2,06,28,43,286,47,33,59,305,47,,,,,,,,*66
###2023-11-09 13:10:08.448353$GNVTG,84.00,T,,M,3.15,N,5.83,K,A*16
###2023-11-09 13:10:08.531753$GNGGA,131008.70,3611.0500294,N,07544.8901054,W,1,24,0.6,0.965,M,-39.961,M,0.0,*6D
###2023-11-09 13:10:08.534354$GPGSV,2,1,07,05,20,090,39,10,19,293,43,13,24,045,42,15,61,037,45*7A
###2023-11-09 13:10:08.536616$GPGSV,2,2,07,18,78,277,46,23,50,316,45,24,50,134,45,,,,*4D
###2023-11-09 13:10:08.539214$GLGSV,2,1,05,70,49,019,35,71,48,291,49,80,19,089,41,85,56,202,48*6C
###2023-11-09 13:10:08.541120$GLGSV,2,2,05,86,53,308,48,,,,,,,,,,,,*5F
###2023-11-09 13:10:08.543717$GAGSV,1,1,04,07,73,259,45,08,48,043,44,13,63,161,45,26,57,310,45*66
###2023-11-09 13:10:08.546323$GBGSV,2,1,06,11,22,180,41,14,65,009,45,24,21,132,42,26,23,080,42*64
###2023-11-09 13:10:08.548283$GBGSV,2,2,06,28,43,286,47,33,59,305,47,,,,,,,,*66
###2023-11-09 13:10:08.549721$GNVTG,80.98,T,,M,3.32,N,6.16,K,A*19
###2023-11-09 13:10:08.632736$GNGGA,131008.80,3611.0500351,N,07544.8899924,W,1,24,0.6,0.988,M,-39.961,M,0.0,*67
###2023-11-09 13:10:08.635334$GPGSV,2,1,07,05,20,090,41,10,19,293,44,13,24,045,43,15,61,037,46*70
###2023-11-09 13:10:08.637615$GPGSV,2,2,07,18,78,277,46,23,50,316,45,24,50,134,45,,,,*4D
###2023-11-09 13:10:08.640202$GLGSV,2,1,05,70,49,019,35,71,48,291,49,80,19,089,43,85,56,202,47*61
###2023-11-09 13:10:08.641816$GLGSV,2,2,05,86,53,308,48,,,,,,,,,,,,*5F
