###2023-11-09 13:10:03.035664$GPGSV,2,1,07,05,20,090,42,10,19,293,43,13,24,045,39,15,61,037,44*7B
###2023-11-09 13:10:03.037975$GPGSV,2,2,07,18,78,277,46,23,50,316,44,24,50,134,46,,,,*4F
###2023-11-09 13:10:03.040536$GLGSV,1,1,04,71,48,291,47,80,19,089,43,85,57,203,49,86,53,308,46*66
###2023-11-09 13:10:03.043103$GAGSV,1,1,04,07,73,259,45,08,48,043,43,13,63,161,45,26,57,310,43*67
###2023-11-09 13:10:03.045663$GBGSV,2,1,06,11,22,180,43,14,65,009,43,24,21,132,44,26,23,080,42*66
###2023-11-09 13:10:03.047607$GBGSV,2,2,06,28,43,286,47,33,59,305,46,,,,,,,,*67
###2023-11-09 13:10:03.049029$GNVTG,52.50,T,,M,3.17,N,5.87,K,A*1E
###2023-11-09 13:10:03.129997$GNGGA,131003.30,3611.0502533,N,07544.8970834,W,1,23,0.6,0.927,M,-39.961,M,0.0,*63
###2023-11-09 13:10:03.132597$GPGSV,2,1,07,05,20,090,42,10,19,293,45,13,24,045,39,15,61,037,44*7D
###2023-11-09 13:10:03.134853$GPGSV,2,2,07,18,78,277,46,23,50,316,45,24,50,134,46,,,,*4E
###2023-11-09 13:10:03.137453$GLGSV,1,1,04,71,48,291,48,80,19,089,43,85,57,203,49,86,53,308,47*68
###2023-11-09 13:10:03.140020$GAGSV,1,1,04,07,73,259,45,08,48,043,44,13,63,161,45,26,57,310,44*67
###2023-11-09 13:10:03.142595$GBGSV,2,1,06,11,22,180,41,14,65,009,44,24,21,132,42,26,23,080,42*65
###2023-11-09 13:10:03.144535$GBGSV,2,2,06,28,43,286,47,33,59,305,47,,,,,,,,*66
###2023-11-09 13:10:03.145969$GNVTG,50.23,T,,M,3.34,N,6.19,K,A*1D
###2023-11-09 13:10:03.230983$GNGGA,131003.40,3611.0503019,N,07544.8969873,W,1,23,0.6,0.931,M,-39.961,M,0.0,*64
###2023-11-09 13:10:03.233587$GPGSV,2,1,07,05,20,090,42,10,19,293,47,13,24,045,42,15,61,037,45*72
###2023-11-09 13:10:03.235848$GPGSV,2,2,07,18,78,277,47,23,50,316,45,24,50,134,45,,,,*4C
###2023-11-09 13:10:03.238434$GLGSV,1,1,04,71,48,291,49,80,19,089,43,85,57,203,47,86,53,308,48*68
###2023-11-09 13:10:03.241013$GAGSV,1,1,04,07,73,259,45,08,48,043,45,13,63,161,44,26,57,310,45*66
###2023-11-09 13:10:03.243598$GBGSV,2,1,06,11,22,180,38,14,65,009,45,24,21,132,41,26,23,080,42*69
###2023-11-09 13:10:03.245539$GBGSV,2,2,06,28,43,286,47,33,59,305,47,,,,,,,,*66
###2023-11-09 13:10:03.246987$GNVTG,65.84,T,,M,3.29,N,6.08,K,A*1A
###2023-11-09 13:10:03.331095$GNGGA,131003.50,3611.0503258,N,07544.8968812,W,1,24,0.6,0.922,M,-39.961,M,0.0,*61
###2023-11-09 13:10:03.333670$GPGSV,2,1,07,05,20,090,42,10,19,293,47,13,24,045,42,15,61,037,46*71
###2023-11-09 13:10:03.335919$GPGSV,2,2,07,18,78,277,47,23,50,316,46,24,50,134,45,,,,*4F
###2023-11-09 13:10:03.338495$GLGSV,2,1,05,70,49,019,35,71,48,291,49,80,19,089,43,85,57,203,46*60
###2023-11-09 13:10:03.340087$GLGSV,2,2,05,86,53,308,48,,,,,,,,,,,,*5F
###2023-11-09 13:10:03.342634$GAGSV,1,1,04,07,73,259,45,08,48,043,45,13,63,161,44,26,57,310,45*66
###2023-11-09 13:10:03.345201$GBGSV,2,1,06,11,22,180,38,14,65,009,45,24,21,132,41,26,23,080,42*69
###2023-11-09 13:10:03.347134$GBGSV,2,2,06,28,43,286,47,33,59,305,47,,,,,,,,*66
###2023-11-09 13:10:03.348552$GNVTG,82.99,T,,M,3.17,N,5.87,K,A*16
###2023-11-09 13:10:03.431014$GNGGA,131003.60,3611.0503294,N,07544.8967725,W,1,24,0.6,0.917,M,-39.961,M,0.0,*60
###2023-11-09 13:10:03.433625$GPGSV,2,1,07,05,20,090,42,10,19,293,46,13,24,045,42,15,61,037,45*73
###2023-11-09 13:10:03.435893$GPGSV,2,2,07,18,78,277,47,23,50,316,46,24,50,134,44,,,,*4E
###2023-11-09 13:10:03.438498$GLGSV,2,1,05,70,49,019,35,71,48,291,49,80,19,089,43,85,57,203,46*60
###2023-11-09 13:10:03.440114$GLGSV,2,2,05,86,53,308,48,,,,,,,,,,,,*5F
###2023-11-09 13:10:03.442687$GAGSV,1,1,04,07,73,259,45,08,48,043,45,13,63,161,44,26,57,310,45*66
###2023-11-09 13:10:03.445257$GBGSV,2,1,06,11,22,180,36,14,65,009,45,24,21,132,41,26,23,080,43*66
###2023-11-09 13:10:03.447208$GBGSV,2,2,06,28,43,286,47,33,59,305,47,,,,,,,,*66
###2023-11-09 13:10:03.448638$GNVTG,92.32,T,,M,3.15,N,5.83,K,A*10
###2023-11-09 13:10:03.531096$GNGGA,131003.70,3611.0503229,N,07544.8966642,W,1,24,0.6,0.901,M,-39.961,M,0.0,*61
###2023-11-09 13:10:03.533663$GPGSV,2,1,07,05,20,090,42,10,19,293,44,13,24,045,42,15,61,037,45*71
###2023-11-09 13:10:03.535915$GPGSV,2,2,07,18,78,277,47,23,50,316,45,24,50,134,45,,,,*4C
###2023-11-09 13:10:03.538509$GLGSV,2,1,05,70,49,019,35,71,48,291,49,80,19,089,43,85,57,203,48*6E
###2023-11-09 13:10:03.540118$GLGSV,2,2,05,86,53,308,48,,,,,,,,,,,,*5F
###2023-11-09 13:10:03.542682$GAGSV,1,1,04,07,73,259,45,08,48,043,45,13,63,161,44,26,57,310,45*66
###2023-11-09 13:10:03.545251$GBGSV,2,1,06,11,22,180,40,14,65,009,45,24,21,132,42,26,23,080,43*64
###2023-11-09 13:10:03.547203$GBGSV,2,2,06,28,43,286,47,33,59,305,47,,,,,,,,*66
###2023-11-09 13:10:03.548629$GNVTG,96.43,T,,M,3.13,N,5.80,K,A*17
###2023-11-09 13:10:03.630981$GNGGA,131003.80,3611.0503147,N,07544.8965560,W,1,24,0.6,0.866,M,-39.961,M,0.0,*65
###2023-11-09 13:10:03.633543$GPGSV,2,1,07,05,20,090,40,10,19,293,42,13,24,045,39,15,61,037,45*79
###2023-11-09 13:10:03.635793$GPGSV,2,2,07,18,78,277,47,23,50,316,45,24,50,134,46,,,,*4F
###2023-11-09 13:10:03.638375$GLGSV,2,1,05,70,49,019,35,71,48,291,48,80,19,089,42,85,57,203,49*6F
###2023-11-09 13:10:03.639974$GLGSV,2,2,05,86,53,308,47,,,,,,,,,,,,*50
###2023-11-09 13:10:03.642525$GAGSV,1,1,04,07,73,259,45,08,48,043,44,13,63,161,45,26,57,310,45*66
###2023-11-09 13:10:03.645099$GBGSV,2,1,06,11,22,180,41,14,65,009,44,24,21,132,44,26,23,080,42*63
###2023-11-09 13:10:03.647027$GBGSV,2,2,06,28,43,286,47,33,59,305,46,,,,,,,,*67
###2023-11-09 13:10:03.648459$GNVTG,94.84,T,,M,3.15,N,5.83,K,A*1B
###2023-11-09 13:10:03.730994$GNGGA,131003.90,3611.0503169,N,07544.8964469,W,1,24,0.6,0.824,M,-39.961,M,0.0,*67
###2023-11-09 13:10:03.733602$GPGSV,2,1,07,05,20,090,40,10,19,293,42,13,24,045,39,15,61,037,44*78
###2023-11-09 13:10:03.735863$GPGSV,2,2,07,18,78,277,46,23,50,316,44,24,50,134,46,,,,*4F
###2023-11-09 13:10:03.738468$GLGSV,2,1,05,70,49,019,35,71,48,291,48,80,19,089,42,85,57,203,50*67
###2023-11-09 13:10:03.740082$GLGSV,2,2,05,86,53,308,47,,,,,,,,,,,,*50
###2023-11-09 13:10:03.742640$GAGSV,1,1,04,07,73,259,45,08,48,043,43,13,63,161,45,26,57,310,44*60
###2023-11-09 13:10:03.745221$GBGSV,2,1,06,11,22,180,44,14,65,009,44,24,21,132,45,26,23,080,40*65
###2023-11-09 13:10:03.747175$GBGSV,2,2,06,28,43,286,47,33,59,305,46,,,,,,,,*67
###2023-11-09 13:10:03.748605$GNVTG,82.67,T,,M,3.19,N,5.90,K,A*1F
###2023-11-09 13:10:03.833749$GNGGA,131004.00,3611.0503393,N,07544.8963366,W,1,23,0.6,0.782,M,-39.961,M,0.0,*65
###2023-11-09 13:10:03.836327$GPGSV,2,1,07,05,20,090,40,10,19,293,42,13,24,045,39,15,61,037,44*78
###2023-11-09 13:10:03.838595$GPGSV,2,2,07,18,78,277,46,23,50,316,44,24,50,134,46,,,,*4F
###2023-11-09 13:10:03.841159$GLGSV,1,1,04,71,48,291,47,80,19,089,42,85,57,203,50,86,53,308,46*6F
###2023-11-09 13:10:03.843727$GAGSV,1,1,04,07,73,259,45,08,48,043,43,13,63,161,45,26,57,310,44*60
###2023-11-09 13:10:03.846309$GBGSV,2,1,06,11,22,180,44,14,65,009,44,24,21,132,44,26,23,080,40*64
###2023-11-09 13:10:03.848257$GBGSV,2,2,06,28,43,286,47,33,59,305,46,,,,,,,,*67
###2023-11-09 13:10:03.849684$GNVTG,69.71,T,,M,3.42,N,6.34,K,A*1E
###2023-11-09 13:10:03.934859$GNGGA,131004.10,3611.0503734,N,07544.8962247,W,1,23,0.6,0.729,M,-39.961,M,0.0,*6F
###2023-11-09 13:10:03.937450$GPGSV,2,1,07,05,20,090,40,10,19,293,42,13,24,045,39,15,61,037,44*78
###2023-11-09 13:10:03.939694$GPGSV,2,2,07,18,78,277,46,23,50,316,45,24,50,134,46,,,,*4E
###2023-11-09 13:10:03.942250$GLGSV,1,1,04,71,48,291,47,80,19,089,42,85,57,203,48,86,53,308,46*66
###2023-11-09 13:10:03.944814$GAGSV,1,1,04,07,73,259,45,08,48,043,43,13,63,161,45,26,57,310,44*60
###2023-11-09 13:10:03.947387$GBGSV,2,1,06,11,22,180,43,14,65,009,44,24,21,132,44,26,23,080,42*61
###2023-11-09 13:10:03.949312$GBGSV,2,2,06,28,43,286,47,33,59,305,47,,,,,,,,*66
###2023-11-09 13:10:03.950732$GNVTG,69.16,T,,M,3.48,N,6.44,K,A*12
###2023-11-09 13:10:04.032496$GNGGA,131004.20,3611.0504056,N,07544.8961102,W,1,24,0.6,0.654,M,-39.961,M,0.0,*65
###2023-11-09 13:10:04.035100$GPGSV,2,1,07,05,20,090,40,10,19,293,44,13,24,045,40,15,61,037,45*71
###2023-11-09 13:10:04.037377$GPGSV,2,2,07,18,78,277,46,23,50,316,45,24,50,134,46,,,,*4E
###2023-11-09 13:10:04.039962$GLGSV,2,1,05,70,49,019,35,71,48,291,47,80,19,089,43,85,57,203,48*60
###2023-11-09 13:10:04.041571$GLGSV,2,2,05,86,53,308,47,,,,,,,,,,,,*50
###2023-11-09 13:10:04.044151$GAGSV,1,1,04,07,73,259,45,08,48,043,44,13,63,161,45,26,57,310,44*67
###2023-11-09 13:10:04.047066$GBGSV,2,1,06,11,22,180,41,14,65,009,45,24,21,132,44,26,23,080,42*62
###2023-11-09 13:10:04.049022$GBGSV,2,2,06,28,43,286,47,33,59,305,47,,,,,,,,*66
###2023-11-09 13:10:04.050458$GNVTG,72.76,T,,M,3.50,N,6.48,K,A*1B
###2023-11-09 13:10:04.130996$GNGGA,131004.30,3611.0504265,N,07544.8959942,W,1,24,0.6,0.580,M,-39.961,M,0.0,*6B
###2023-11-09 13:10:04.133601$GPGSV,2,1,07,05,20,090,42,10,19,293,44,13,24,045,42,15,61,037,46*72
###2023-11-09 13:10:04.135866$GPGSV,2,2,07,18,78,277,47,23,50,316,45,24,50,134,46,,,,*4F
###2023-11-09 13:10:04.138467$GLGSV,2,1,05,70,49,019,35,71,48,291,48,80,19,089,43,85,57,203,48*6F
###2023-11-09 13:10:04.140086$GLGSV,2,2,05,86,53,308,48,,,,,,,,,,,,*5F
###2023-11-09 13:10:04.142661$GAGSV,1,1,04,07,73,259,45,08,48,043,44,13,63,161,45,26,57,310,45*66
###2023-11-09 13:10:04.145243$GBGSV,2,1,06,11,22,180,40,14,65,009,45,24,21,132,43,26,23,080,43*65
