###2023-11-09 13:06:11.840597$GPGSV,2,2,07,18,77,285,47,23,49,314,46,24,49,137,45,,,,*4C
###2023-11-09 13:06:11.843208$GLGSV,1,1,04,71,48,288,49,80,17,091,44,85,59,204,48,86,52,311,47*60
###2023-11-09 13:06:11.845798$GAGSV,1,1,04,07,72,255,45,08,49,042,45,13,64,160,45,26,56,311,45*6C
###2023-11-09 13:06:11.848420$GBGSV,2,1,06,11,24,180,40,14,65,006,45,24,19,133,43,26,23,082,43*64
###2023-11-09 13:06:11.850364$GBGSV,2,2,06,28,43,289,48,33,58,302,47,,,,,,,,*60
###2023-11-09 13:06:11.851795$GNVTG,50.26,T,,M,0.89,N,1.66,K,A*12
###2023-11-09 13:06:11.935745$GNGGA,130612.10,3611.0393911,N,07544.9825578,W,1,23,0.6,1.314,M,-39.962,M,0.0,*69
###2023-11-09 13:06:11.938354$GPGSV,2,1,07,05,21,089,43,10,17,292,43,13,25,045,42,15,62,036,46*71
###2023-11-09 13:06:11.940621$GPGSV,2,2,07,18,77,282,47,23,49,314,46,24,49,137,45,,,,*4B
###2023-11-09 13:06:11.943210$GLGSV,1,1,04,71,48,288,49,80,17,091,44,85,58,203,47,86,52,311,47*69
###2023-11-09 13:06:11.945793$GAGSV,1,1,04,07,72,255,45,08,49,042,45,13,64,160,45,26,56,311,45*6C
###2023-11-09 13:06:11.948388$GBGSV,2,1,06,11,24,180,40,14,65,006,46,24,19,133,43,26,23,082,44*60
###2023-11-09 13:06:11.950340$GBGSV,2,2,06,28,43,289,48,33,58,302,47,,,,,,,,*60
###2023-11-09 13:06:11.951808$GNVTG,311.35,T,,M,1.03,N,1.91,K,A*2D
###2023-11-09 13:06:12.031694$GNGGA,130612.20,3611.0394083,N,07544.9825879,W,1,24,0.6,1.339,M,-39.962,M,0.0,*6B
###2023-11-09 13:06:12.034277$GPGSV,2,1,07,05,21,089,43,10,17,292,43,13,25,045,42,15,62,036,46*71
###2023-11-09 13:06:12.036521$GPGSV,2,2,07,18,77,282,47,23,49,314,46,24,49,137,45,,,,*4B
###2023-11-09 13:06:12.039087$GLGSV,2,1,05,70,50,016,35,71,48,288,49,80,17,091,45,85,58,203,47*60
###2023-11-09 13:06:12.040677$GLGSV,2,2,05,86,52,311,48,,,,,,,,,,,,*56
###2023-11-09 13:06:12.043234$GAGSV,1,1,04,07,72,255,45,08,49,042,45,13,64,160,45,26,56,311,46*6F
###2023-11-09 13:06:12.045804$GBGSV,2,1,06,11,24,180,40,14,65,006,46,24,19,133,43,26,23,082,45*61
###2023-11-09 13:06:12.047747$GBGSV,2,2,06,28,43,289,48,33,58,302,47,,,,,,,,*60
###2023-11-09 13:06:12.049210$GNVTG,300.21,T,,M,1.19,N,2.20,K,A*2A
###2023-11-09 13:06:12.129875$GNGGA,130612.30,3611.0394235,N,07544.9826245,W,1,24,0.6,1.366,M,-39.962,M,0.0,*69
###2023-11-09 13:06:12.132482$GPGSV,2,1,07,05,21,089,43,10,17,292,43,13,25,045,42,15,62,036,46*71
###2023-11-09 13:06:12.134755$GPGSV,2,2,07,18,77,282,47,23,49,314,46,24,49,137,45,,,,*4B
###2023-11-09 13:06:12.137354$GLGSV,2,1,05,70,50,016,35,71,48,288,49,80,17,091,45,85,58,203,47*60
###2023-11-09 13:06:12.138972$GLGSV,2,2,05,86,52,311,48,,,,,,,,,,,,*56
###2023-11-09 13:06:12.141555$GAGSV,1,1,04,07,72,255,45,08,49,042,46,13,64,160,45,26,56,311,46*6C
###2023-11-09 13:06:12.144137$GBGSV,2,1,06,11,24,180,40,14,65,006,46,24,19,133,43,26,23,082,45*61
###2023-11-09 13:06:12.146072$GBGSV,2,2,06,28,43,289,48,33,58,302,47,,,,,,,,*60
###2023-11-09 13:06:12.147552$GNVTG,295.08,T,,M,1.26,N,2.34,K,A*25
###2023-11-09 13:06:12.230593$GNGGA,130612.40,3611.0394382,N,07544.9826635,W,1,24,0.6,1.395,M,-39.962,M,0.0,*6C
###2023-11-09 13:06:12.233173$GPGSV,2,1,07,05,21,089,43,10,17,292,43,13,25,045,42,15,62,036,46*71
###2023-11-09 13:06:12.235411$GPGSV,2,2,07,18,77,282,47,23,49,314,46,24,49,137,45,,,,*4B
###2023-11-09 13:06:12.238007$GLGSV,2,1,05,70,50,016,35,71,48,288,49,80,17,091,45,85,58,203,47*60
###2023-11-09 13:06:12.239617$GLGSV,2,2,05,86,52,311,48,,,,,,,,,,,,*56
###2023-11-09 13:06:12.242175$GAGSV,1,1,04,07,72,255,45,08,49,042,46,13,64,160,45,26,56,311,45*6F
###2023-11-09 13:06:12.244744$GBGSV,2,1,06,11,24,180,40,14,65,006,46,24,19,133,43,26,23,082,44*60
###2023-11-09 13:06:12.246665$GBGSV,2,2,06,28,43,289,48,33,58,302,47,,,,,,,,*60
###2023-11-09 13:06:12.248143$GNVTG,295.68,T,,M,1.30,N,2.41,K,A*26
###2023-11-09 13:06:12.329729$GNGGA,130612.50,3611.0394548,N,07544.9827029,W,1,24,0.6,1.413,M,-39.962,M,0.0,*6E
###2023-11-09 13:06:12.332306$GPGSV,2,1,07,05,21,089,43,10,17,292,43,13,25,045,42,15,62,036,46*71
###2023-11-09 13:06:12.334546$GPGSV,2,2,07,18,77,282,47,23,49,314,46,24,49,137,45,,,,*4B
###2023-11-09 13:06:12.337123$GLGSV,2,1,05,70,50,016,35,71,48,288,49,80,17,091,45,85,58,203,47*60
###2023-11-09 13:06:12.338719$GLGSV,2,2,05,86,52,311,48,,,,,,,,,,,,*56
###2023-11-09 13:06:12.341278$GAGSV,1,1,04,07,72,255,45,08,49,042,46,13,64,160,45,26,56,311,45*6F
###2023-11-09 13:06:12.343849$GBGSV,2,1,06,11,24,180,40,14,65,006,45,24,19,133,43,26,23,082,44*63
###2023-11-09 13:06:12.345784$GBGSV,2,2,06,28,43,289,48,33,58,302,47,,,,,,,,*60
###2023-11-09 13:06:12.347248$GNVTG,300.17,T,,M,1.32,N,2.45,K,A*25
###2023-11-09 13:06:12.429798$GNGGA,130612.60,3611.0394728,N,07544.9827405,W,1,24,0.6,1.422,M,-39.962,M,0.0,*61
###2023-11-09 13:06:12.432419$GPGSV,2,1,07,05,21,089,42,10,17,292,43,13,25,045,42,15,62,036,46*70
###2023-11-09 13:06:12.434675$GPGSV,2,2,07,18,77,282,47,23,49,314,46,24,49,137,45,,,,*4B
###2023-11-09 13:06:12.437266$GLGSV,2,1,05,70,50,016,35,71,48,288,49,80,17,091,44,85,58,203,48*6E
###2023-11-09 13:06:12.438872$GLGSV,2,2,05,86,52,311,48,,,,,,,,,,,,*56
###2023-11-09 13:06:12.441438$GAGSV,1,1,04,07,72,255,45,08,49,042,46,13,64,160,45,26,56,311,45*6F
###2023-11-09 13:06:12.444008$GBGSV,2,1,06,11,24,180,40,14,65,006,45,24,19,133,42,26,23,082,43*65
###2023-11-09 13:06:12.445943$GBGSV,2,2,06,28,43,289,48,33,58,302,47,,,,,,,,*60
###2023-11-09 13:06:12.447420$GNVTG,302.73,T,,M,1.26,N,2.34,K,A*26
###2023-11-09 13:06:12.530744$GNGGA,130612.70,3611.0394935,N,07544.9827754,W,1,24,0.6,1.420,M,-39.962,M,0.0,*67
###2023-11-09 13:06:12.533320$GPGSV,2,1,07,05,21,089,41,10,17,292,43,13,25,045,42,15,62,036,46*73
###2023-11-09 13:06:12.535586$GPGSV,2,2,07,18,77,282,47,23,49,314,46,24,49,137,45,,,,*4B
###2023-11-09 13:06:12.538181$GLGSV,2,1,05,70,50,016,35,71,48,288,49,80,17,091,44,85,58,203,48*6E
###2023-11-09 13:06:12.539800$GLGSV,2,2,05,86,52,311,48,,,,,,,,,,,,*56
###2023-11-09 13:06:12.542366$GAGSV,1,1,04,07,72,255,45,08,49,042,45,13,64,160,45,26,56,311,45*6C
###2023-11-09 13:06:12.544941$GBGSV,2,1,06,11,24,180,41,14,65,006,45,24,19,133,42,26,23,082,42*65
###2023-11-09 13:06:12.546874$GBGSV,2,2,06,28,43,289,48,33,58,302,47,,,,,,,,*60
###2023-11-09 13:06:12.548360$GNVTG,310.25,T,,M,1.30,N,2.41,K,A*23
###2023-11-09 13:06:12.629717$GNGGA,130612.80,3611.0395175,N,07544.9828076,W,1,24,0.6,1.410,M,-39.962,M,0.0,*6E
###2023-11-09 13:06:12.632283$GPGSV,2,1,07,05,21,089,42,10,17,292,43,13,25,045,40,15,62,036,46*72
###2023-11-09 13:06:12.634522$GPGSV,2,2,07,18,77,282,46,23,49,314,46,24,49,137,45,,,,*4A
###2023-11-09 13:06:12.637103$GLGSV,2,1,05,70,50,016,35,71,48,288,49,80,17,091,44,85,58,203,48*6E
###2023-11-09 13:06:12.638717$GLGSV,2,2,05,86,52,311,48,,,,,,,,,,,,*56
###2023-11-09 13:06:12.641283$GAGSV,1,1,04,07,72,255,45,08,49,042,45,13,64,160,45,26,56,311,45*6C
###2023-11-09 13:06:12.643841$GBGSV,2,1,06,11,24,180,41,14,65,006,45,24,19,133,42,26,23,082,42*65
###2023-11-09 13:06:12.645767$GBGSV,2,2,06,28,43,289,46,33,58,302,47,,,,,,,,*6E
###2023-11-09 13:06:12.647271$GNVTG,315.04,T,,M,1.28,N,2.38,K,A*22
###2023-11-09 13:06:12.728769$GNGGA,130612.90,3611.0395417,N,07544.9828374,W,1,24,0.6,1.385,M,-39.962,M,0.0,*64
###2023-11-09 13:06:12.731385$GPGSV,2,1,07,05,21,089,42,10,17,292,43,13,25,045,41,15,62,036,46*73
###2023-11-09 13:06:12.733649$GPGSV,2,2,07,18,77,282,46,23,49,314,46,24,49,137,46,,,,*49
###2023-11-09 13:06:12.736237$GLGSV,2,1,05,70,50,016,35,71,48,288,49,80,17,091,44,85,58,203,48*6E
###2023-11-09 13:06:12.737872$GLGSV,2,2,05,86,52,311,48,,,,,,,,,,,,*56
###2023-11-09 13:06:12.740463$GAGSV,1,1,04,07,72,255,45,08,49,042,45,13,64,160,45,26,56,311,45*6C
###2023-11-09 13:06:12.743048$GBGSV,2,1,06,11,24,180,41,14,65,006,45,24,19,133,42,26,23,082,42*65
###2023-11-09 13:06:12.744996$GBGSV,2,2,06,28,43,289,46,33,58,302,47,,,,,,,,*6E
###2023-11-09 13:06:12.746467$GNVTG,315.25,T,,M,1.21,N,2.23,K,A*22
###2023-11-09 13:06:12.832852$GNGGA,130613.00,3611.0395633,N,07544.9828661,W,1,24,0.6,1.352,M,-39.962,M,0.0,*63
###2023-11-09 13:06:12.835449$GPGSV,2,1,07,05,21,089,42,10,17,292,43,13,25,045,42,15,62,036,46*70
###2023-11-09 13:06:12.837734$GPGSV,2,2,07,18,77,282,46,23,49,314,46,24,49,137,46,,,,*49
###2023-11-09 13:06:12.840316$GLGSV,2,1,05,70,50,016,35,71,48,288,49,80,17,091,44,85,58,203,48*6E
###2023-11-09 13:06:12.842221$GLGSV,2,2,05,86,52,311,48,,,,,,,,,,,,*56
###2023-11-09 13:06:12.844817$GAGSV,1,1,04,07,72,255,45,08,49,042,45,13,64,160,45,26,56,311,45*6C
###2023-11-09 13:06:12.847437$GBGSV,2,1,06,11,24,180,41,14,65,006,45,24,19,133,42,26,23,082,43*64
###2023-11-09 13:06:12.849386$GBGSV,2,2,06,28,43,289,46,33,58,302,48,,,,,,,,*61
###2023-11-09 13:06:12.850849$GNVTG,310.58,T,,M,1.11,N,2.05,K,A*2A
###2023-11-09 13:06:12.937136$GNGGA,130613.10,3611.0395824,N,07544.9828911,W,1,24,0.6,1.315,M,-39.962,M,0.0,*61
###2023-11-09 13:06:12.939732$GPGSV,2,1,07,05,21,089,42,10,17,292,43,13,25,045,42,15,62,036,46*70
###2023-11-09 13:06:12.941990$GPGSV,2,2,07,18,77,282,46,23,49,314,46,24,49,137,46,,,,*49
###2023-11-09 13:06:12.944550$GLGSV,2,1,05,70,50,016,35,71,48,288,49,80,17,091,44,85,58,203,48*6E
###2023-11-09 13:06:12.946151$GLGSV,2,2,05,86,52,309,48,,,,,,,,,,,,*5F
