###2023-11-09 13:07:58.246973$GNVTG,255.06,T,,M,4.08,N,7.56,K,A*2F
###2023-11-09 13:07:58.329044$GNGGA,130758.50,3611.0464624,N,07544.9807674,W,1,24,0.6,0.954,M,-39.961,M,0.0,*60
###2023-11-09 13:07:58.331660$GPGSV,2,1,07,05,21,090,43,10,18,292,44,13,24,045,42,15,62,037,46*71
###2023-11-09 13:07:58.333927$GPGSV,2,2,07,18,77,281,46,23,50,315,45,24,49,136,46,,,,*41
###2023-11-09 13:07:58.336511$GLGSV,2,1,05,70,50,017,36,71,48,290,49,80,17,091,45,85,58,203,48*64
###2023-11-09 13:07:58.338142$GLGSV,2,2,05,86,52,309,48,,,,,,,,,,,,*5F
###2023-11-09 13:07:58.340716$GAGSV,1,1,04,07,72,258,44,08,49,042,45,13,64,160,44,26,56,310,44*61
###2023-11-09 13:07:58.343309$GBGSV,2,1,06,11,23,180,40,14,65,008,46,24,20,132,44,26,23,081,44*66
###2023-11-09 13:07:58.345254$GBGSV,2,2,06,28,43,287,47,33,59,304,47,,,,,,,,*66
###2023-11-09 13:07:58.346719$GNVTG,252.48,T,,M,3.98,N,7.38,K,A*24
###2023-11-09 13:07:58.430116$GNGGA,130758.60,3611.0464307,N,07544.9808971,W,1,24,0.6,0.958,M,-39.961,M,0.0,*6E
###2023-11-09 13:07:58.432711$GPGSV,2,1,07,05,21,090,43,10,18,292,44,13,24,045,42,15,62,037,46*71
###2023-11-09 13:07:58.434973$GPGSV,2,2,07,18,77,281,46,23,50,315,45,24,49,136,46,,,,*41
###2023-11-09 13:07:58.437575$GLGSV,2,1,05,70,50,017,36,71,48,290,49,80,17,091,45,85,58,203,48*64
###2023-11-09 13:07:58.439188$GLGSV,2,2,05,86,52,309,48,,,,,,,,,,,,*5F
###2023-11-09 13:07:58.441769$GAGSV,1,1,04,07,72,258,44,08,49,042,45,13,64,160,43,26,56,310,44*66
###2023-11-09 13:07:58.444351$GBGSV,2,1,06,11,23,180,40,14,65,008,46,24,20,132,43,26,23,081,44*61
###2023-11-09 13:07:58.446289$GBGSV,2,2,06,28,43,287,47,33,59,304,47,,,,,,,,*66
###2023-11-09 13:07:58.447771$GNVTG,253.54,T,,M,3.97,N,7.34,K,A*2B
###2023-11-09 13:07:58.529121$GNGGA,130758.70,3611.0464007,N,07544.9810283,W,1,24,0.6,0.963,M,-39.961,M,0.0,*6B
###2023-11-09 13:07:58.531712$GPGSV,2,1,07,05,21,090,43,10,18,292,44,13,24,045,42,15,62,037,46*71
###2023-11-09 13:07:58.533963$GPGSV,2,2,07,18,77,281,46,23,50,315,45,24,49,136,45,,,,*42
###2023-11-09 13:07:58.536535$GLGSV,2,1,05,70,50,017,36,71,48,290,49,80,17,091,45,85,58,203,48*64
###2023-11-09 13:07:58.538153$GLGSV,2,2,05,86,52,309,48,,,,,,,,,,,,*5F
###2023-11-09 13:07:58.540720$GAGSV,1,1,04,07,72,258,44,08,49,042,45,13,64,160,43,26,56,310,44*66
###2023-11-09 13:07:58.543289$GBGSV,2,1,06,11,23,180,40,14,65,008,46,24,20,132,43,26,23,081,44*61
###2023-11-09 13:07:58.545218$GBGSV,2,2,06,28,43,287,47,33,59,304,47,,,,,,,,*66
###2023-11-09 13:07:58.546678$GNVTG,254.58,T,,M,4.02,N,7.45,K,A*2D
###2023-11-09 13:07:58.629029$GNGGA,130758.80,3611.0463698,N,07544.9811599,W,1,24,0.6,0.966,M,-39.961,M,0.0,*6B
###2023-11-09 13:07:58.631638$GPGSV,2,1,07,05,21,090,43,10,18,292,44,13,24,045,42,15,62,037,46*71
###2023-11-09 13:07:58.633907$GPGSV,2,2,07,18,77,281,46,23,50,315,45,24,49,136,45,,,,*42
###2023-11-09 13:07:58.636480$GLGSV,2,1,05,70,50,017,36,71,48,290,49,80,17,091,45,85,58,203,48*64
###2023-11-09 13:07:58.638109$GLGSV,2,2,05,86,52,309,48,,,,,,,,,,,,*5F
###2023-11-09 13:07:58.640691$GAGSV,1,1,04,07,72,258,44,08,49,042,45,13,64,160,43,26,56,310,44*66
###2023-11-09 13:07:58.643270$GBGSV,2,1,06,11,23,180,40,14,65,008,46,24,20,132,43,26,23,081,44*61
###2023-11-09 13:07:58.645197$GBGSV,2,2,06,28,43,287,47,33,59,304,47,,,,,,,,*66
###2023-11-09 13:07:58.646659$GNVTG,252.64,T,,M,4.02,N,7.45,K,A*24
###2023-11-09 13:07:58.729124$GNGGA,130758.90,3611.0463350,N,07544.9812884,W,1,24,0.6,0.960,M,-39.961,M,0.0,*6F
###2023-11-09 13:07:58.731721$GPGSV,2,1,07,05,21,090,43,10,18,292,44,13,24,045,42,15,62,037,46*71
###2023-11-09 13:07:58.733969$GPGSV,2,2,07,18,77,281,46,23,50,315,46,24,49,136,45,,,,*41
###2023-11-09 13:07:58.736539$GLGSV,2,1,05,70,50,017,36,71,48,290,48,80,17,091,45,85,58,203,48*65
###2023-11-09 13:07:58.738164$GLGSV,2,2,05,86,52,309,48,,,,,,,,,,,,*5F
###2023-11-09 13:07:58.740746$GAGSV,1,1,04,07,72,258,44,08,49,042,45,13,64,160,44,26,56,310,44*61
###2023-11-09 13:07:58.743326$GBGSV,2,1,06,11,23,180,40,14,65,008,46,24,20,132,43,26,23,081,44*61
###2023-11-09 13:07:58.745265$GBGSV,2,2,06,28,43,287,47,33,59,304,47,,,,,,,,*66
###2023-11-09 13:07:58.746732$GNVTG,250.02,T,,M,3.93,N,7.27,K,A*2D
###2023-11-09 13:07:58.830985$GNGGA,130759.00,3611.0462951,N,07544.9814119,W,1,24,0.6,0.945,M,-39.961,M,0.0,*61
###2023-11-09 13:07:58.833572$GPGSV,2,1,07,05,21,090,43,10,18,292,44,13,24,045,42,15,62,037,46*71
###2023-11-09 13:07:58.835817$GPGSV,2,2,07,18,77,281,46,23,50,315,46,24,49,136,45,,,,*41
###2023-11-09 13:07:58.838405$GLGSV,2,1,05,70,50,017,36,71,48,290,48,80,17,091,45,85,58,203,48*65
###2023-11-09 13:07:58.840004$GLGSV,2,2,05,86,52,309,47,,,,,,,,,,,,*50
###2023-11-09 13:07:58.842560$GAGSV,1,1,04,07,72,258,44,08,49,042,45,13,64,160,44,26,56,310,44*61
###2023-11-09 13:07:58.845130$GBGSV,2,1,06,11,23,180,40,14,65,008,46,24,20,132,43,26,23,081,44*61
###2023-11-09 13:07:58.847077$GBGSV,2,2,06,28,43,287,47,33,59,304,47,,,,,,,,*66
###2023-11-09 13:07:58.848536$GNVTG,246.05,T,,M,3.89,N,7.20,K,A*21
###2023-11-09 13:07:58.929982$GNGGA,130759.10,3611.0462526,N,07544.9815339,W,1,24,0.6,0.930,M,-39.961,M,0.0,*6F
###2023-11-09 13:07:58.932581$GPGSV,2,1,07,05,21,090,43,10,18,292,44,13,24,045,42,15,62,037,46*71
###2023-11-09 13:07:58.934850$GPGSV,2,2,07,18,77,281,46,23,50,315,45,24,49,136,46,,,,*41
###2023-11-09 13:07:58.937441$GLGSV,2,1,05,70,50,017,36,71,48,290,48,80,17,091,45,85,58,203,48*65
###2023-11-09 13:07:58.939049$GLGSV,2,2,05,86,52,309,47,,,,,,,,,,,,*50
###2023-11-09 13:07:58.941610$GAGSV,1,1,04,07,72,258,44,08,49,042,45,13,64,160,44,26,56,310,44*61
###2023-11-09 13:07:58.944187$GBGSV,2,1,06,11,23,180,40,14,65,008,45,24,20,132,44,26,23,081,44*65
###2023-11-09 13:07:58.946125$GBGSV,2,2,06,28,43,287,47,33,59,304,47,,,,,,,,*66
###2023-11-09 13:07:58.947606$GNVTG,247.06,T,,M,3.91,N,7.24,K,A*2E
###2023-11-09 13:07:59.032244$GNGGA,130759.20,3611.0462134,N,07544.9816589,W,1,24,0.6,0.922,M,-39.961,M,0.0,*66
###2023-11-09 13:07:59.034836$GPGSV,2,1,07,05,21,090,43,10,18,292,44,13,24,045,42,15,62,037,46*71
###2023-11-09 13:07:59.037104$GPGSV,2,2,07,18,77,281,46,23,50,315,45,24,49,136,46,,,,*41
###2023-11-09 13:07:59.039669$GLGSV,2,1,05,70,50,017,36,71,48,290,48,80,17,091,46,85,58,203,49*67
###2023-11-09 13:07:59.041272$GLGSV,2,2,05,86,52,309,47,,,,,,,,,,,,*50
###2023-11-09 13:07:59.043833$GAGSV,1,1,04,07,72,258,44,08,49,042,45,13,64,160,44,26,56,310,44*61
###2023-11-09 13:07:59.046409$GBGSV,2,1,06,11,23,180,40,14,65,008,45,24,20,132,44,26,23,081,44*65
###2023-11-09 13:07:59.048357$GBGSV,2,2,06,28,43,287,47,33,59,304,47,,,,,,,,*66
###2023-11-09 13:07:59.049821$GNVTG,250.39,T,,M,3.97,N,7.34,K,A*23
###2023-11-09 13:07:59.127977$GNGGA,130759.30,3611.0461751,N,07544.9817864,W,1,24,0.6,0.918,M,-39.961,M,0.0,*67
###2023-11-09 13:07:59.130551$GPGSV,2,1,07,05,21,090,43,10,18,292,45,13,24,045,42,15,62,037,46*70
###2023-11-09 13:07:59.132794$GPGSV,2,2,07,18,77,281,46,23,50,315,46,24,49,136,46,,,,*42
###2023-11-09 13:07:59.135359$GLGSV,2,1,05,70,50,017,36,71,48,290,48,80,17,091,46,85,58,203,48*66
###2023-11-09 13:07:59.136964$GLGSV,2,2,05,86,52,309,47,,,,,,,,,,,,*50
###2023-11-09 13:07:59.139509$GAGSV,1,1,04,07,72,258,44,08,49,042,45,13,64,160,44,26,56,310,44*61
###2023-11-09 13:07:59.142066$GBGSV,2,1,06,11,23,180,40,14,65,008,46,24,20,132,44,26,23,081,44*66
###2023-11-09 13:07:59.143983$GBGSV,2,2,06,28,43,287,47,33,59,304,47,,,,,,,,*66
###2023-11-09 13:07:59.145438$GNVTG,248.86,T,,M,3.98,N,7.38,K,A*2D
###2023-11-09 13:07:59.227998$GNGGA,130759.40,3611.0461330,N,07544.9819105,W,1,24,0.6,0.922,M,-39.961,M,0.0,*6A
###2023-11-09 13:07:59.230595$GPGSV,2,1,07,05,21,090,43,10,18,292,45,13,24,045,42,15,62,037,46*70
###2023-11-09 13:07:59.232852$GPGSV,2,2,07,18,77,281,46,23,50,315,46,24,49,136,45,,,,*41
###2023-11-09 13:07:59.235433$GLGSV,2,1,05,70,50,017,36,71,48,290,48,80,17,091,45,85,58,203,48*65
###2023-11-09 13:07:59.237051$GLGSV,2,2,05,86,52,309,48,,,,,,,,,,,,*5F
###2023-11-09 13:07:59.239624$GAGSV,1,1,04,07,72,258,44,08,49,042,45,13,64,160,44,26,56,310,44*61
###2023-11-09 13:07:59.242205$GBGSV,2,1,06,11,23,180,39,14,65,008,46,24,20,132,43,26,23,081,44*6F
###2023-11-09 13:07:59.244136$GBGSV,2,2,06,28,43,287,47,33,59,304,47,,,,,,,,*66
###2023-11-09 13:07:59.245895$GNVTG,245.40,T,,M,3.89,N,7.20,K,A*23
###2023-11-09 13:07:59.328999$GNGGA,130759.50,3611.0460851,N,07544.9820260,W,1,24,0.6,0.921,M,-39.961,M,0.0,*6F
###2023-11-09 13:07:59.331610$GPGSV,2,1,07,05,21,090,43,10,18,292,45,13,24,045,42,15,62,037,46*70
###2023-11-09 13:07:59.333869$GPGSV,2,2,07,18,77,281,46,23,50,315,46,24,49,136,45,,,,*41
###2023-11-09 13:07:59.336436$GLGSV,2,1,05,70,50,017,36,71,48,290,49,80,17,091,45,85,58,203,48*64
###2023-11-09 13:07:59.338063$GLGSV,2,2,05,86,52,309,48,,,,,,,,,,,,*5F
###2023-11-09 13:07:59.340627$GAGSV,1,1,04,07,72,258,44,08,49,042,45,13,64,160,44,26,56,310,44*61
###2023-11-09 13:07:59.343202$GBGSV,2,1,06,11,23,180,39,14,65,008,46,24,20,132,43,26,23,081,43*68
###2023-11-09 13:07:59.345131$GBGSV,2,2,06,28,43,287,47,33,59,304,47,,,,,,,,*66
###2023-11-09 13:07:59.346590$GNVTG,240.13,T,,M,3.71,N,6.88,K,A*24
