###2023-11-09 13:08:12.735426$GLGSV,2,1,05,70,50,017,36,71,48,290,49,80,18,090,45,85,57,203,47*6A
###2023-11-09 13:08:12.737090$GLGSV,2,2,05,86,53,308,48,,,,,,,,,,,,*5F
###2023-11-09 13:08:12.739683$GAGSV,1,1,04,07,72,258,44,08,49,042,45,13,64,160,45,26,56,310,44*60
###2023-11-09 13:08:12.742284$GBGSV,2,1,06,11,23,180,41,14,65,008,45,24,20,132,44,26,23,081,43*63
###2023-11-09 13:08:12.744238$GBGSV,2,2,06,28,43,287,47,33,59,304,47,,,,,,,,*66
###2023-11-09 13:08:12.745709$GNVTG,257.48,T,,M,3.54,N,6.55,K,A*2B
###2023-11-09 13:08:12.831615$GNGGA,130813.00,3611.0405820,N,07545.0011995,W,1,24,0.6,0.895,M,-39.962,M,0.0,*60
###2023-11-09 13:08:12.834215$GPGSV,2,1,07,05,21,090,43,10,18,292,43,13,24,045,42,15,62,037,46*76
###2023-11-09 13:08:12.836489$GPGSV,2,2,07,18,77,281,46,23,50,315,45,24,49,136,45,,,,*42
###2023-11-09 13:08:12.839111$GLGSV,2,1,05,70,50,017,36,71,48,290,49,80,18,090,45,85,57,203,47*6A
###2023-11-09 13:08:12.840738$GLGSV,2,2,05,86,53,308,48,,,,,,,,,,,,*5F
###2023-11-09 13:08:12.843325$GAGSV,1,1,04,07,72,258,44,08,49,042,45,13,64,160,45,26,56,310,44*60
###2023-11-09 13:08:12.845911$GBGSV,2,1,06,11,23,180,41,14,65,008,46,24,20,132,43,26,23,081,43*67
###2023-11-09 13:08:12.847870$GBGSV,2,2,06,28,43,287,47,33,59,304,47,,,,,,,,*66
###2023-11-09 13:08:12.849340$GNVTG,258.04,T,,M,3.54,N,6.55,K,A*2C
###2023-11-09 13:08:12.928626$GNGGA,130813.10,3611.0405599,N,07545.0013152,W,1,24,0.6,0.889,M,-39.962,M,0.0,*62
###2023-11-09 13:08:12.931223$GPGSV,2,1,07,05,21,090,43,10,18,292,44,13,24,045,42,15,62,037,46*71
###2023-11-09 13:08:12.933469$GPGSV,2,2,07,18,77,281,46,23,50,315,45,24,49,136,44,,,,*43
###2023-11-09 13:08:12.936034$GLGSV,2,1,05,70,50,017,36,71,48,290,49,80,18,090,45,85,57,203,47*6A
###2023-11-09 13:08:12.937651$GLGSV,2,2,05,86,53,308,48,,,,,,,,,,,,*5F
###2023-11-09 13:08:12.940223$GAGSV,1,1,04,07,72,258,44,08,49,042,45,13,64,160,45,26,56,310,44*60
###2023-11-09 13:08:12.942792$GBGSV,2,1,06,11,23,180,40,14,65,008,46,24,20,132,43,26,23,081,43*66
###2023-11-09 13:08:12.944717$GBGSV,2,2,06,28,43,287,47,33,59,304,47,,,,,,,,*66
###2023-11-09 13:08:12.946174$GNVTG,255.51,T,,M,3.48,N,6.44,K,A*2C
###2023-11-09 13:08:13.030121$GNGGA,130813.20,3611.0405333,N,07545.0014291,W,1,24,0.6,0.887,M,-39.962,M,0.0,*62
###2023-11-09 13:08:13.032728$GPGSV,2,1,07,05,21,090,43,10,18,292,44,13,24,045,42,15,62,037,46*71
###2023-11-09 13:08:13.034994$GPGSV,2,2,07,18,77,281,46,23,50,315,45,24,49,136,44,,,,*43
###2023-11-09 13:08:13.037602$GLGSV,2,1,05,70,50,017,36,71,48,290,49,80,18,090,45,85,57,203,47*6A
###2023-11-09 13:08:13.039218$GLGSV,2,2,05,86,53,308,48,,,,,,,,,,,,*5F
###2023-11-09 13:08:13.041800$GAGSV,1,1,04,07,72,258,44,08,49,042,45,13,64,160,45,26,56,310,44*60
###2023-11-09 13:08:13.044380$GBGSV,2,1,06,11,23,180,40,14,65,008,46,24,20,132,43,26,23,081,43*66
###2023-11-09 13:08:13.046315$GBGSV,2,2,06,28,43,287,46,33,59,304,47,,,,,,,,*67
###2023-11-09 13:08:13.047802$GNVTG,252.53,T,,M,3.52,N,6.52,K,A*25
###2023-11-09 13:08:13.128625$GNGGA,130813.30,3611.0405029,N,07545.0015430,W,1,24,0.6,0.883,M,-39.962,M,0.0,*63
###2023-11-09 13:08:13.131214$GPGSV,2,1,07,05,21,090,43,10,18,292,44,13,24,045,42,15,62,037,46*71
###2023-11-09 13:08:13.133465$GPGSV,2,2,07,18,77,281,46,23,50,315,45,24,49,136,44,,,,*43
###2023-11-09 13:08:13.136034$GLGSV,2,1,05,70,50,017,36,71,48,290,49,80,18,090,45,85,57,203,47*6A
###2023-11-09 13:08:13.137662$GLGSV,2,2,05,86,53,308,48,,,,,,,,,,,,*5F
###2023-11-09 13:08:13.140230$GAGSV,1,1,04,07,72,258,44,08,49,042,45,13,64,160,45,26,56,310,44*60
###2023-11-09 13:08:13.142813$GBGSV,2,1,06,11,23,180,40,14,65,008,46,24,20,132,43,26,23,081,43*66
###2023-11-09 13:08:13.144755$GBGSV,2,2,06,28,43,287,46,33,59,304,47,,,,,,,,*67
###2023-11-09 13:08:13.146248$GNVTG,251.23,T,,M,3.54,N,6.55,K,A*20
###2023-11-09 13:08:13.227632$GNGGA,130813.40,3611.0404711,N,07545.0016567,W,1,24,0.6,0.872,M,-39.962,M,0.0,*67
###2023-11-09 13:08:13.230221$GPGSV,2,1,07,05,21,090,43,10,18,292,44,13,24,045,42,15,62,037,46*71
###2023-11-09 13:08:13.232464$GPGSV,2,2,07,18,77,281,46,23,50,315,45,24,49,136,44,,,,*43
###2023-11-09 13:08:13.235027$GLGSV,2,1,05,70,50,017,36,71,48,290,49,80,18,090,45,85,57,203,47*6A
###2023-11-09 13:08:13.236622$GLGSV,2,2,05,86,53,308,48,,,,,,,,,,,,*5F
###2023-11-09 13:08:13.239188$GAGSV,1,1,04,07,72,258,44,08,49,042,45,13,64,160,45,26,56,310,44*60
###2023-11-09 13:08:13.241753$GBGSV,2,1,06,11,23,180,40,14,65,008,46,24,20,132,43,26,23,081,43*66
###2023-11-09 13:08:13.243672$GBGSV,2,2,06,28,43,287,46,33,59,304,47,,,,,,,,*67
###2023-11-09 13:08:13.245121$GNVTG,250.93,T,,M,3.54,N,6.55,K,A*2A
###2023-11-09 13:08:13.327620$GNGGA,130813.50,3611.0404409,N,07545.0017704,W,1,24,0.6,0.852,M,-39.962,M,0.0,*68
###2023-11-09 13:08:13.330221$GPGSV,2,1,07,05,21,090,43,10,18,292,43,13,24,045,42,15,62,037,46*76
###2023-11-09 13:08:13.332470$GPGSV,2,2,07,18,77,281,46,23,50,315,45,24,49,136,45,,,,*42
###2023-11-09 13:08:13.335038$GLGSV,2,1,05,70,50,017,36,71,48,290,49,80,18,090,45,85,57,203,47*6A
###2023-11-09 13:08:13.336649$GLGSV,2,2,05,86,53,308,48,,,,,,,,,,,,*5F
###2023-11-09 13:08:13.339230$GAGSV,1,1,04,07,72,258,44,08,49,042,45,13,64,160,45,26,56,310,44*60
###2023-11-09 13:08:13.341811$GBGSV,2,1,06,11,23,180,40,14,65,008,46,24,20,132,43,26,23,081,43*66
###2023-11-09 13:08:13.343744$GBGSV,2,2,06,28,43,287,46,33,59,304,47,,,,,,,,*67
###2023-11-09 13:08:13.345212$GNVTG,252.82,T,,M,3.52,N,6.52,K,A*29
###2023-11-09 13:08:13.428645$GNGGA,130813.60,3611.0404150,N,07545.0018849,W,1,24,0.6,0.834,M,-39.962,M,0.0,*6B
###2023-11-09 13:08:13.431243$GPGSV,2,1,07,05,21,090,43,10,18,292,43,13,24,045,42,15,62,037,46*76
###2023-11-09 13:08:13.433503$GPGSV,2,2,07,18,77,281,46,23,50,315,45,24,49,136,45,,,,*42
###2023-11-09 13:08:13.436085$GLGSV,2,1,05,70,50,017,36,71,48,290,48,80,18,090,45,85,57,203,47*6B
###2023-11-09 13:08:13.437717$GLGSV,2,2,05,86,53,308,48,,,,,,,,,,,,*5F
###2023-11-09 13:08:13.440291$GAGSV,1,1,04,07,72,258,44,08,49,042,45,13,64,160,45,26,56,310,44*60
###2023-11-09 13:08:13.442875$GBGSV,2,1,06,11,23,180,40,14,65,008,46,24,20,132,44,26,23,081,43*61
###2023-11-09 13:08:13.444809$GBGSV,2,2,06,28,43,287,46,33,59,304,47,,,,,,,,*67
###2023-11-09 13:08:13.446269$GNVTG,256.00,T,,M,3.50,N,6.48,K,A*2E
###2023-11-09 13:08:13.527619$GNGGA,130813.70,3611.0403939,N,07545.0020012,W,1,24,0.6,0.820,M,-39.962,M,0.0,*62
###2023-11-09 13:08:13.530201$GPGSV,2,1,07,05,21,090,43,10,18,292,43,13,24,045,42,15,62,037,46*76
###2023-11-09 13:08:13.532441$GPGSV,2,2,07,18,77,281,46,23,50,315,45,24,49,136,46,,,,*41
###2023-11-09 13:08:13.535009$GLGSV,2,1,05,70,50,017,36,71,48,290,49,80,18,090,45,85,57,203,47*6A
###2023-11-09 13:08:13.536610$GLGSV,2,2,05,86,53,308,48,,,,,,,,,,,,*5F
###2023-11-09 13:08:13.539182$GAGSV,1,1,04,07,72,258,44,08,49,042,45,13,64,160,45,26,56,310,44*60
###2023-11-09 13:08:13.541747$GBGSV,2,1,06,11,23,180,40,14,65,008,46,24,20,132,44,26,23,081,43*61
###2023-11-09 13:08:13.543681$GBGSV,2,2,06,28,43,287,46,33,59,304,47,,,,,,,,*67
###2023-11-09 13:08:13.545137$GNVTG,258.56,T,,M,3.54,N,6.55,K,A*2B
###2023-11-09 13:08:13.627628$GNGGA,130813.80,3611.0403753,N,07545.0021199,W,1,24,0.6,0.814,M,-39.962,M,0.0,*6B
###2023-11-09 13:08:13.630216$GPGSV,2,1,07,05,21,090,43,10,18,292,43,13,24,045,42,15,62,037,46*76
###2023-11-09 13:08:13.632465$GPGSV,2,2,07,18,77,281,46,23,50,315,45,24,49,136,46,,,,*41
###2023-11-09 13:08:13.635035$GLGSV,2,1,05,70,50,017,36,71,48,290,49,80,18,090,45,85,57,203,47*6A
###2023-11-09 13:08:13.636643$GLGSV,2,2,05,86,53,308,48,,,,,,,,,,,,*5F
###2023-11-09 13:08:13.639232$GAGSV,1,1,04,07,72,258,44,08,49,042,45,13,64,160,45,26,56,310,44*60
###2023-11-09 13:08:13.641825$GBGSV,2,1,06,11,23,180,40,14,65,008,46,24,20,132,44,26,23,081,43*61
###2023-11-09 13:08:13.643770$GBGSV,2,2,06,28,43,287,46,33,59,304,47,,,,,,,,*67
###2023-11-09 13:08:13.645233$GNVTG,259.29,T,,M,3.60,N,6.66,K,A*25
###2023-11-09 13:08:13.728614$GNGGA,130813.90,3611.0403554,N,07545.0022389,W,1,24,0.6,0.806,M,-39.962,M,0.0,*6C
###2023-11-09 13:08:13.731199$GPGSV,2,1,07,05,21,090,43,10,18,292,43,13,24,045,42,15,62,037,46*76
###2023-11-09 13:08:13.733448$GPGSV,2,2,07,18,77,281,46,23,50,315,45,24,49,136,45,,,,*42
###2023-11-09 13:08:13.736309$GLGSV,2,1,05,70,50,017,36,71,48,290,49,80,18,090,45,85,57,203,47*6A
###2023-11-09 13:08:13.738075$GLGSV,2,2,05,86,53,308,48,,,,,,,,,,,,*5F
###2023-11-09 13:08:13.740662$GAGSV,1,1,04,07,72,258,44,08,49,042,45,13,64,160,45,26,56,310,44*60
###2023-11-09 13:08:13.743259$GBGSV,2,1,06,11,23,180,39,14,65,008,46,24,20,132,43,26,23,081,43*68
###2023-11-09 13:08:13.745211$GBGSV,2,2,06,28,43,287,46,33,59,304,47,,,,,,,,*67
###2023-11-09 13:08:13.746687$GNVTG,257.27,T,,M,3.56,N,6.59,K,A*2C
###2023-11-09 13:08:13.831595$GNGGA,130814.00,3611.0403313,N,07545.0023575,W,1,24,0.6,0.796,M,-39.962,M,0.0,*65
###2023-11-09 13:08:13.834176$GPGSV,2,1,07,05,21,090,43,10,18,292,43,13,24,045,42,15,62,037,46*76
###2023-11-09 13:08:13.836420$GPGSV,2,2,07,18,77,281,46,23,50,315,45,24,49,136,44,,,,*43
###2023-11-09 13:08:13.839008$GLGSV,2,1,05,70,50,017,36,71,48,290,49,80,18,090,45,85,57,203,47*6A
