###2023-11-09 13:10:38.735889$GPGSV,2,1,07,05,20,091,41,10,19,294,42,13,23,045,42,15,60,038,45*7B
###2023-11-09 13:10:38.738210$GPGSV,2,2,07,18,78,272,46,23,51,317,46,24,51,133,46,,,,*4E
###2023-11-09 13:10:38.740776$GLGSV,2,1,05,70,49,019,35,71,48,291,47,80,19,089,44,85,56,202,49*66
###2023-11-09 13:10:38.742391$GLGSV,2,2,05,86,54,306,48,,,,,,,,,,,,*56
###2023-11-09 13:10:38.744957$GAGSV,1,1,04,07,73,259,45,08,48,043,45,13,63,161,46,26,57,310,45*64
###2023-11-09 13:10:38.747547$GBGSV,2,1,06,11,22,180,42,14,65,009,45,24,21,132,45,26,23,080,45*67
###2023-11-09 13:10:38.749476$GBGSV,2,2,06,28,43,286,46,33,59,305,47,,,,,,,,*67
###2023-11-09 13:10:38.750932$GNVTG,290.60,T,,M,4.37,N,8.10,K,A*27
###2023-11-09 13:10:38.834005$GNGGA,131039.00,3611.0664066,N,07544.8810531,W,1,24,0.6,0.551,M,-39.960,M,0.0,*6B
###2023-11-09 13:10:38.836624$GPGSV,2,1,07,05,20,091,43,10,19,294,42,13,23,045,43,15,60,038,45*78
###2023-11-09 13:10:38.838914$GPGSV,2,2,07,18,78,272,46,23,51,317,45,24,51,133,46,,,,*4D
###2023-11-09 13:10:38.841503$GLGSV,2,1,05,70,49,019,36,71,48,291,48,80,19,089,45,85,56,202,49*6B
###2023-11-09 13:10:38.843111$GLGSV,2,2,05,86,54,306,48,,,,,,,,,,,,*56
###2023-11-09 13:10:38.845693$GAGSV,1,1,04,07,73,259,45,08,48,043,45,13,63,161,46,26,57,310,45*64
###2023-11-09 13:10:38.848280$GBGSV,2,1,06,11,22,180,42,14,65,009,45,24,21,132,45,26,23,080,45*67
###2023-11-09 13:10:38.850217$GBGSV,2,2,06,28,43,286,46,33,59,305,47,,,,,,,,*67
###2023-11-09 13:10:38.851679$GNVTG,296.07,T,,M,4.37,N,8.10,K,A*20
###2023-11-09 13:10:38.932397$GNGGA,131039.10,3611.0664596,N,07544.8811869,W,1,24,0.6,0.555,M,-39.960,M,0.0,*65
###2023-11-09 13:10:38.935011$GPGSV,2,1,07,05,20,091,44,10,19,294,42,13,23,045,44,15,60,038,46*7B
###2023-11-09 13:10:38.937322$GPGSV,2,2,07,18,78,272,46,23,51,317,46,24,51,133,45,,,,*4D
###2023-11-09 13:10:38.939903$GLGSV,2,1,05,70,49,019,36,71,48,291,48,80,19,089,46,85,56,202,48*69
###2023-11-09 13:10:38.941506$GLGSV,2,2,05,86,54,306,48,,,,,,,,,,,,*56
###2023-11-09 13:10:38.944071$GAGSV,1,1,04,07,73,259,45,08,48,043,45,13,63,161,45,26,57,310,45*67
###2023-11-09 13:10:38.946653$GBGSV,2,1,06,11,22,180,41,14,65,009,45,24,21,132,45,26,23,080,44*65
###2023-11-09 13:10:38.948615$GBGSV,2,2,06,28,43,286,46,33,59,305,47,,,,,,,,*67
###2023-11-09 13:10:38.950088$GNVTG,296.08,T,,M,4.20,N,7.78,K,A*28
###2023-11-09 13:10:39.033089$GNGGA,131039.20,3611.0665052,N,07544.8813192,W,1,24,0.6,0.570,M,-39.960,M,0.0,*62
###2023-11-09 13:10:39.035658$GPGSV,2,1,07,05,20,091,44,10,19,294,42,13,23,045,44,15,60,038,46*7B
###2023-11-09 13:10:39.037916$GPGSV,2,2,07,18,78,272,46,23,51,317,46,24,51,133,45,,,,*4D
###2023-11-09 13:10:39.040482$GLGSV,2,1,05,70,49,019,36,71,48,291,48,80,19,089,46,85,56,202,48*69
###2023-11-09 13:10:39.042084$GLGSV,2,2,05,86,54,306,48,,,,,,,,,,,,*56
###2023-11-09 13:10:39.044627$GAGSV,1,1,04,07,73,259,45,08,48,043,46,13,63,161,45,26,57,310,45*64
###2023-11-09 13:10:39.047211$GBGSV,2,1,06,11,22,180,41,14,65,009,45,24,21,132,44,26,23,080,45*65
###2023-11-09 13:10:39.049135$GBGSV,2,2,06,28,43,286,46,33,59,305,47,,,,,,,,*67
###2023-11-09 13:10:39.050586$GNVTG,289.96,T,,M,4.12,N,7.63,K,A*2A
###2023-11-09 13:10:39.130491$GNGGA,131039.30,3611.0665374,N,07544.8814564,W,1,24,0.6,0.583,M,-39.960,M,0.0,*62
###2023-11-09 13:10:39.133073$GPGSV,2,1,07,05,20,091,44,10,19,294,42,13,23,045,44,15,60,038,46*7B
###2023-11-09 13:10:39.135319$GPGSV,2,2,07,18,78,272,46,23,51,317,46,24,51,133,45,,,,*4D
###2023-11-09 13:10:39.137918$GLGSV,2,1,05,70,49,019,36,71,48,291,48,80,19,089,46,85,56,202,48*69
###2023-11-09 13:10:39.139521$GLGSV,2,2,05,86,54,306,48,,,,,,,,,,,,*56
###2023-11-09 13:10:39.142072$GAGSV,1,1,04,07,73,259,45,08,48,043,46,13,63,161,45,26,57,310,45*64
###2023-11-09 13:10:39.144642$GBGSV,2,1,06,11,22,180,41,14,65,009,46,24,21,132,44,26,23,080,45*66
###2023-11-09 13:10:39.146570$GBGSV,2,2,06,28,43,286,46,33,59,305,47,,,,,,,,*67
###2023-11-09 13:10:39.148041$GNVTG,282.37,T,,M,4.14,N,7.67,K,A*28
###2023-11-09 13:10:39.232491$GNGGA,131039.40,3611.0665612,N,07544.8815945,W,1,24,0.6,0.591,M,-39.960,M,0.0,*6D
###2023-11-09 13:10:39.235070$GPGSV,2,1,07,05,20,091,44,10,19,294,42,13,23,045,43,15,60,038,46*7C
###2023-11-09 13:10:39.237335$GPGSV,2,2,07,18,78,272,46,23,51,317,45,24,51,133,45,,,,*4E
###2023-11-09 13:10:39.239915$GLGSV,2,1,05,70,49,019,36,71,48,291,48,80,19,089,46,85,56,202,48*69
###2023-11-09 13:10:39.241518$GLGSV,2,2,05,86,54,306,48,,,,,,,,,,,,*56
###2023-11-09 13:10:39.244081$GAGSV,1,1,04,07,73,259,45,08,48,043,46,13,63,161,45,26,57,310,45*64
###2023-11-09 13:10:39.246656$GBGSV,2,1,06,11,22,180,41,14,65,009,46,24,21,132,44,26,23,080,45*66
###2023-11-09 13:10:39.248599$GBGSV,2,2,06,28,43,286,46,33,59,305,47,,,,,,,,*67
###2023-11-09 13:10:39.250070$GNVTG,281.62,T,,M,4.00,N,7.42,K,A*29
###2023-11-09 13:10:39.330877$GNGGA,131039.50,3611.0665843,N,07544.8817301,W,1,24,0.6,0.588,M,-39.960,M,0.0,*66
###2023-11-09 13:10:39.333444$GPGSV,2,1,07,05,20,091,43,10,19,294,42,13,23,045,43,15,60,038,46*7B
###2023-11-09 13:10:39.335683$GPGSV,2,2,07,18,78,272,46,23,51,317,45,24,51,133,45,,,,*4E
###2023-11-09 13:10:39.338366$GLGSV,2,1,05,70,49,019,36,71,48,291,47,80,19,089,46,85,56,202,48*66
###2023-11-09 13:10:39.339965$GLGSV,2,2,05,86,54,306,48,,,,,,,,,,,,*56
###2023-11-09 13:10:39.342515$GAGSV,1,1,04,07,73,259,45,08,48,043,45,13,63,161,45,26,57,310,45*67
###2023-11-09 13:10:39.345079$GBGSV,2,1,06,11,22,180,41,14,65,009,46,24,21,132,44,26,23,080,45*66
###2023-11-09 13:10:39.347015$GBGSV,2,2,06,28,43,286,46,33,59,305,47,,,,,,,,*67
###2023-11-09 13:10:39.348473$GNVTG,282.19,T,,M,4.00,N,7.42,K,A*26
###2023-11-09 13:10:39.431735$GNGGA,131039.60,3611.0666124,N,07544.8818637,W,1,24,0.6,0.575,M,-39.960,M,0.0,*63
###2023-11-09 13:10:39.434347$GPGSV,2,1,07,05,20,091,43,10,19,294,42,13,23,045,42,15,60,038,45*79
###2023-11-09 13:10:39.436627$GPGSV,2,2,07,18,78,272,46,23,51,317,45,24,51,133,45,,,,*4E
###2023-11-09 13:10:39.439268$GLGSV,2,1,05,70,49,019,36,71,48,291,47,80,19,089,46,85,56,202,48*66
###2023-11-09 13:10:39.440890$GLGSV,2,2,05,86,54,306,48,,,,,,,,,,,,*56
###2023-11-09 13:10:39.443462$GAGSV,1,1,04,07,73,259,45,08,48,043,45,13,63,161,45,26,57,310,45*67
###2023-11-09 13:10:39.446058$GBGSV,2,1,06,11,22,180,42,14,65,009,46,24,21,132,46,26,23,080,44*66
###2023-11-09 13:10:39.448012$GBGSV,2,2,06,28,43,286,46,33,59,305,47,,,,,,,,*67
###2023-11-09 13:10:39.449486$GNVTG,286.93,T,,M,3.97,N,7.34,K,A*28
###2023-11-09 13:10:39.530996$GNGGA,131039.70,3611.0666501,N,07544.8819912,W,1,24,0.6,0.576,M,-39.960,M,0.0,*6B
###2023-11-09 13:10:39.533596$GPGSV,2,1,07,05,20,091,43,10,19,294,42,13,23,045,42,15,60,038,45*79
###2023-11-09 13:10:39.535852$GPGSV,2,2,07,18,78,272,46,23,51,317,45,24,51,133,45,,,,*4E
###2023-11-09 13:10:39.538463$GLGSV,2,1,05,70,49,019,36,71,48,291,47,80,19,089,45,85,56,202,48*65
###2023-11-09 13:10:39.540072$GLGSV,2,2,05,86,54,306,48,,,,,,,,,,,,*56
###2023-11-09 13:10:39.542638$GAGSV,1,1,04,07,73,259,45,08,48,043,44,13,63,161,45,26,57,310,45*66
###2023-11-09 13:10:39.545233$GBGSV,2,1,06,11,22,180,43,14,65,009,45,24,21,132,46,26,23,080,44*64
###2023-11-09 13:10:39.547188$GBGSV,2,2,06,28,43,286,46,33,59,305,47,,,,,,,,*67
###2023-11-09 13:10:39.548654$GNVTG,293.33,T,,M,3.89,N,7.20,K,A*2C
###2023-11-09 13:10:39.630833$GNGGA,131039.80,3611.0666992,N,07544.8821128,W,1,24,0.6,0.589,M,-39.960,M,0.0,*68
###2023-11-09 13:10:39.633404$GPGSV,2,1,07,05,20,091,43,10,19,294,42,13,23,045,43,15,60,038,45*78
###2023-11-09 13:10:39.635647$GPGSV,2,2,07,18,78,272,46,23,51,317,45,24,51,133,45,,,,*4E
###2023-11-09 13:10:39.638233$GLGSV,2,1,05,70,49,019,36,71,48,291,47,80,19,089,45,85,56,202,49*64
###2023-11-09 13:10:39.639832$GLGSV,2,2,05,86,54,306,48,,,,,,,,,,,,*56
###2023-11-09 13:10:39.642385$GAGSV,1,1,04,07,73,259,45,08,48,043,44,13,63,161,45,26,57,310,45*66
###2023-11-09 13:10:39.644964$GBGSV,2,1,06,11,22,180,43,14,65,009,45,24,21,132,45,26,23,080,44*67
###2023-11-09 13:10:39.646887$GBGSV,2,2,06,28,43,286,46,33,59,305,48,,,,,,,,*68
###2023-11-09 13:10:39.648361$GNVTG,299.86,T,,M,3.95,N,7.31,K,A*25
###2023-11-09 13:10:39.730874$GNGGA,131039.90,3611.0667530,N,07544.8822334,W,1,24,0.6,0.617,M,-39.960,M,0.0,*64
###2023-11-09 13:10:39.733776$GPGSV,2,1,07,05,20,091,44,10,19,294,42,13,23,045,44,15,60,038,46*7B
###2023-11-09 13:10:39.736051$GPGSV,2,2,07,18,78,272,46,23,51,317,45,24,51,133,45,,,,*4E
###2023-11-09 13:10:39.738650$GLGSV,2,1,05,70,49,019,36,71,48,291,47,80,19,089,45,85,56,202,49*64
###2023-11-09 13:10:39.740261$GLGSV,2,2,05,86,54,306,48,,,,,,,,,,,,*56
###2023-11-09 13:10:39.742821$GAGSV,1,1,04,07,73,259,45,08,48,043,45,13,63,161,45,26,57,310,45*67
###2023-11-09 13:10:39.745400$GBGSV,2,1,06,11,22,180,41,14,65,009,45,24,21,132,44,26,23,080,45*65
###2023-11-09 13:10:39.747359$GBGSV,2,2,06,28,43,286,46,33,59,305,47,,,,,,,,*67
###2023-11-09 13:10:39.748835$GNVTG,298.33,T,,M,4.02,N,7.45,K,A*20
###2023-11-09 13:10:39.833854$GNGGA,131040.00,3611.0667998,N,07544.8823609,W,1,24,0.6,0.638,M,-39.960,M,0.0,*6A
###2023-11-09 13:10:39.836447$GPGSV,2,1,07,05,20,091,44,10,19,294,42,13,23,045,44,15,60,038,46*7B
