###2023-11-09 13:07:33.642631$GAGSV,1,1,04,07,72,257,45,08,49,042,44,13,64,160,44,26,56,310,44*6E
###2023-11-09 13:07:33.645241$GBGSV,2,1,06,11,23,180,40,14,65,006,45,24,19,133,44,26,23,082,43*64
###2023-11-09 13:07:33.647215$GBGSV,2,2,06,28,43,289,47,33,58,302,47,,,,,,,,*6F
###2023-11-09 13:07:33.648619$GNVTG,5.18,T,,M,0.62,N,1.15,K,A*2E
###2023-11-09 13:07:33.729770$GNGGA,130733.90,3611.0557102,N,07544.9776961,W,1,24,0.6,1.148,M,-39.961,M,0.0,*65
###2023-11-09 13:07:33.732388$GPGSV,2,1,07,05,21,090,42,10,18,292,44,13,24,045,43,15,62,037,46*71
###2023-11-09 13:07:33.734662$GPGSV,2,2,07,18,77,281,47,23,50,315,45,24,49,136,46,,,,*40
###2023-11-09 13:07:33.737280$GLGSV,2,1,05,70,50,016,35,71,48,288,48,80,17,091,45,85,58,203,48*6E
###2023-11-09 13:07:33.738901$GLGSV,2,2,05,86,52,309,48,,,,,,,,,,,,*5F
###2023-11-09 13:07:33.741461$GAGSV,1,1,04,07,72,257,45,08,49,042,44,13,64,160,44,26,56,310,44*6E
###2023-11-09 13:07:33.744033$GBGSV,2,1,06,11,23,180,40,14,65,006,45,24,19,133,44,26,23,082,43*64
###2023-11-09 13:07:33.745974$GBGSV,2,2,06,28,43,289,47,33,58,302,47,,,,,,,,*6F
###2023-11-09 13:07:33.747382$GNVTG,5.18,T,,M,0.19,N,0.36,K,A*22
###2023-11-09 13:07:33.832746$GNGGA,130734.00,3611.0557085,N,07544.9777059,W,1,24,0.6,1.149,M,-39.961,M,0.0,*67
###2023-11-09 13:07:33.835351$GPGSV,2,1,07,05,21,090,42,10,18,292,44,13,24,045,42,15,62,037,46*70
###2023-11-09 13:07:33.837622$GPGSV,2,2,07,18,77,281,47,23,50,315,45,24,49,136,46,,,,*40
###2023-11-09 13:07:33.840188$GLGSV,2,1,05,70,50,016,35,71,48,288,48,80,17,091,44,85,58,203,48*6F
###2023-11-09 13:07:33.841793$GLGSV,2,2,05,86,52,309,48,,,,,,,,,,,,*5F
###2023-11-09 13:07:33.844369$GAGSV,1,1,04,07,72,257,45,08,49,042,44,13,64,160,44,26,56,310,45*6F
###2023-11-09 13:07:33.846969$GBGSV,2,1,06,11,23,180,40,14,65,006,45,24,19,133,44,26,23,082,43*64
###2023-11-09 13:07:33.848913$GBGSV,2,2,06,28,43,289,47,33,58,302,48,,,,,,,,*60
###2023-11-09 13:07:33.850306$GNVTG,5.18,T,,M,0.35,N,0.65,K,A*2A
###2023-11-09 13:07:33.935590$GNGGA,130734.10,3611.0557058,N,07544.9777177,W,1,24,0.6,1.153,M,-39.961,M,0.0,*60
###2023-11-09 13:07:33.938167$GPGSV,2,1,07,05,21,090,42,10,18,292,44,13,24,045,41,15,62,037,46*73
###2023-11-09 13:07:33.940414$GPGSV,2,2,07,18,77,281,47,23,50,315,45,24,49,136,46,,,,*40
###2023-11-09 13:07:33.942983$GLGSV,2,1,05,70,50,016,35,71,48,288,48,80,17,091,44,85,58,203,48*6F
###2023-11-09 13:07:33.944587$GLGSV,2,2,05,86,52,309,48,,,,,,,,,,,,*5F
###2023-11-09 13:07:33.947161$GAGSV,1,1,04,07,72,257,45,08,49,042,44,13,64,160,44,26,56,310,45*6F
###2023-11-09 13:07:33.949742$GBGSV,2,1,06,11,23,180,43,14,65,008,45,24,19,133,44,26,23,082,43*69
###2023-11-09 13:07:33.951692$GBGSV,2,2,06,28,43,289,47,33,58,302,48,,,,,,,,*60
###2023-11-09 13:07:33.953115$GNVTG,5.18,T,,M,0.31,N,0.58,K,A*20
###2023-11-09 13:07:34.031987$GNGGA,130734.20,3611.0557124,N,07544.9777287,W,1,24,0.6,1.162,M,-39.961,M,0.0,*67
###2023-11-09 13:07:34.034587$GPGSV,2,1,07,05,21,090,42,10,18,292,44,13,24,045,39,15,62,037,46*7C
###2023-11-09 13:07:34.036856$GPGSV,2,2,07,18,77,281,47,23,50,315,45,24,49,136,46,,,,*40
###2023-11-09 13:07:34.039448$GLGSV,2,1,05,70,50,016,35,71,48,288,48,80,17,091,44,85,58,203,49*6E
###2023-11-09 13:07:34.041055$GLGSV,2,2,05,86,52,309,47,,,,,,,,,,,,*50
###2023-11-09 13:07:34.043624$GAGSV,1,1,04,07,72,257,45,08,49,042,43,13,64,160,44,26,56,310,45*68
###2023-11-09 13:07:34.046192$GBGSV,2,1,06,11,23,180,43,14,65,008,45,24,19,133,45,26,23,082,42*69
###2023-11-09 13:07:34.048147$GBGSV,2,2,06,28,43,289,47,33,58,302,47,,,,,,,,*6F
###2023-11-09 13:07:34.049546$GNVTG,5.18,T,,M,0.51,N,0.94,K,A*26
###2023-11-09 13:07:34.132753$GNGGA,130734.30,3611.0557324,N,07544.9777394,W,1,24,0.6,1.181,M,-39.961,M,0.0,*6A
###2023-11-09 13:07:34.135364$GPGSV,2,1,07,05,21,090,42,10,18,292,43,13,24,045,40,15,62,037,45*76
###2023-11-09 13:07:34.137651$GPGSV,2,2,07,18,77,281,47,23,50,315,45,24,49,136,46,,,,*40
###2023-11-09 13:07:34.140235$GLGSV,2,1,05,70,50,016,35,71,48,288,48,80,17,091,43,85,58,203,49*69
###2023-11-09 13:07:34.141851$GLGSV,2,2,05,86,52,309,47,,,,,,,,,,,,*50
###2023-11-09 13:07:34.144425$GAGSV,1,1,04,07,72,257,45,08,49,042,43,13,64,160,45,26,56,310,45*69
###2023-11-09 13:07:34.147033$GBGSV,2,1,06,11,23,180,43,14,65,008,45,24,19,133,45,26,23,082,42*69
###2023-11-09 13:07:34.148995$GBGSV,2,2,06,28,43,289,47,33,58,302,47,,,,,,,,*6F
###2023-11-09 13:07:34.150472$GNVTG,343.74,T,,M,1.01,N,1.87,K,A*2A
###2023-11-09 13:07:34.230847$GNGGA,130734.40,3611.0557655,N,07544.9777502,W,1,24,0.6,1.199,M,-39.961,M,0.0,*6E
###2023-11-09 13:07:34.233425$GPGSV,2,1,07,05,21,090,42,10,18,292,43,13,24,045,41,15,62,037,45*77
###2023-11-09 13:07:34.235667$GPGSV,2,2,07,18,77,281,47,23,50,315,45,24,49,136,46,,,,*40
###2023-11-09 13:07:34.238257$GLGSV,2,1,05,70,50,016,35,71,48,288,48,80,17,091,43,85,58,203,49*69
###2023-11-09 13:07:34.239861$GLGSV,2,2,05,86,52,309,47,,,,,,,,,,,,*50
###2023-11-09 13:07:34.242412$GAGSV,1,1,04,07,72,257,45,08,49,042,43,13,64,160,45,26,56,310,45*69
###2023-11-09 13:07:34.244992$GBGSV,2,1,06,11,23,180,43,14,65,008,45,24,19,133,45,26,23,082,42*69
###2023-11-09 13:07:34.246934$GBGSV,2,2,06,28,43,289,47,33,58,302,47,,,,,,,,*6F
###2023-11-09 13:07:34.248398$GNVTG,348.73,T,,M,1.40,N,2.59,K,A*23
###2023-11-09 13:07:34.330868$GNGGA,130734.50,3611.0558042,N,07544.9777621,W,1,24,0.6,1.210,M,-39.961,M,0.0,*60
###2023-11-09 13:07:34.333476$GPGSV,2,1,07,05,21,090,42,10,18,292,43,13,24,045,42,15,62,037,45*74
###2023-11-09 13:07:34.335746$GPGSV,2,2,07,18,77,281,47,23,50,315,45,24,49,136,46,,,,*40
###2023-11-09 13:07:34.338347$GLGSV,2,1,05,70,50,016,35,71,48,288,48,80,17,091,43,85,58,203,49*69
###2023-11-09 13:07:34.339957$GLGSV,2,2,05,86,52,309,47,,,,,,,,,,,,*50
###2023-11-09 13:07:34.342534$GAGSV,1,1,04,07,72,257,45,08,49,042,44,13,64,160,45,26,56,310,45*6E
###2023-11-09 13:07:34.345098$GBGSV,2,1,06,11,23,180,42,14,65,008,45,24,19,133,44,26,23,082,42*69
###2023-11-09 13:07:34.347038$GBGSV,2,2,06,28,43,289,47,33,58,302,47,,,,,,,,*6F
###2023-11-09 13:07:34.348510$GNVTG,345.98,T,,M,1.40,N,2.59,K,A*2B
###2023-11-09 13:07:34.431886$GNGGA,130734.60,3611.0558394,N,07544.9777752,W,1,24,0.6,1.214,M,-39.961,M,0.0,*6A
###2023-11-09 13:07:34.434491$GPGSV,2,1,07,05,21,090,42,10,18,292,43,13,24,045,43,15,62,037,45*75
###2023-11-09 13:07:34.436757$GPGSV,2,2,07,18,77,281,47,23,50,315,45,24,49,136,45,,,,*43
###2023-11-09 13:07:34.439375$GLGSV,2,1,05,70,50,016,35,71,48,288,48,80,17,091,43,85,58,203,48*68
###2023-11-09 13:07:34.440990$GLGSV,2,2,05,86,52,309,48,,,,,,,,,,,,*5F
###2023-11-09 13:07:34.443562$GAGSV,1,1,04,07,72,257,45,08,49,042,44,13,64,160,44,26,56,310,45*6F
###2023-11-09 13:07:34.446162$GBGSV,2,1,06,11,23,180,40,14,65,008,45,24,19,133,43,26,23,082,43*6D
###2023-11-09 13:07:34.448127$GBGSV,2,2,06,28,43,289,47,33,58,302,47,,,,,,,,*6F
###2023-11-09 13:07:34.449595$GNVTG,342.75,T,,M,1.19,N,2.20,K,A*2D
###2023-11-09 13:07:34.530620$GNGGA,130734.70,3611.0558670,N,07544.9777886,W,1,24,0.6,1.208,M,-39.961,M,0.0,*6F
###2023-11-09 13:07:34.533218$GPGSV,2,1,07,05,21,090,42,10,18,292,43,13,24,045,43,15,62,037,45*75
###2023-11-09 13:07:34.535469$GPGSV,2,2,07,18,77,281,47,23,50,315,45,24,49,136,45,,,,*43
###2023-11-09 13:07:34.538081$GLGSV,2,1,05,70,50,016,35,71,48,288,48,80,17,091,43,85,58,203,48*68
###2023-11-09 13:07:34.539714$GLGSV,2,2,05,86,52,309,48,,,,,,,,,,,,*5F
###2023-11-09 13:07:34.542285$GAGSV,1,1,04,07,72,257,45,08,49,042,45,13,64,160,44,26,56,310,45*6E
###2023-11-09 13:07:34.544852$GBGSV,2,1,06,11,23,180,40,14,65,008,45,24,19,133,42,26,23,082,44*6B
###2023-11-09 13:07:34.546784$GBGSV,2,2,06,28,43,289,47,33,58,302,47,,,,,,,,*6F
###2023-11-09 13:07:34.548259$GNVTG,342.75,T,,M,0.87,N,1.62,K,A*2E
###2023-11-09 13:07:34.629388$GNGGA,130734.80,3611.0558860,N,07544.9777996,W,1,24,0.6,1.201,M,-39.961,M,0.0,*66
###2023-11-09 13:07:34.631986$GPGSV,2,1,07,05,21,090,42,10,18,292,43,13,24,045,43,15,62,037,45*75
###2023-11-09 13:07:34.634246$GPGSV,2,2,07,18,77,281,47,23,50,315,45,24,49,136,45,,,,*43
###2023-11-09 13:07:34.636822$GLGSV,2,1,05,70,50,016,36,71,48,288,48,80,17,091,43,85,58,203,48*6B
###2023-11-09 13:07:34.638441$GLGSV,2,2,05,86,52,309,48,,,,,,,,,,,,*5F
###2023-11-09 13:07:34.641009$GAGSV,1,1,04,07,72,257,45,08,49,042,45,13,64,160,44,26,56,310,45*6E
###2023-11-09 13:07:34.643894$GBGSV,2,1,06,11,23,180,40,14,65,008,45,24,19,133,42,26,23,082,44*6B
###2023-11-09 13:07:34.645843$GBGSV,2,2,06,28,43,289,47,33,58,302,47,,,,,,,,*6F
###2023-11-09 13:07:34.647340$GNVTG,342.75,T,,M,0.56,N,1.04,K,A*22
###2023-11-09 13:07:34.730246$GNGGA,130734.90,3611.0559001,N,07544.9778060,W,1,24,0.6,1.189,M,-39.961,M,0.0,*65
###2023-11-09 13:07:34.732835$GPGSV,2,1,07,05,21,090,42,10,18,292,43,13,24,045,42,15,62,037,46*77
###2023-11-09 13:07:34.735098$GPGSV,2,2,07,18,77,281,47,23,50,315,45,24,49,136,46,,,,*40
###2023-11-09 13:07:34.737688$GLGSV,2,1,05,70,50,016,35,71,48,288,48,80,17,091,43,85,58,203,48*68
###2023-11-09 13:07:34.739305$GLGSV,2,2,05,86,52,309,47,,,,,,,,,,,,*50
###2023-11-09 13:07:34.741875$GAGSV,1,1,04,07,72,257,45,08,49,042,45,13,64,160,45,26,56,310,45*6F
