###2023-11-09 13:07:18.047235$GBGSV,2,1,06,11,24,180,41,14,65,006,45,24,19,133,44,26,23,082,43*62
###2023-11-09 13:07:18.049187$GBGSV,2,2,06,28,43,289,47,33,58,302,47,,,,,,,,*6F
###2023-11-09 13:07:18.050652$GNVTG,233.04,T,,M,0.37,N,0.68,K,A*2F
###2023-11-09 13:07:18.130121$GNGGA,130718.30,3611.0522127,N,07544.9777162,W,1,24,0.6,1.019,M,-39.961,M,0.0,*6C
###2023-11-09 13:07:18.132726$GPGSV,2,1,07,05,21,090,41,10,18,292,44,13,24,045,41,15,62,037,45*73
###2023-11-09 13:07:18.134979$GPGSV,2,2,07,18,77,281,47,23,50,315,45,24,49,136,45,,,,*43
###2023-11-09 13:07:18.137580$GLGSV,2,1,05,70,50,016,35,71,48,288,48,80,17,091,43,85,58,203,49*69
###2023-11-09 13:07:18.139204$GLGSV,2,2,05,86,52,309,47,,,,,,,,,,,,*50
###2023-11-09 13:07:18.141782$GAGSV,1,1,04,07,72,257,45,08,49,042,44,13,64,160,45,26,56,310,44*6F
###2023-11-09 13:07:18.144356$GBGSV,2,1,06,11,24,180,42,14,65,006,45,24,19,133,44,26,23,082,41*63
###2023-11-09 13:07:18.146298$GBGSV,2,2,06,28,43,289,47,33,58,302,47,,,,,,,,*6F
###2023-11-09 13:07:18.147778$GNVTG,233.04,T,,M,0.21,N,0.40,K,A*22
###2023-11-09 13:07:18.230225$GNGGA,130718.40,3611.0522200,N,07544.9777089,W,1,24,0.6,1.007,M,-39.961,M,0.0,*66
###2023-11-09 13:07:18.232816$GPGSV,2,1,07,05,21,090,41,10,18,292,43,13,24,045,41,15,62,037,45*74
###2023-11-09 13:07:18.235060$GPGSV,2,2,07,18,77,281,47,23,50,315,45,24,49,136,46,,,,*40
###2023-11-09 13:07:18.237652$GLGSV,2,1,05,70,50,016,35,71,48,288,48,80,17,091,42,85,58,203,49*68
###2023-11-09 13:07:18.239256$GLGSV,2,2,05,86,52,309,47,,,,,,,,,,,,*50
###2023-11-09 13:07:18.241836$GAGSV,1,1,04,07,72,257,45,08,49,042,44,13,64,160,45,26,56,310,44*6F
###2023-11-09 13:07:18.244412$GBGSV,2,1,06,11,24,180,43,14,65,006,45,24,19,133,45,26,23,082,41*63
###2023-11-09 13:07:18.246352$GBGSV,2,2,06,28,43,289,47,33,58,302,47,,,,,,,,*6F
###2023-11-09 13:07:18.247833$GNVTG,233.04,T,,M,0.58,N,1.08,K,A*21
###2023-11-09 13:07:18.328980$GNGGA,130718.50,3611.0522446,N,07544.9776996,W,1,24,0.6,1.014,M,-39.961,M,0.0,*67
###2023-11-09 13:07:18.331556$GPGSV,2,1,07,05,21,090,41,10,18,292,43,13,24,045,40,15,62,037,45*75
###2023-11-09 13:07:18.333786$GPGSV,2,2,07,18,77,281,47,23,50,315,44,24,49,136,46,,,,*41
###2023-11-09 13:07:18.336342$GLGSV,2,1,05,70,50,016,35,71,48,288,48,80,17,091,42,85,58,203,49*68
###2023-11-09 13:07:18.337953$GLGSV,2,2,05,86,52,309,47,,,,,,,,,,,,*50
###2023-11-09 13:07:18.340506$GAGSV,1,1,04,07,72,257,45,08,49,042,43,13,64,160,45,26,56,310,44*68
###2023-11-09 13:07:18.343073$GBGSV,2,1,06,11,24,180,43,14,65,006,45,24,19,133,45,26,23,082,41*63
###2023-11-09 13:07:18.344997$GBGSV,2,2,06,28,43,289,47,33,58,302,47,,,,,,,,*6F
###2023-11-09 13:07:18.346420$GNVTG,14.47,T,,M,1.24,N,2.30,K,A*13
###2023-11-09 13:07:18.428182$GNGGA,130718.60,3611.0522829,N,07544.9776888,W,1,24,0.6,1.026,M,-39.961,M,0.0,*6E
###2023-11-09 13:07:18.430776$GPGSV,2,1,07,05,21,090,41,10,18,292,43,13,24,045,40,15,62,037,45*75
###2023-11-09 13:07:18.433038$GPGSV,2,2,07,18,77,281,47,23,50,315,45,24,49,136,46,,,,*40
###2023-11-09 13:07:18.435613$GLGSV,2,1,05,70,50,016,35,71,48,288,48,80,17,091,42,85,58,203,49*68
###2023-11-09 13:07:18.437235$GLGSV,2,2,05,86,52,309,47,,,,,,,,,,,,*50
###2023-11-09 13:07:18.439808$GAGSV,1,1,04,07,72,257,46,08,49,042,44,13,64,160,45,26,56,310,44*6C
###2023-11-09 13:07:18.442389$GBGSV,2,1,06,11,24,180,43,14,65,006,45,24,19,133,44,26,23,082,41*62
###2023-11-09 13:07:18.444339$GBGSV,2,2,06,28,43,289,47,33,58,302,47,,,,,,,,*6F
###2023-11-09 13:07:18.445776$GNVTG,12.64,T,,M,1.56,N,2.88,K,A*12
###2023-11-09 13:07:18.529614$GNGGA,130718.70,3611.0523246,N,07544.9776772,W,1,24,0.6,1.035,M,-39.961,M,0.0,*65
###2023-11-09 13:07:18.532192$GPGSV,2,1,07,05,21,090,41,10,18,292,43,13,24,045,42,15,62,037,45*77
###2023-11-09 13:07:18.534452$GPGSV,2,2,07,18,77,281,47,23,50,315,45,24,49,136,45,,,,*43
###2023-11-09 13:07:18.537040$GLGSV,2,1,05,70,50,016,35,71,48,288,48,80,17,091,42,85,58,203,48*69
###2023-11-09 13:07:18.538649$GLGSV,2,2,05,86,52,309,48,,,,,,,,,,,,*5F
###2023-11-09 13:07:18.541228$GAGSV,1,1,04,07,72,257,46,08,49,042,44,13,64,160,44,26,56,310,44*6D
###2023-11-09 13:07:18.543813$GBGSV,2,1,06,11,24,180,41,14,65,006,45,24,19,133,44,26,23,082,43*62
###2023-11-09 13:07:18.545744$GBGSV,2,2,06,28,43,289,47,33,58,302,47,,,,,,,,*6F
###2023-11-09 13:07:18.547203$GNVTG,13.75,T,,M,1.48,N,2.74,K,A*1F
###2023-11-09 13:07:18.628989$GNGGA,130718.80,3611.0523596,N,07544.9776658,W,1,24,0.6,1.042,M,-39.961,M,0.0,*69
###2023-11-09 13:07:18.631574$GPGSV,2,1,07,05,21,090,41,10,18,292,43,13,24,045,43,15,62,037,46*75
###2023-11-09 13:07:18.633819$GPGSV,2,2,07,18,77,281,47,23,50,315,45,24,49,136,45,,,,*43
###2023-11-09 13:07:18.636386$GLGSV,2,1,05,70,50,016,35,71,48,288,48,80,17,091,42,85,58,203,48*69
###2023-11-09 13:07:18.638004$GLGSV,2,2,05,86,52,309,48,,,,,,,,,,,,*5F
###2023-11-09 13:07:18.640562$GAGSV,1,1,04,07,72,257,45,08,49,042,45,13,64,160,43,26,56,310,44*68
###2023-11-09 13:07:18.643113$GBGSV,2,1,06,11,24,180,41,14,65,006,45,24,19,133,43,26,23,082,43*65
###2023-11-09 13:07:18.645039$GBGSV,2,2,06,28,43,289,46,33,58,302,47,,,,,,,,*6E
###2023-11-09 13:07:18.646457$GNVTG,16.80,T,,M,1.09,N,2.02,K,A*14
###2023-11-09 13:07:18.729128$GNGGA,130718.90,3611.0523827,N,07544.9776567,W,1,24,0.6,1.042,M,-39.961,M,0.0,*60
###2023-11-09 13:07:18.731715$GPGSV,2,1,07,05,21,090,41,10,18,292,42,13,24,045,43,15,62,037,46*74
###2023-11-09 13:07:18.733968$GPGSV,2,2,07,18,77,281,47,23,50,315,45,24,49,136,45,,,,*43
###2023-11-09 13:07:18.736543$GLGSV,2,1,05,70,50,016,35,71,48,288,48,80,17,091,43,85,58,203,48*68
###2023-11-09 13:07:18.738170$GLGSV,2,2,05,86,52,309,48,,,,,,,,,,,,*5F
###2023-11-09 13:07:18.740751$GAGSV,1,1,04,07,72,257,45,08,49,042,45,13,64,160,43,26,56,310,44*68
###2023-11-09 13:07:18.743339$GBGSV,2,1,06,11,24,180,41,14,65,006,45,24,19,133,43,26,23,082,43*65
###2023-11-09 13:07:18.745273$GBGSV,2,2,06,28,43,289,46,33,58,302,47,,,,,,,,*6E
###2023-11-09 13:07:18.746699$GNVTG,16.80,T,,M,0.62,N,1.15,K,A*1D
###2023-11-09 13:07:18.832110$GNGGA,130719.00,3611.0523949,N,07544.9776483,W,1,24,0.6,1.042,M,-39.961,M,0.0,*6A
###2023-11-09 13:07:18.834720$GPGSV,2,1,07,05,21,090,41,10,18,292,42,13,24,045,43,15,62,037,46*74
###2023-11-09 13:07:18.836995$GPGSV,2,2,07,18,77,281,47,23,50,315,45,24,49,136,45,,,,*43
###2023-11-09 13:07:18.839579$GLGSV,2,1,05,70,50,016,36,71,48,288,48,80,17,091,43,85,58,203,48*6B
###2023-11-09 13:07:18.841184$GLGSV,2,2,05,86,52,309,48,,,,,,,,,,,,*5F
###2023-11-09 13:07:18.843755$GAGSV,1,1,04,07,72,257,45,08,49,042,45,13,64,160,44,26,56,310,45*6E
###2023-11-09 13:07:18.846335$GBGSV,2,1,06,11,24,180,41,14,65,006,45,24,19,133,43,26,23,082,43*65
###2023-11-09 13:07:18.848287$GBGSV,2,2,06,28,43,289,47,33,58,302,47,,,,,,,,*6F
###2023-11-09 13:07:18.849723$GNVTG,16.80,T,,M,0.37,N,0.68,K,A*16
###2023-11-09 13:07:18.930103$GNGGA,130719.10,3611.0524036,N,07544.9776405,W,1,24,0.6,1.037,M,-39.961,M,0.0,*61
###2023-11-09 13:07:18.932679$GPGSV,2,1,07,05,21,090,41,10,18,292,42,13,24,045,41,15,62,037,45*75
###2023-11-09 13:07:18.934930$GPGSV,2,2,07,18,77,281,47,23,50,315,46,24,49,136,46,,,,*43
###2023-11-09 13:07:18.937506$GLGSV,2,1,05,70,50,016,36,71,48,288,48,80,17,091,43,85,58,203,48*6B
###2023-11-09 13:07:18.939110$GLGSV,2,2,05,86,52,309,48,,,,,,,,,,,,*5F
###2023-11-09 13:07:18.941675$GAGSV,1,1,04,07,72,257,45,08,49,042,45,13,64,160,44,26,56,310,45*6E
###2023-11-09 13:07:18.944247$GBGSV,2,1,06,11,24,180,41,14,65,006,45,24,19,133,43,26,23,082,43*65
###2023-11-09 13:07:18.946177$GBGSV,2,2,06,28,43,289,47,33,58,302,47,,,,,,,,*6F
###2023-11-09 13:07:18.947614$GNVTG,16.80,T,,M,0.37,N,0.68,K,A*16
###2023-11-09 13:07:19.031102$GNGGA,130719.20,3611.0524186,N,07544.9776328,W,1,24,0.6,1.023,M,-39.961,M,0.0,*65
###2023-11-09 13:07:19.033692$GPGSV,2,1,07,05,21,090,41,10,18,292,42,13,24,045,40,15,62,037,45*74
###2023-11-09 13:07:19.035935$GPGSV,2,2,07,18,77,281,47,23,50,315,45,24,49,136,46,,,,*40
###2023-11-09 13:07:19.038523$GLGSV,2,1,05,70,50,016,35,71,48,288,48,80,17,091,43,85,58,203,49*69
###2023-11-09 13:07:19.040137$GLGSV,2,2,05,86,52,309,47,,,,,,,,,,,,*50
###2023-11-09 13:07:19.042710$GAGSV,1,1,04,07,72,257,45,08,49,042,44,13,64,160,45,26,56,310,45*6E
###2023-11-09 13:07:19.045587$GBGSV,2,1,06,11,24,180,42,14,65,006,45,24,19,133,43,26,23,082,42*67
###2023-11-09 13:07:19.047554$GBGSV,2,2,06,28,43,289,47,33,58,302,47,,,,,,,,*6F
###2023-11-09 13:07:19.048988$GNVTG,16.80,T,,M,0.76,N,1.40,K,A*18
###2023-11-09 13:07:19.131864$GNGGA,130719.30,3611.0524470,N,07544.9776231,W,1,23,0.6,1.019,M,-39.961,M,0.0,*6F
###2023-11-09 13:07:19.134453$GPGSV,2,1,07,05,21,090,41,10,18,292,43,13,24,045,40,15,62,037,45*75
###2023-11-09 13:07:19.136721$GPGSV,2,2,07,18,77,281,47,23,50,315,44,24,49,136,46,,,,*41
###2023-11-09 13:07:19.139336$GLGSV,1,1,04,71,48,288,48,80,17,091,43,85,58,203,49,86,52,309,47*68
###2023-11-09 13:07:19.141911$GAGSV,1,1,04,07,72,257,45,08,49,042,44,13,64,160,45,26,56,310,44*6F
###2023-11-09 13:07:19.144486$GBGSV,2,1,06,11,24,180,42,14,65,006,44,24,19,133,45,26,23,082,42*60
###2023-11-09 13:07:19.146414$GBGSV,2,2,06,28,43,289,47,33,58,302,47,,,,,,,,*6F
