###2023-11-09 13:08:16.046371$GBGSV,2,1,06,11,23,180,41,14,65,008,45,24,20,132,44,26,23,081,44*64
###2023-11-09 13:08:16.048361$GBGSV,2,2,06,28,43,287,47,33,59,304,47,,,,,,,,*66
###2023-11-09 13:08:16.049838$GNVTG,247.09,T,,M,4.39,N,8.14,K,A*28
###2023-11-09 13:08:16.129499$GNGGA,130816.30,3611.0394128,N,07545.0051978,W,1,24,0.6,0.862,M,-39.962,M,0.0,*67
###2023-11-09 13:08:16.132099$GPGSV,2,1,07,05,21,090,44,10,18,292,43,13,24,045,42,15,62,037,46*71
###2023-11-09 13:08:16.134364$GPGSV,2,2,07,18,77,281,46,23,50,315,45,24,49,136,45,,,,*42
###2023-11-09 13:08:16.136977$GLGSV,2,1,05,70,50,017,36,71,48,290,48,80,18,090,45,85,57,203,47*6B
###2023-11-09 13:08:16.138595$GLGSV,2,2,05,86,53,308,48,,,,,,,,,,,,*5F
###2023-11-09 13:08:16.141173$GAGSV,1,1,04,07,72,258,45,08,49,042,45,13,64,160,45,26,56,310,44*61
###2023-11-09 13:08:16.143758$GBGSV,2,1,06,11,23,180,41,14,65,008,45,24,20,132,43,26,23,081,44*63
###2023-11-09 13:08:16.145695$GBGSV,2,2,06,28,43,287,47,33,59,304,47,,,,,,,,*66
###2023-11-09 13:08:16.147178$GNVTG,243.55,T,,M,4.45,N,8.24,K,A*2D
###2023-11-09 13:08:16.228755$GNGGA,130816.40,3611.0393528,N,07545.0053317,W,1,24,0.6,0.859,M,-39.962,M,0.0,*6A
###2023-11-09 13:08:16.231348$GPGSV,2,1,07,05,21,090,44,10,18,292,43,13,24,045,42,15,62,037,46*71
###2023-11-09 13:08:16.233596$GPGSV,2,2,07,18,77,281,46,23,50,315,46,24,49,136,45,,,,*41
###2023-11-09 13:08:16.236173$GLGSV,2,1,05,70,50,017,36,71,48,290,48,80,18,090,45,85,57,203,47*6B
###2023-11-09 13:08:16.237789$GLGSV,2,2,05,86,53,308,48,,,,,,,,,,,,*5F
###2023-11-09 13:08:16.240344$GAGSV,1,1,04,07,72,258,45,08,49,042,45,13,64,160,45,26,56,310,44*61
###2023-11-09 13:08:16.242908$GBGSV,2,1,06,11,23,180,39,14,65,008,45,24,20,132,43,26,23,081,44*6C
###2023-11-09 13:08:16.244834$GBGSV,2,2,06,28,43,287,46,33,59,304,47,,,,,,,,*67
###2023-11-09 13:08:16.246293$GNVTG,238.84,T,,M,4.45,N,8.24,K,A*2D
###2023-11-09 13:08:16.328637$GNGGA,130816.50,3611.0392841,N,07545.0054594,W,1,24,0.6,0.855,M,-39.962,M,0.0,*6E
###2023-11-09 13:08:16.331229$GPGSV,2,1,07,05,21,090,44,10,18,292,43,13,24,045,43,15,62,037,46*70
###2023-11-09 13:08:16.333483$GPGSV,2,2,07,18,77,281,46,23,50,315,46,24,49,136,45,,,,*41
###2023-11-09 13:08:16.336060$GLGSV,2,1,05,70,50,017,36,71,48,290,48,80,18,090,45,85,57,203,47*6B
###2023-11-09 13:08:16.337679$GLGSV,2,2,05,86,53,308,48,,,,,,,,,,,,*5F
###2023-11-09 13:08:16.340251$GAGSV,1,1,04,07,72,258,44,08,49,042,45,13,64,160,45,26,56,310,44*60
###2023-11-09 13:08:16.342819$GBGSV,2,1,06,11,23,180,39,14,65,008,45,24,20,132,43,26,23,081,44*6C
###2023-11-09 13:08:16.344756$GBGSV,2,2,06,28,43,287,46,33,59,304,47,,,,,,,,*67
###2023-11-09 13:08:16.346233$GNVTG,234.47,T,,M,4.49,N,8.32,K,A*25
###2023-11-09 13:08:16.429694$GNGGA,130816.60,3611.0392100,N,07545.0055856,W,1,24,0.6,0.842,M,-39.962,M,0.0,*65
###2023-11-09 13:08:16.432311$GPGSV,2,1,07,05,21,090,44,10,18,292,43,13,24,045,43,15,62,037,46*70
###2023-11-09 13:08:16.434581$GPGSV,2,2,07,18,77,281,46,23,50,315,46,24,49,136,46,,,,*42
###2023-11-09 13:08:16.437180$GLGSV,2,1,05,70,50,017,36,71,48,290,48,80,18,090,45,85,57,203,47*6B
###2023-11-09 13:08:16.438807$GLGSV,2,2,05,86,53,308,48,,,,,,,,,,,,*5F
###2023-11-09 13:08:16.441385$GAGSV,1,1,04,07,72,258,44,08,49,042,45,13,64,160,45,26,56,310,44*60
###2023-11-09 13:08:16.443972$GBGSV,2,1,06,11,23,180,40,14,65,008,45,24,20,132,44,26,23,081,44*65
###2023-11-09 13:08:16.445916$GBGSV,2,2,06,28,43,287,46,33,59,304,47,,,,,,,,*67
###2023-11-09 13:08:16.447405$GNVTG,234.00,T,,M,4.59,N,8.50,K,A*23
###2023-11-09 13:08:16.528495$GNGGA,130816.70,3611.0391379,N,07545.0057148,W,1,24,0.6,0.832,M,-39.962,M,0.0,*68
###2023-11-09 13:08:16.531082$GPGSV,2,1,07,05,21,090,44,10,18,292,43,13,24,045,43,15,62,037,46*70
###2023-11-09 13:08:16.533333$GPGSV,2,2,07,18,77,281,46,23,50,315,45,24,49,136,46,,,,*41
###2023-11-09 13:08:16.535901$GLGSV,2,1,05,70,50,017,36,71,48,290,48,80,18,090,45,85,57,203,47*6B
###2023-11-09 13:08:16.537516$GLGSV,2,2,05,86,53,308,47,,,,,,,,,,,,*50
###2023-11-09 13:08:16.540074$GAGSV,1,1,04,07,72,258,44,08,49,042,45,13,64,160,45,26,56,310,44*60
###2023-11-09 13:08:16.542644$GBGSV,2,1,06,11,23,180,41,14,65,008,45,24,20,132,44,26,23,081,44*64
###2023-11-09 13:08:16.544570$GBGSV,2,2,06,28,43,287,46,33,59,304,47,,,,,,,,*67
###2023-11-09 13:08:16.546035$GNVTG,237.13,T,,M,4.55,N,8.42,K,A*2D
###2023-11-09 13:08:16.628638$GNGGA,130816.80,3611.0390720,N,07545.0058465,W,1,24,0.6,0.826,M,-39.962,M,0.0,*6E
###2023-11-09 13:08:16.631236$GPGSV,2,1,07,05,21,090,44,10,18,292,43,13,24,045,43,15,62,037,46*70
###2023-11-09 13:08:16.633502$GPGSV,2,2,07,18,77,281,46,23,50,315,45,24,49,136,46,,,,*41
###2023-11-09 13:08:16.636086$GLGSV,2,1,05,70,50,017,36,71,48,290,48,80,18,090,45,85,57,203,48*64
###2023-11-09 13:08:16.637718$GLGSV,2,2,05,86,53,308,47,,,,,,,,,,,,*50
###2023-11-09 13:08:16.640295$GAGSV,1,1,04,07,72,258,44,08,49,042,45,13,64,160,45,26,56,310,44*60
###2023-11-09 13:08:16.642873$GBGSV,2,1,06,11,23,180,41,14,65,008,45,24,20,132,44,26,23,081,44*64
###2023-11-09 13:08:16.644819$GBGSV,2,2,06,28,43,287,46,33,59,304,47,,,,,,,,*67
###2023-11-09 13:08:16.646283$GNVTG,239.88,T,,M,4.47,N,8.28,K,A*2E
###2023-11-09 13:08:16.729539$GNGGA,130816.90,3611.0390127,N,07545.0059791,W,1,24,0.6,0.824,M,-39.962,M,0.0,*65
###2023-11-09 13:08:16.732157$GPGSV,2,1,07,05,21,090,44,10,18,292,43,13,24,045,43,15,62,037,46*70
###2023-11-09 13:08:16.734423$GPGSV,2,2,07,18,77,281,46,23,50,315,45,24,49,136,46,,,,*41
###2023-11-09 13:08:16.737016$GLGSV,2,1,05,70,50,017,36,71,48,290,48,80,18,090,45,85,57,203,47*6B
###2023-11-09 13:08:16.738638$GLGSV,2,2,05,86,53,308,47,,,,,,,,,,,,*50
###2023-11-09 13:08:16.741206$GAGSV,1,1,04,07,72,258,44,08,49,042,45,13,64,160,45,26,56,310,44*60
###2023-11-09 13:08:16.743791$GBGSV,2,1,06,11,23,180,41,14,65,008,45,24,20,132,44,26,23,081,44*64
###2023-11-09 13:08:16.745737$GBGSV,2,2,06,28,43,287,46,33,59,304,47,,,,,,,,*67
###2023-11-09 13:08:16.747225$GNVTG,242.62,T,,M,4.35,N,8.06,K,A*2F
###2023-11-09 13:08:16.831849$GNGGA,130817.00,3611.0389603,N,07545.0061114,W,1,24,0.6,0.836,M,-39.962,M,0.0,*67
###2023-11-09 13:08:16.834426$GPGSV,2,1,07,05,21,090,44,10,18,292,43,13,24,045,42,15,62,037,46*71
###2023-11-09 13:08:16.836671$GPGSV,2,2,07,18,77,281,46,23,50,315,45,24,49,136,45,,,,*42
###2023-11-09 13:08:16.839264$GLGSV,2,1,05,70,50,017,36,71,48,290,49,80,18,090,45,85,57,203,47*6A
###2023-11-09 13:08:16.840872$GLGSV,2,2,05,86,53,308,48,,,,,,,,,,,,*5F
###2023-11-09 13:08:16.843434$GAGSV,1,1,04,07,72,258,44,08,49,042,45,13,64,160,45,26,56,310,44*60
###2023-11-09 13:08:16.846011$GBGSV,2,1,06,11,23,180,41,14,65,008,45,24,20,132,43,26,23,081,44*63
###2023-11-09 13:08:16.847954$GBGSV,2,2,06,28,43,287,46,33,59,304,48,,,,,,,,*68
###2023-11-09 13:08:16.849416$GNVTG,245.83,T,,M,4.26,N,7.88,K,A*2C
###2023-11-09 13:08:16.929524$GNGGA,130817.10,3611.0389088,N,07545.0062442,W,1,24,0.6,0.852,M,-39.962,M,0.0,*64
###2023-11-09 13:08:16.932145$GPGSV,2,1,07,05,21,090,44,10,18,292,43,13,24,045,42,15,62,037,46*71
###2023-11-09 13:08:16.934401$GPGSV,2,2,07,18,77,281,46,23,50,315,45,24,49,136,44,,,,*43
###2023-11-09 13:08:16.936983$GLGSV,2,1,05,70,50,017,36,71,48,290,49,80,18,090,45,85,57,203,47*6A
###2023-11-09 13:08:16.938594$GLGSV,2,2,05,86,53,308,48,,,,,,,,,,,,*5F
###2023-11-09 13:08:16.941165$GAGSV,1,1,04,07,72,258,44,08,49,042,45,13,64,160,45,26,56,310,45*61
###2023-11-09 13:08:16.943738$GBGSV,2,1,06,11,23,180,40,14,65,008,45,24,20,132,43,26,23,081,44*62
###2023-11-09 13:08:16.945666$GBGSV,2,2,06,28,43,287,46,33,59,304,48,,,,,,,,*68
###2023-11-09 13:08:16.947147$GNVTG,243.46,T,,M,4.33,N,8.03,K,A*2B
###2023-11-09 13:08:17.031498$GNGGA,130817.20,3611.0388493,N,07545.0063768,W,1,24,0.6,0.864,M,-39.962,M,0.0,*67
###2023-11-09 13:08:17.034099$GPGSV,2,1,07,05,21,090,43,10,18,292,43,13,24,045,43,15,62,037,46*77
###2023-11-09 13:08:17.036349$GPGSV,2,2,07,18,77,281,46,23,50,315,45,24,49,136,44,,,,*43
###2023-11-09 13:08:17.038954$GLGSV,2,1,05,70,50,017,36,71,48,290,49,80,18,090,45,85,57,203,47*6A
###2023-11-09 13:08:17.040564$GLGSV,2,2,05,86,53,308,48,,,,,,,,,,,,*5F
###2023-11-09 13:08:17.043141$GAGSV,1,1,04,07,72,258,44,08,49,042,46,13,64,160,45,26,56,310,45*62
###2023-11-09 13:08:17.046021$GBGSV,2,1,06,11,23,180,39,14,65,008,46,24,20,132,42,26,23,081,44*6E
###2023-11-09 13:08:17.047994$GBGSV,2,2,06,28,43,287,46,33,59,304,48,,,,,,,,*68
###2023-11-09 13:08:17.049470$GNVTG,239.09,T,,M,4.51,N,8.35,K,A*2C
###2023-11-09 13:08:17.129494$GNGGA,130817.30,3611.0387834,N,07545.0065089,W,1,24,0.6,0.871,M,-39.962,M,0.0,*62
###2023-11-09 13:08:17.132083$GPGSV,2,1,07,05,21,090,42,10,18,292,43,13,24,045,43,15,62,037,46*76
###2023-11-09 13:08:17.134336$GPGSV,2,2,07,18,77,281,46,23,50,315,45,24,49,136,44,,,,*43
###2023-11-09 13:08:17.136917$GLGSV,2,1,05,70,50,017,36,71,48,290,49,80,18,090,44,85,57,203,47*6B
###2023-11-09 13:08:17.138522$GLGSV,2,2,05,86,53,308,48,,,,,,,,,,,,*5F
###2023-11-09 13:08:17.141087$GAGSV,1,1,04,07,72,258,44,08,49,042,46,13,64,160,45,26,56,310,45*62
###2023-11-09 13:08:17.143660$GBGSV,2,1,06,11,23,180,40,14,65,008,46,24,20,132,43,26,23,081,43*66
