###2023-11-09 13:07:21.437804$GLGSV,2,1,05,70,50,016,35,71,48,288,47,80,17,091,43,85,58,203,48*67
###2023-11-09 13:07:21.439444$GLGSV,2,2,05,86,52,309,47,,,,,,,,,,,,*50
###2023-11-09 13:07:21.442023$GAGSV,1,1,04,07,72,257,45,08,49,042,44,13,64,160,44,26,56,310,45*6F
###2023-11-09 13:07:21.444615$GBGSV,2,1,06,11,24,180,41,14,65,006,45,24,19,133,43,26,23,082,43*65
###2023-11-09 13:07:21.446563$GBGSV,2,2,06,28,43,289,47,33,58,302,47,,,,,,,,*6F
###2023-11-09 13:07:21.448023$GNVTG,14.91,T,,M,0.60,N,1.12,K,A*1A
###2023-11-09 13:07:21.531133$GNGGA,130721.70,3611.0530724,N,07544.9773592,W,1,24,0.6,1.089,M,-39.961,M,0.0,*62
###2023-11-09 13:07:21.533731$GPGSV,2,1,07,05,21,090,40,10,18,292,43,13,24,045,41,15,62,037,46*76
###2023-11-09 13:07:21.535994$GPGSV,2,2,07,18,77,281,47,23,50,315,45,24,49,136,46,,,,*40
###2023-11-09 13:07:21.538605$GLGSV,2,1,05,70,50,016,35,71,48,288,47,80,17,091,43,85,58,203,48*67
###2023-11-09 13:07:21.540221$GLGSV,2,2,05,86,52,309,47,,,,,,,,,,,,*50
###2023-11-09 13:07:21.542795$GAGSV,1,1,04,07,72,257,45,08,49,042,44,13,64,160,44,26,56,310,45*6F
###2023-11-09 13:07:21.545374$GBGSV,2,1,06,11,24,180,41,14,65,006,45,24,19,133,44,26,23,082,42*63
###2023-11-09 13:07:21.547327$GBGSV,2,2,06,28,43,289,47,33,58,302,47,,,,,,,,*6F
###2023-11-09 13:07:21.548768$GNVTG,14.91,T,,M,0.76,N,1.40,K,A*1A
###2023-11-09 13:07:21.630006$GNGGA,130721.80,3611.0530943,N,07544.9773487,W,1,24,0.6,1.079,M,-39.961,M,0.0,*68
###2023-11-09 13:07:21.632634$GPGSV,2,1,07,05,21,090,40,10,18,292,43,13,24,045,41,15,62,037,46*76
###2023-11-09 13:07:21.634902$GPGSV,2,2,07,18,77,281,47,23,50,315,45,24,49,136,46,,,,*40
###2023-11-09 13:07:21.637503$GLGSV,2,1,05,70,50,016,35,71,48,288,48,80,17,091,43,85,58,203,48*68
###2023-11-09 13:07:21.639115$GLGSV,2,2,05,86,52,309,47,,,,,,,,,,,,*50
###2023-11-09 13:07:21.641690$GAGSV,1,1,04,07,72,257,45,08,49,042,44,13,64,160,44,26,56,310,45*6F
###2023-11-09 13:07:21.644261$GBGSV,2,1,06,11,24,180,42,14,65,006,45,24,19,133,44,26,23,082,42*60
###2023-11-09 13:07:21.646194$GBGSV,2,2,06,28,43,289,47,33,58,302,47,,,,,,,,*6F
###2023-11-09 13:07:21.647644$GNVTG,14.91,T,,M,0.89,N,1.66,K,A*1E
###2023-11-09 13:07:21.730135$GNGGA,130721.90,3611.0531197,N,07544.9773366,W,1,24,0.6,1.074,M,-39.961,M,0.0,*6C
###2023-11-09 13:07:21.732740$GPGSV,2,1,07,05,21,090,41,10,18,292,43,13,24,045,41,15,62,037,46*77
###2023-11-09 13:07:21.735010$GPGSV,2,2,07,18,77,281,47,23,50,315,45,24,49,136,46,,,,*40
###2023-11-09 13:07:21.737741$GLGSV,2,1,05,70,50,016,35,71,48,288,48,80,17,091,43,85,58,203,48*68
###2023-11-09 13:07:21.739364$GLGSV,2,2,05,86,52,309,47,,,,,,,,,,,,*50
###2023-11-09 13:07:21.741967$GAGSV,1,1,04,07,72,257,45,08,49,042,44,13,64,160,44,26,56,310,45*6F
###2023-11-09 13:07:21.744559$GBGSV,2,1,06,11,24,180,42,14,65,006,45,24,19,133,44,26,23,082,42*60
###2023-11-09 13:07:21.746516$GBGSV,2,2,06,28,43,289,47,33,58,302,47,,,,,,,,*6F
###2023-11-09 13:07:21.747967$GNVTG,21.83,T,,M,1.03,N,1.91,K,A*10
###2023-11-09 13:07:21.832999$GNGGA,130722.00,3611.0531443,N,07544.9773247,W,1,24,0.6,1.075,M,-39.961,M,0.0,*69
###2023-11-09 13:07:21.835601$GPGSV,2,1,07,05,21,090,42,10,18,292,44,13,24,045,41,15,62,037,46*73
###2023-11-09 13:07:21.837878$GPGSV,2,2,07,18,77,281,47,23,50,315,45,24,49,136,46,,,,*40
###2023-11-09 13:07:21.840468$GLGSV,2,1,05,70,50,016,35,71,48,288,48,80,17,091,43,85,58,203,48*68
###2023-11-09 13:07:21.842089$GLGSV,2,2,05,86,52,309,48,,,,,,,,,,,,*5F
###2023-11-09 13:07:21.844684$GAGSV,1,1,04,07,72,257,45,08,49,042,44,13,64,160,44,26,56,310,45*6F
###2023-11-09 13:07:21.847292$GBGSV,2,1,06,11,24,180,42,14,65,006,45,24,19,133,44,26,23,082,42*60
###2023-11-09 13:07:21.849236$GBGSV,2,2,06,28,43,289,47,33,58,302,47,,,,,,,,*6F
###2023-11-09 13:07:21.850672$GNVTG,21.83,T,,M,0.86,N,1.58,K,A*19
###2023-11-09 13:07:21.934714$GNGGA,130722.10,3611.0531653,N,07544.9773160,W,1,24,0.6,1.076,M,-39.961,M,0.0,*6E
###2023-11-09 13:07:21.937310$GPGSV,2,1,07,05,21,090,42,10,18,292,44,13,24,045,41,15,62,037,45*70
###2023-11-09 13:07:21.939563$GPGSV,2,2,07,18,77,281,47,23,50,315,45,24,49,136,46,,,,*40
###2023-11-09 13:07:21.942127$GLGSV,2,1,05,70,50,016,35,71,48,288,48,80,17,091,43,85,58,203,48*68
###2023-11-09 13:07:21.943733$GLGSV,2,2,05,86,52,309,48,,,,,,,,,,,,*5F
###2023-11-09 13:07:21.946295$GAGSV,1,1,04,07,72,257,45,08,49,042,44,13,64,160,44,26,56,310,45*6F
###2023-11-09 13:07:21.948873$GBGSV,2,1,06,11,24,180,42,14,65,006,45,24,19,133,44,26,23,082,42*60
###2023-11-09 13:07:21.950797$GBGSV,2,2,06,28,43,289,47,33,58,302,48,,,,,,,,*60
###2023-11-09 13:07:21.952247$GNVTG,21.83,T,,M,0.72,N,1.33,K,A*1F
###2023-11-09 13:07:22.031129$GNGGA,130722.20,3611.0531860,N,07544.9773094,W,1,24,0.6,1.094,M,-39.961,M,0.0,*65
###2023-11-09 13:07:22.033750$GPGSV,2,1,07,05,21,090,42,10,18,292,44,13,24,045,41,15,62,037,45*70
###2023-11-09 13:07:22.036020$GPGSV,2,2,07,18,77,281,47,23,50,315,45,24,49,136,46,,,,*40
###2023-11-09 13:07:22.038625$GLGSV,2,1,05,70,50,016,35,71,48,288,48,80,17,091,43,85,58,203,48*68
###2023-11-09 13:07:22.040239$GLGSV,2,2,05,86,52,309,48,,,,,,,,,,,,*5F
###2023-11-09 13:07:22.042809$GAGSV,1,1,04,07,72,257,45,08,49,042,44,13,64,160,44,26,56,310,45*6F
###2023-11-09 13:07:22.045403$GBGSV,2,1,06,11,24,180,42,14,65,006,45,24,19,133,44,26,23,082,42*60
###2023-11-09 13:07:22.047357$GBGSV,2,2,06,28,43,289,47,33,58,302,48,,,,,,,,*60
###2023-11-09 13:07:22.048808$GNVTG,21.83,T,,M,0.80,N,1.48,K,A*1E
###2023-11-09 13:07:22.131889$GNGGA,130722.30,3611.0532121,N,07544.9773034,W,1,24,0.6,1.120,M,-39.961,M,0.0,*6F
###2023-11-09 13:07:22.134488$GPGSV,2,1,07,05,21,090,42,10,18,292,43,13,24,045,41,15,62,037,45*77
###2023-11-09 13:07:22.136762$GPGSV,2,2,07,18,77,281,47,23,50,315,45,24,49,136,46,,,,*40
###2023-11-09 13:07:22.139364$GLGSV,2,1,05,70,50,016,35,71,48,288,48,80,17,091,43,85,58,203,48*68
###2023-11-09 13:07:22.140984$GLGSV,2,2,05,86,52,309,48,,,,,,,,,,,,*5F
###2023-11-09 13:07:22.143564$GAGSV,1,1,04,07,72,257,45,08,49,042,44,13,64,160,44,26,56,310,45*6F
###2023-11-09 13:07:22.146148$GBGSV,2,1,06,11,24,180,42,14,65,006,45,24,19,133,44,26,23,082,42*60
###2023-11-09 13:07:22.148102$GBGSV,2,2,06,28,43,289,47,33,58,302,48,,,,,,,,*60
###2023-11-09 13:07:22.149500$GNVTG,9.78,T,,M,1.11,N,2.05,K,A*23
###2023-11-09 13:07:22.236225$GNGGA,130722.40,3611.0532461,N,07544.9772974,W,1,24,0.6,1.153,M,-39.961,M,0.0,*61
###2023-11-09 13:07:22.238824$GPGSV,2,1,07,05,21,090,42,10,18,292,43,13,24,045,41,15,62,037,45*77
###2023-11-09 13:07:22.241071$GPGSV,2,2,07,18,77,281,47,23,50,315,45,24,49,136,46,,,,*40
###2023-11-09 13:07:22.243642$GLGSV,2,1,05,70,50,016,35,71,48,288,48,80,17,091,43,85,58,203,48*68
###2023-11-09 13:07:22.245246$GLGSV,2,2,05,86,52,309,48,,,,,,,,,,,,*5F
###2023-11-09 13:07:22.247821$GAGSV,1,1,04,07,72,257,45,08,49,042,44,13,64,160,44,26,56,310,45*6F
###2023-11-09 13:07:22.250389$GBGSV,2,1,06,11,24,180,42,14,65,006,45,24,19,133,44,26,23,082,42*60
###2023-11-09 13:07:22.252341$GBGSV,2,2,06,28,43,289,47,33,58,302,48,,,,,,,,*60
###2023-11-09 13:07:22.253747$GNVTG,7.46,T,,M,1.38,N,2.56,K,A*2D
###2023-11-09 13:07:22.330000$GNGGA,130722.50,3611.0532860,N,07544.9772921,W,1,24,0.6,1.185,M,-39.961,M,0.0,*66
###2023-11-09 13:07:22.332585$GPGSV,2,1,07,05,21,090,42,10,18,292,43,13,24,045,41,15,62,037,45*77
###2023-11-09 13:07:22.334854$GPGSV,2,2,07,18,77,281,47,23,50,315,45,24,49,136,46,,,,*40
###2023-11-09 13:07:22.337456$GLGSV,2,1,05,70,50,016,35,71,48,288,48,80,17,091,43,85,58,203,48*68
###2023-11-09 13:07:22.339065$GLGSV,2,2,05,86,52,309,47,,,,,,,,,,,,*50
###2023-11-09 13:07:22.341638$GAGSV,1,1,04,07,72,257,45,08,49,042,44,13,64,160,44,26,56,310,45*6F
###2023-11-09 13:07:22.344236$GBGSV,2,1,06,11,24,180,42,14,65,006,45,24,19,133,44,26,23,082,43*61
###2023-11-09 13:07:22.346179$GBGSV,2,2,06,28,43,289,47,33,58,302,48,,,,,,,,*60
###2023-11-09 13:07:22.347589$GNVTG,5.53,T,,M,1.50,N,2.77,K,A*26
###2023-11-09 13:07:22.429986$GNGGA,130722.60,3611.0533255,N,07544.9772875,W,1,24,0.6,1.212,M,-39.961,M,0.0,*65
###2023-11-09 13:07:22.432563$GPGSV,2,1,07,05,21,090,42,10,18,292,43,13,24,045,42,15,62,037,45*74
###2023-11-09 13:07:22.434831$GPGSV,2,2,07,18,77,281,47,23,50,315,45,24,49,136,46,,,,*40
###2023-11-09 13:07:22.437455$GLGSV,2,1,05,70,50,016,35,71,48,288,48,80,17,091,42,85,58,203,48*69
###2023-11-09 13:07:22.439364$GLGSV,2,2,05,86,52,309,47,,,,,,,,,,,,*50
###2023-11-09 13:07:22.441967$GAGSV,1,1,04,07,72,257,45,08,49,042,44,13,64,160,44,26,56,310,45*6F
###2023-11-09 13:07:22.444568$GBGSV,2,1,06,11,24,180,41,14,65,006,45,24,19,133,43,26,23,082,43*65
###2023-11-09 13:07:22.446514$GBGSV,2,2,06,28,43,289,47,33,58,302,48,,,,,,,,*60
###2023-11-09 13:07:22.447931$GNVTG,5.84,T,,M,1.34,N,2.48,K,A*22
###2023-11-09 13:07:22.530235$GNGGA,130722.70,3611.0533580,N,07544.9772833,W,1,24,0.6,1.231,M,-39.961,M,0.0,*68
###2023-11-09 13:07:22.532836$GPGSV,2,1,07,05,21,090,42,10,18,292,42,13,24,045,43,15,62,037,45*74
###2023-11-09 13:07:22.535107$GPGSV,2,2,07,18,77,281,47,23,50,315,45,24,49,136,46,,,,*40
###2023-11-09 13:07:22.537701$GLGSV,2,1,05,70,50,016,36,71,48,288,48,80,17,091,42,85,58,203,48*6A
