###2023-11-09 13:10:20.938995$GLGSV,2,1,05,70,49,019,36,71,48,291,48,80,19,089,44,85,56,202,48*6B
###2023-11-09 13:10:20.940649$GLGSV,2,2,05,86,54,306,49,,,,,,,,,,,,*57
###2023-11-09 13:10:20.943230$GAGSV,1,1,04,07,73,259,45,08,48,043,45,13,63,161,45,26,57,310,45*67
###2023-11-09 13:10:20.945810$GBGSV,2,1,06,11,22,180,42,14,65,009,45,24,21,132,42,26,23,080,42*67
###2023-11-09 13:10:20.947786$GBGSV,2,2,06,28,43,286,47,33,59,305,48,,,,,,,,*69
###2023-11-09 13:10:20.949233$GNVTG,70.98,T,,M,4.59,N,8.50,K,A*10
###2023-11-09 13:10:21.032351$GNGGA,131021.20,3611.0511234,N,07544.8729126,W,1,24,0.6,0.708,M,-39.961,M,0.0,*6C
###2023-11-09 13:10:21.034923$GPGSV,2,1,07,05,20,091,43,10,19,294,44,13,24,045,42,15,61,037,45*76
###2023-11-09 13:10:21.037180$GPGSV,2,2,07,18,78,277,47,23,50,316,46,24,50,134,45,,,,*4F
###2023-11-09 13:10:21.039743$GLGSV,2,1,05,70,49,019,36,71,48,291,48,80,19,089,44,85,56,202,48*6B
###2023-11-09 13:10:21.041339$GLGSV,2,2,05,86,54,306,48,,,,,,,,,,,,*56
###2023-11-09 13:10:21.043897$GAGSV,1,1,04,07,73,259,45,08,48,043,45,13,63,161,45,26,57,310,45*67
###2023-11-09 13:10:21.046456$GBGSV,2,1,06,11,22,180,42,14,65,009,45,24,21,132,44,26,23,080,42*61
###2023-11-09 13:10:21.048385$GBGSV,2,2,06,28,43,286,47,33,59,305,48,,,,,,,,*69
###2023-11-09 13:10:21.049809$GNVTG,71.58,T,,M,4.57,N,8.46,K,A*14
###2023-11-09 13:10:21.129644$GNGGA,131021.30,3611.0511639,N,07544.8727670,W,1,24,0.6,0.682,M,-39.961,M,0.0,*6D
###2023-11-09 13:10:21.132236$GPGSV,2,1,07,05,20,091,43,10,19,294,42,13,24,045,42,15,61,037,45*70
###2023-11-09 13:10:21.134488$GPGSV,2,2,07,18,78,277,47,23,50,316,45,24,50,134,45,,,,*4C
###2023-11-09 13:10:21.137073$GLGSV,2,1,05,70,49,019,36,71,48,291,47,80,19,089,45,85,56,202,48*65
###2023-11-09 13:10:21.138673$GLGSV,2,2,05,86,54,306,47,,,,,,,,,,,,*59
###2023-11-09 13:10:21.141228$GAGSV,1,1,04,07,73,259,46,08,48,043,45,13,63,161,45,26,57,310,45*64
###2023-11-09 13:10:21.143793$GBGSV,2,1,06,11,22,180,43,14,65,009,44,24,21,132,45,26,23,080,43*61
###2023-11-09 13:10:21.145725$GBGSV,2,2,06,28,43,286,47,33,59,305,47,,,,,,,,*66
###2023-11-09 13:10:21.147157$GNVTG,70.02,T,,M,4.45,N,8.24,K,A*1D
###2023-11-09 13:10:21.230478$GNGGA,131021.40,3611.0512099,N,07544.8726283,W,1,24,0.6,0.663,M,-39.961,M,0.0,*63
###2023-11-09 13:10:21.233065$GPGSV,2,1,07,05,20,091,43,10,19,294,42,13,24,045,40,15,61,037,45*72
###2023-11-09 13:10:21.235320$GPGSV,2,2,07,18,78,277,47,23,50,316,45,24,50,134,45,,,,*4C
###2023-11-09 13:10:21.237903$GLGSV,2,1,05,70,49,019,36,71,48,291,47,80,19,089,46,85,56,202,49*67
###2023-11-09 13:10:21.239517$GLGSV,2,2,05,86,54,306,47,,,,,,,,,,,,*59
###2023-11-09 13:10:21.242097$GAGSV,1,1,04,07,73,259,46,08,48,043,44,13,63,161,45,26,57,310,45*65
###2023-11-09 13:10:21.244673$GBGSV,2,1,06,11,22,180,44,14,65,009,44,24,21,132,45,26,23,080,44*61
###2023-11-09 13:10:21.246599$GBGSV,2,2,06,28,43,286,47,33,59,305,47,,,,,,,,*66
###2023-11-09 13:10:21.248047$GNVTG,64.96,T,,M,4.33,N,8.03,K,A*11
###2023-11-09 13:10:21.329477$GNGGA,131021.50,3611.0512670,N,07544.8725000,W,1,24,0.6,0.664,M,-39.961,M,0.0,*6E
###2023-11-09 13:10:21.332056$GPGSV,2,1,07,05,20,091,43,10,19,294,42,13,24,045,40,15,61,037,45*72
###2023-11-09 13:10:21.334302$GPGSV,2,2,07,18,78,277,47,23,50,316,45,24,50,134,45,,,,*4C
###2023-11-09 13:10:21.336862$GLGSV,2,1,05,70,49,019,36,71,48,291,47,80,19,089,46,85,56,202,49*67
###2023-11-09 13:10:21.338497$GLGSV,2,2,05,86,54,306,47,,,,,,,,,,,,*59
###2023-11-09 13:10:21.341042$GAGSV,1,1,04,07,73,259,45,08,48,043,44,13,63,161,45,26,57,310,44*67
###2023-11-09 13:10:21.343595$GBGSV,2,1,06,11,22,180,44,14,65,009,44,24,21,132,45,26,23,080,44*61
###2023-11-09 13:10:21.345514$GBGSV,2,2,06,28,43,286,47,33,59,305,47,,,,,,,,*66
###2023-11-09 13:10:21.346945$GNVTG,56.86,T,,M,4.24,N,7.85,K,A*16
###2023-11-09 13:10:21.429497$GNGGA,131021.60,3611.0513333,N,07544.8723803,W,1,24,0.6,0.675,M,-39.961,M,0.0,*63
###2023-11-09 13:10:21.432088$GPGSV,2,1,07,05,20,091,43,10,19,294,42,13,24,045,41,15,61,037,45*73
###2023-11-09 13:10:21.434333$GPGSV,2,2,07,18,78,277,47,23,50,316,45,24,50,134,45,,,,*4C
###2023-11-09 13:10:21.436915$GLGSV,2,1,05,70,49,019,36,71,48,291,47,80,19,089,45,85,56,202,49*64
###2023-11-09 13:10:21.438530$GLGSV,2,2,05,86,54,306,47,,,,,,,,,,,,*59
###2023-11-09 13:10:21.441090$GAGSV,1,1,04,07,73,259,45,08,48,043,44,13,63,161,45,26,57,310,45*66
###2023-11-09 13:10:21.443654$GBGSV,2,1,06,11,22,180,44,14,65,009,44,24,21,132,45,26,23,080,44*61
###2023-11-09 13:10:21.445587$GBGSV,2,2,06,28,43,286,47,33,59,305,47,,,,,,,,*66
###2023-11-09 13:10:21.447023$GNVTG,54.10,T,,M,4.26,N,7.88,K,A*14
###2023-11-09 13:10:21.530470$GNGGA,131021.70,3611.0514003,N,07544.8722590,W,1,24,0.6,0.681,M,-39.961,M,0.0,*68
###2023-11-09 13:10:21.533052$GPGSV,2,1,07,05,20,091,43,10,19,294,43,13,24,045,41,15,61,037,45*72
###2023-11-09 13:10:21.535294$GPGSV,2,2,07,18,78,277,47,23,50,316,46,24,50,134,45,,,,*4F
###2023-11-09 13:10:21.537868$GLGSV,2,1,05,70,49,019,36,71,48,291,47,80,19,089,45,85,56,202,49*64
###2023-11-09 13:10:21.539468$GLGSV,2,2,05,86,54,306,48,,,,,,,,,,,,*56
###2023-11-09 13:10:21.542014$GAGSV,1,1,04,07,73,259,46,08,48,043,44,13,63,161,45,26,57,310,45*65
###2023-11-09 13:10:21.544575$GBGSV,2,1,06,11,22,180,42,14,65,009,44,24,21,132,44,26,23,080,44*66
###2023-11-09 13:10:21.546503$GBGSV,2,2,06,28,43,286,47,33,59,305,48,,,,,,,,*69
###2023-11-09 13:10:21.547938$GNVTG,56.96,T,,M,4.35,N,8.06,K,A*13
###2023-11-09 13:10:21.629464$GNGGA,131021.80,3611.0514623,N,07544.8721314,W,1,24,0.6,0.674,M,-39.961,M,0.0,*60
###2023-11-09 13:10:21.632035$GPGSV,2,1,07,05,20,091,43,10,19,294,43,13,24,045,41,15,61,037,45*72
###2023-11-09 13:10:21.634261$GPGSV,2,2,07,18,78,277,47,23,50,316,47,24,50,134,45,,,,*4E
###2023-11-09 13:10:21.636805$GLGSV,2,1,05,70,49,019,36,71,48,291,47,80,19,089,45,85,56,202,49*64
###2023-11-09 13:10:21.638412$GLGSV,2,2,05,86,54,306,48,,,,,,,,,,,,*56
###2023-11-09 13:10:21.640958$GAGSV,1,1,04,07,73,259,46,08,48,043,44,13,63,161,45,26,57,310,45*65
###2023-11-09 13:10:21.643520$GBGSV,2,1,06,11,22,180,42,14,65,009,44,24,21,132,43,26,23,080,43*66
###2023-11-09 13:10:21.645440$GBGSV,2,2,06,28,43,286,47,33,59,305,48,,,,,,,,*69
###2023-11-09 13:10:21.646854$GNVTG,60.73,T,,M,4.37,N,8.10,K,A*18
###2023-11-09 13:10:21.730506$GNGGA,131021.90,3611.0515190,N,07544.8719978,W,1,24,0.6,0.652,M,-39.961,M,0.0,*60
###2023-11-09 13:10:21.733113$GPGSV,2,1,07,05,20,091,42,10,19,294,44,13,24,045,41,15,61,037,45*74
###2023-11-09 13:10:21.735364$GPGSV,2,2,07,18,78,277,47,23,50,316,47,24,50,134,45,,,,*4E
###2023-11-09 13:10:21.737954$GLGSV,2,1,05,70,49,019,36,71,48,291,47,80,19,089,44,85,56,202,49*65
###2023-11-09 13:10:21.739568$GLGSV,2,2,05,86,54,306,48,,,,,,,,,,,,*56
###2023-11-09 13:10:21.742135$GAGSV,1,1,04,07,73,259,46,08,48,043,44,13,63,161,45,26,57,310,45*65
###2023-11-09 13:10:21.744719$GBGSV,2,1,06,11,22,180,42,14,65,009,44,24,21,132,42,26,23,080,42*66
###2023-11-09 13:10:21.746653$GBGSV,2,2,06,28,43,286,47,33,59,305,48,,,,,,,,*69
###2023-11-09 13:10:21.748132$GNVTG,63.74,T,,M,4.47,N,8.28,K,A*10
###2023-11-09 13:10:21.833484$GNGGA,131022.00,3611.0515707,N,07544.8718594,W,1,24,0.6,0.619,M,-39.961,M,0.0,*62
###2023-11-09 13:10:21.836077$GPGSV,2,1,07,05,20,091,42,10,19,294,44,13,24,045,41,15,61,037,45*74
###2023-11-09 13:10:21.838369$GPGSV,2,2,07,18,78,277,47,23,50,316,46,24,50,134,45,,,,*4F
###2023-11-09 13:10:21.840935$GLGSV,2,1,05,70,49,019,36,71,48,291,47,80,19,089,44,85,56,202,49*65
###2023-11-09 13:10:21.842543$GLGSV,2,2,05,86,54,306,48,,,,,,,,,,,,*56
###2023-11-09 13:10:21.845095$GAGSV,1,1,04,07,73,259,46,08,48,043,44,13,63,161,45,26,57,310,45*65
###2023-11-09 13:10:21.847682$GBGSV,2,1,06,11,22,180,42,14,65,009,44,24,21,132,43,26,23,080,42*67
###2023-11-09 13:10:21.849613$GBGSV,2,2,06,28,43,286,48,33,59,305,48,,,,,,,,*66
###2023-11-09 13:10:21.851035$GNVTG,66.42,T,,M,4.45,N,8.24,K,A*1E
###2023-11-09 13:10:21.941708$GNGGA,131022.10,3611.0516208,N,07544.8717211,W,1,24,0.6,0.579,M,-39.961,M,0.0,*6A
###2023-11-09 13:10:21.944273$GPGSV,2,1,07,05,20,091,43,10,19,294,42,13,24,045,41,15,61,037,45*73
###2023-11-09 13:10:21.946500$GPGSV,2,2,07,18,78,277,47,23,50,316,46,24,50,134,45,,,,*4F
###2023-11-09 13:10:21.949066$GLGSV,2,1,05,70,49,019,36,71,48,291,47,80,19,089,45,85,56,202,49*64
###2023-11-09 13:10:21.950978$GLGSV,2,2,05,86,54,306,48,,,,,,,,,,,,*56
###2023-11-09 13:10:21.953553$GAGSV,1,1,04,07,73,259,46,08,48,043,44,13,63,161,45,26,57,310,45*65
###2023-11-09 13:10:21.956151$GBGSV,2,1,06,11,22,180,42,14,65,009,44,24,21,132,44,26,23,080,43*61
###2023-11-09 13:10:21.958127$GBGSV,2,2,06,28,43,286,47,33,59,305,48,,,,,,,,*69
###2023-11-09 13:10:21.959565$GNVTG,65.17,T,,M,4.43,N,8.21,K,A*1E
###2023-11-09 13:10:22.031969$GNGGA,131022.20,3611.0516777,N,07544.8715873,W,1,24,0.6,0.544,M,-39.961,M,0.0,*66
###2023-11-09 13:10:22.034557$GPGSV,2,1,07,05,20,091,43,10,19,294,41,13,24,045,41,15,61,037,45*70
###2023-11-09 13:10:22.036807$GPGSV,2,2,07,18,78,277,47,23,50,316,46,24,50,134,45,,,,*4F
###2023-11-09 13:10:22.039393$GLGSV,2,1,05,70,49,019,36,71,48,291,47,80,19,089,45,85,56,202,49*64
