###2023-11-09 13:08:03.841255$GLGSV,2,2,05,86,52,309,48,,,,,,,,,,,,*5F
###2023-11-09 13:08:03.843864$GAGSV,1,1,04,07,72,258,44,08,49,042,45,13,64,160,45,26,56,310,45*61
###2023-11-09 13:08:03.846455$GBGSV,2,1,06,11,23,180,41,14,65,008,45,24,20,132,43,26,23,081,44*63
###2023-11-09 13:08:03.848440$GBGSV,2,2,06,28,43,287,46,33,59,304,47,,,,,,,,*67
###2023-11-09 13:08:03.849920$GNVTG,264.52,T,,M,4.74,N,8.78,K,A*24
###2023-11-09 13:08:03.933104$GNGGA,130804.10,3611.0452180,N,07544.9882149,W,1,24,0.6,1.096,M,-39.961,M,0.0,*6C
###2023-11-09 13:08:03.935697$GPGSV,2,1,07,05,21,090,43,10,18,292,44,13,24,045,43,15,62,037,46*70
###2023-11-09 13:08:03.937971$GPGSV,2,2,07,18,77,281,46,23,50,315,46,24,49,136,45,,,,*41
###2023-11-09 13:08:03.940562$GLGSV,2,1,05,70,50,017,36,71,48,290,49,80,17,091,44,85,58,203,47*6A
###2023-11-09 13:08:03.942183$GLGSV,2,2,05,86,52,309,48,,,,,,,,,,,,*5F
###2023-11-09 13:08:03.944752$GAGSV,1,1,04,07,72,258,45,08,49,042,45,13,64,160,45,26,56,310,45*60
###2023-11-09 13:08:03.947348$GBGSV,2,1,06,11,23,180,41,14,65,008,45,24,20,132,43,26,23,081,44*63
###2023-11-09 13:08:03.949281$GBGSV,2,2,06,28,43,287,47,33,59,304,47,,,,,,,,*66
###2023-11-09 13:08:03.950743$GNVTG,263.54,T,,M,4.86,N,9.00,K,A*26
###2023-11-09 13:08:04.031974$GNGGA,130804.20,3611.0452019,N,07544.9883812,W,1,24,0.6,1.095,M,-39.961,M,0.0,*6B
###2023-11-09 13:08:04.034571$GPGSV,2,1,07,05,21,090,43,10,18,292,44,13,24,045,42,15,62,037,46*71
###2023-11-09 13:08:04.036825$GPGSV,2,2,07,18,77,281,46,23,50,315,46,24,49,136,45,,,,*41
###2023-11-09 13:08:04.039422$GLGSV,2,1,05,70,50,017,36,71,48,290,49,80,17,091,44,85,58,203,47*6A
###2023-11-09 13:08:04.041033$GLGSV,2,2,05,86,52,309,48,,,,,,,,,,,,*5F
###2023-11-09 13:08:04.043595$GAGSV,1,1,04,07,72,258,45,08,49,042,45,13,64,160,45,26,56,310,45*60
###2023-11-09 13:08:04.046177$GBGSV,2,1,06,11,23,180,41,14,65,008,45,24,20,132,43,26,23,081,43*64
###2023-11-09 13:08:04.048122$GBGSV,2,2,06,28,43,287,47,33,59,304,47,,,,,,,,*66
###2023-11-09 13:08:04.049590$GNVTG,262.99,T,,M,4.96,N,9.18,K,A*2E
###2023-11-09 13:08:04.129862$GNGGA,130804.30,3611.0451825,N,07544.9885472,W,1,24,0.6,1.085,M,-39.961,M,0.0,*63
###2023-11-09 13:08:04.132439$GPGSV,2,1,07,05,21,090,43,10,18,292,44,13,24,045,42,15,62,037,46*71
###2023-11-09 13:08:04.134692$GPGSV,2,2,07,18,77,281,46,23,50,315,46,24,49,136,45,,,,*41
###2023-11-09 13:08:04.137282$GLGSV,2,1,05,70,50,017,36,71,48,290,49,80,17,091,45,85,58,203,47*6B
###2023-11-09 13:08:04.138892$GLGSV,2,2,05,86,52,309,48,,,,,,,,,,,,*5F
###2023-11-09 13:08:04.141453$GAGSV,1,1,04,07,72,258,44,08,49,042,45,13,64,160,45,26,56,310,45*61
###2023-11-09 13:08:04.144035$GBGSV,2,1,06,11,23,180,41,14,65,008,45,24,20,132,43,26,23,081,43*64
###2023-11-09 13:08:04.145968$GBGSV,2,2,06,28,43,287,47,33,59,304,47,,,,,,,,*66
###2023-11-09 13:08:04.147438$GNVTG,261.11,T,,M,4.86,N,9.00,K,A*25
###2023-11-09 13:08:04.229951$GNGGA,130804.40,3611.0451593,N,07544.9887094,W,1,24,0.6,1.085,M,-39.961,M,0.0,*6A
###2023-11-09 13:08:04.232521$GPGSV,2,1,07,05,21,090,43,10,18,292,44,13,24,045,42,15,62,037,46*71
###2023-11-09 13:08:04.234749$GPGSV,2,2,07,18,77,281,46,23,50,315,46,24,49,136,45,,,,*41
###2023-11-09 13:08:04.237317$GLGSV,2,1,05,70,50,017,36,71,48,290,49,80,17,091,45,85,58,203,47*6B
###2023-11-09 13:08:04.238907$GLGSV,2,2,05,86,52,309,48,,,,,,,,,,,,*5F
###2023-11-09 13:08:04.241450$GAGSV,1,1,04,07,72,258,44,08,49,042,45,13,64,160,45,26,56,310,45*61
###2023-11-09 13:08:04.244000$GBGSV,2,1,06,11,23,180,41,14,65,008,45,24,20,132,43,26,23,081,43*64
###2023-11-09 13:08:04.245914$GBGSV,2,2,06,28,43,287,46,33,59,304,47,,,,,,,,*67
###2023-11-09 13:08:04.247373$GNVTG,259.53,T,,M,4.78,N,8.86,K,A*26
###2023-11-09 13:08:04.328869$GNGGA,130804.50,3611.0451334,N,07544.9888707,W,1,24,0.6,1.100,M,-39.961,M,0.0,*6E
###2023-11-09 13:08:04.331459$GPGSV,2,1,07,05,21,090,43,10,18,292,43,13,24,045,43,15,62,037,46*77
###2023-11-09 13:08:04.333709$GPGSV,2,2,07,18,77,281,46,23,50,315,45,24,49,136,45,,,,*42
###2023-11-09 13:08:04.336270$GLGSV,2,1,05,70,50,017,36,71,48,290,48,80,17,091,45,85,58,203,47*6A
###2023-11-09 13:08:04.337900$GLGSV,2,2,05,86,52,309,48,,,,,,,,,,,,*5F
###2023-11-09 13:08:04.340476$GAGSV,1,1,04,07,72,258,44,08,49,042,45,13,64,160,45,26,56,310,45*61
###2023-11-09 13:08:04.343057$GBGSV,2,1,06,11,23,180,41,14,65,008,45,24,20,132,44,26,23,081,43*63
###2023-11-09 13:08:04.344981$GBGSV,2,2,06,28,43,287,46,33,59,304,47,,,,,,,,*67
###2023-11-09 13:08:04.346437$GNVTG,258.77,T,,M,4.82,N,8.93,K,A*20
###2023-11-09 13:08:04.429880$GNGGA,130804.60,3611.0451054,N,07544.9890340,W,1,24,0.6,1.131,M,-39.961,M,0.0,*64
###2023-11-09 13:08:04.432471$GPGSV,2,1,07,05,21,090,43,10,18,292,43,13,24,045,43,15,62,037,46*77
###2023-11-09 13:08:04.434720$GPGSV,2,2,07,18,77,281,46,23,50,315,45,24,49,136,46,,,,*41
###2023-11-09 13:08:04.437306$GLGSV,2,1,05,70,50,017,36,71,48,290,49,80,17,091,45,85,58,203,48*64
###2023-11-09 13:08:04.438909$GLGSV,2,2,05,86,52,309,48,,,,,,,,,,,,*5F
###2023-11-09 13:08:04.441476$GAGSV,1,1,04,07,72,258,44,08,49,042,45,13,64,160,45,26,56,310,45*61
###2023-11-09 13:08:04.444044$GBGSV,2,1,06,11,23,180,42,14,65,008,45,24,20,132,44,26,23,081,43*60
###2023-11-09 13:08:04.445969$GBGSV,2,2,06,28,43,287,46,33,59,304,47,,,,,,,,*67
###2023-11-09 13:08:04.447443$GNVTG,258.06,T,,M,4.94,N,9.14,K,A*2F
###2023-11-09 13:08:04.529862$GNGGA,130804.70,3611.0450750,N,07544.9892017,W,1,24,0.6,1.144,M,-39.961,M,0.0,*66
###2023-11-09 13:08:04.532432$GPGSV,2,1,07,05,21,090,44,10,18,292,43,13,24,045,42,15,62,037,46*71
###2023-11-09 13:08:04.534667$GPGSV,2,2,07,18,77,281,46,23,50,315,45,24,49,136,46,,,,*41
###2023-11-09 13:08:04.537232$GLGSV,2,1,05,70,50,017,36,71,48,290,48,80,17,091,45,85,58,203,47*6A
###2023-11-09 13:08:04.538829$GLGSV,2,2,05,86,52,309,48,,,,,,,,,,,,*5F
###2023-11-09 13:08:04.541366$GAGSV,1,1,04,07,72,258,44,08,49,042,45,13,64,160,45,26,56,310,45*61
###2023-11-09 13:08:04.543913$GBGSV,2,1,06,11,23,180,42,14,65,008,45,24,20,132,44,26,23,081,43*60
###2023-11-09 13:08:04.545830$GBGSV,2,2,06,28,43,287,46,33,59,304,47,,,,,,,,*67
###2023-11-09 13:08:04.547296$GNVTG,257.38,T,,M,5.07,N,9.40,K,A*27
###2023-11-09 13:08:04.628870$GNGGA,130804.80,3611.0450420,N,07544.9893687,W,1,24,0.6,1.142,M,-39.961,M,0.0,*65
###2023-11-09 13:08:04.631455$GPGSV,2,1,07,05,21,090,44,10,18,292,43,13,24,045,42,15,62,037,46*71
###2023-11-09 13:08:04.633694$GPGSV,2,2,07,18,77,281,46,23,50,315,45,24,49,136,46,,,,*41
###2023-11-09 13:08:04.636256$GLGSV,2,1,05,70,50,017,36,71,48,290,48,80,17,091,46,85,58,203,47*69
###2023-11-09 13:08:04.637873$GLGSV,2,2,05,86,52,309,48,,,,,,,,,,,,*5F
###2023-11-09 13:08:04.640437$GAGSV,1,1,04,07,72,258,45,08,49,042,45,13,64,160,45,26,56,310,45*60
###2023-11-09 13:08:04.643008$GBGSV,2,1,06,11,23,180,40,14,65,008,45,24,20,132,44,26,23,081,43*62
###2023-11-09 13:08:04.644940$GBGSV,2,2,06,28,43,287,47,33,59,304,47,,,,,,,,*66
###2023-11-09 13:08:04.646403$GNVTG,256.03,T,,M,4.98,N,9.22,K,A*2D
###2023-11-09 13:08:04.729984$GNGGA,130804.90,3611.0450051,N,07544.9895329,W,1,24,0.6,1.121,M,-39.961,M,0.0,*64
###2023-11-09 13:08:04.732581$GPGSV,2,1,07,05,21,090,43,10,18,292,44,13,24,045,42,15,62,037,46*71
###2023-11-09 13:08:04.734832$GPGSV,2,2,07,18,77,281,46,23,50,315,45,24,49,136,46,,,,*41
###2023-11-09 13:08:04.737424$GLGSV,2,1,05,70,50,017,36,71,48,290,48,80,17,091,45,85,58,203,47*6A
###2023-11-09 13:08:04.739031$GLGSV,2,2,05,86,52,309,48,,,,,,,,,,,,*5F
###2023-11-09 13:08:04.741598$GAGSV,1,1,04,07,72,258,44,08,49,042,45,13,64,160,45,26,56,310,44*60
###2023-11-09 13:08:04.744162$GBGSV,2,1,06,11,23,180,42,14,65,008,45,24,20,132,44,26,23,081,43*60
###2023-11-09 13:08:04.746093$GBGSV,2,2,06,28,43,287,47,33,59,304,47,,,,,,,,*66
###2023-11-09 13:08:04.747578$GNVTG,253.59,T,,M,4.98,N,9.22,K,A*27
###2023-11-09 13:08:04.830758$GNGGA,130805.00,3611.0449653,N,07544.9896948,W,1,24,0.6,1.110,M,-39.961,M,0.0,*6C
###2023-11-09 13:08:04.833358$GPGSV,2,1,07,05,21,090,43,10,18,292,44,13,24,045,42,15,62,037,46*71
###2023-11-09 13:08:04.835595$GPGSV,2,2,07,18,77,281,46,23,50,315,45,24,49,136,46,,,,*41
###2023-11-09 13:08:04.838180$GLGSV,2,1,05,70,50,017,36,71,48,290,48,80,17,091,45,85,58,203,47*6A
###2023-11-09 13:08:04.840108$GLGSV,2,2,05,86,52,309,48,,,,,,,,,,,,*5F
###2023-11-09 13:08:04.842673$GAGSV,1,1,04,07,72,258,44,08,49,042,45,13,64,160,45,26,56,310,45*61
###2023-11-09 13:08:04.845240$GBGSV,2,1,06,11,23,180,42,14,65,008,45,24,20,132,44,26,23,081,43*60
###2023-11-09 13:08:04.847190$GBGSV,2,2,06,28,43,287,46,33,59,304,47,,,,,,,,*67
###2023-11-09 13:08:04.848648$GNVTG,253.45,T,,M,4.92,N,9.11,K,A*20
###2023-11-09 13:08:04.930862$GNGGA,130805.10,3611.0449247,N,07544.9898556,W,1,24,0.6,1.122,M,-39.961,M,0.0,*60
###2023-11-09 13:08:04.933468$GPGSV,2,1,07,05,21,090,43,10,18,292,44,13,24,045,42,15,62,037,47*70
###2023-11-09 13:08:04.935729$GPGSV,2,2,07,18,77,281,46,23,50,315,45,24,49,136,46,,,,*41
###2023-11-09 13:08:04.938341$GLGSV,2,1,05,70,50,017,36,71,48,290,48,80,18,090,46,85,58,203,47*67
###2023-11-09 13:08:04.939957$GLGSV,2,2,05,86,52,309,48,,,,,,,,,,,,*5F
