###2023-11-09 13:08:43.841192$GLGSV,2,2,05,86,53,308,48,,,,,,,,,,,,*5F
###2023-11-09 13:08:43.843763$GAGSV,1,1,04,07,72,258,45,08,48,043,45,13,64,160,45,26,57,310,45*61
###2023-11-09 13:08:43.846334$GBGSV,2,1,06,11,23,180,42,14,65,008,45,24,20,132,43,26,23,081,42*66
###2023-11-09 13:08:43.848295$GBGSV,2,2,06,28,43,287,47,33,59,304,47,,,,,,,,*66
###2023-11-09 13:08:43.849769$GNVTG,90.86,T,,M,5.68,N,10.51,K,A*2A
###2023-11-09 13:08:43.937890$GNGGA,130844.10,3611.0194382,N,07545.0065672,W,1,24,0.6,0.706,M,-39.962,M,0.0,*6D
###2023-11-09 13:08:43.940493$GPGSV,2,1,07,05,20,090,41,10,19,293,44,13,24,045,40,15,61,037,45*70
###2023-11-09 13:08:43.942761$GPGSV,2,2,07,18,78,277,47,23,50,316,45,24,50,135,46,,,,*4E
###2023-11-09 13:08:43.945347$GLGSV,2,1,05,70,50,017,35,71,48,290,48,80,18,090,42,85,57,203,49*61
###2023-11-09 13:08:43.946990$GLGSV,2,2,05,86,53,308,47,,,,,,,,,,,,*50
###2023-11-09 13:08:43.949571$GAGSV,1,1,04,07,72,258,45,08,48,043,45,13,64,160,45,26,57,310,45*61
###2023-11-09 13:08:43.952153$GBGSV,2,1,06,11,23,180,42,14,65,008,45,24,20,132,43,26,23,081,42*66
###2023-11-09 13:08:43.954092$GBGSV,2,2,06,28,43,287,47,33,59,304,47,,,,,,,,*66
###2023-11-09 13:08:43.955557$GNVTG,89.61,T,,M,5.66,N,10.48,K,A*2D
###2023-11-09 13:08:44.032974$GNGGA,130844.20,3611.0194406,N,07545.0063726,W,1,24,0.6,0.720,M,-39.962,M,0.0,*67
###2023-11-09 13:08:44.035554$GPGSV,2,1,07,05,20,090,41,10,19,293,44,13,24,045,40,15,61,037,45*70
###2023-11-09 13:08:44.037831$GPGSV,2,2,07,18,78,277,47,23,50,316,45,24,50,135,46,,,,*4E
###2023-11-09 13:08:44.040410$GLGSV,2,1,05,70,50,017,35,71,48,290,48,80,18,090,42,85,57,203,49*61
###2023-11-09 13:08:44.042018$GLGSV,2,2,05,86,53,308,47,,,,,,,,,,,,*50
###2023-11-09 13:08:44.044579$GAGSV,1,1,04,07,72,258,45,08,48,043,45,13,64,160,45,26,57,310,45*61
###2023-11-09 13:08:44.047161$GBGSV,2,1,06,11,23,180,42,14,65,008,45,24,20,132,43,26,23,081,42*66
###2023-11-09 13:08:44.049097$GBGSV,2,2,06,28,43,287,47,33,59,304,48,,,,,,,,*69
###2023-11-09 13:08:44.050569$GNVTG,88.85,T,,M,5.73,N,10.62,K,A*2A
###2023-11-09 13:08:44.133212$GNGGA,130844.30,3611.0194477,N,07545.0061769,W,1,24,0.6,0.718,M,-39.962,M,0.0,*62
###2023-11-09 13:08:44.135786$GPGSV,2,1,07,05,20,090,40,10,19,293,43,13,24,045,40,15,61,037,45*76
###2023-11-09 13:08:44.138058$GPGSV,2,2,07,18,78,277,47,23,50,316,45,24,50,135,46,,,,*4E
###2023-11-09 13:08:44.140615$GLGSV,2,1,05,70,50,017,35,71,48,290,48,80,18,090,42,85,57,203,49*61
###2023-11-09 13:08:44.142213$GLGSV,2,2,05,86,53,308,47,,,,,,,,,,,,*50
###2023-11-09 13:08:44.144769$GAGSV,1,1,04,07,72,258,45,08,48,043,45,13,64,160,45,26,57,310,45*61
###2023-11-09 13:08:44.147354$GBGSV,2,1,06,11,23,180,42,14,65,008,45,24,20,132,43,26,23,081,42*66
###2023-11-09 13:08:44.149283$GBGSV,2,2,06,28,43,287,47,33,59,304,47,,,,,,,,*66
###2023-11-09 13:08:44.150741$GNVTG,86.36,T,,M,5.73,N,10.62,K,A*2C
###2023-11-09 13:08:44.228895$GNGGA,130844.40,3611.0194585,N,07545.0059834,W,1,24,0.6,0.711,M,-39.962,M,0.0,*6C
###2023-11-09 13:08:44.231497$GPGSV,2,1,07,05,20,090,40,10,19,293,43,13,24,045,41,15,61,037,45*77
###2023-11-09 13:08:44.233751$GPGSV,2,2,07,18,78,277,47,23,50,316,45,24,50,135,46,,,,*4E
###2023-11-09 13:08:44.236325$GLGSV,2,1,05,70,50,017,35,71,48,290,48,80,18,090,42,85,57,203,49*61
###2023-11-09 13:08:44.237943$GLGSV,2,2,05,86,53,308,47,,,,,,,,,,,,*50
###2023-11-09 13:08:44.240522$GAGSV,1,1,04,07,72,258,45,08,48,043,45,13,64,160,45,26,57,310,45*61
###2023-11-09 13:08:44.243097$GBGSV,2,1,06,11,23,180,42,14,65,008,45,24,20,132,43,26,23,081,42*66
###2023-11-09 13:08:44.245044$GBGSV,2,2,06,28,43,287,47,33,59,304,47,,,,,,,,*66
###2023-11-09 13:08:44.246500$GNVTG,85.99,T,,M,5.62,N,10.40,K,A*2A
###2023-11-09 13:08:44.328872$GNGGA,130844.50,3611.0194661,N,07545.0057923,W,1,24,0.6,0.707,M,-39.962,M,0.0,*6A
###2023-11-09 13:08:44.331466$GPGSV,2,1,07,05,20,090,40,10,19,293,43,13,24,045,41,15,61,037,45*77
###2023-11-09 13:08:44.333714$GPGSV,2,2,07,18,78,277,47,23,50,316,45,24,50,135,46,,,,*4E
###2023-11-09 13:08:44.336277$GLGSV,2,1,05,70,50,017,35,71,48,290,48,80,18,090,42,85,57,203,49*61
###2023-11-09 13:08:44.337897$GLGSV,2,2,05,86,53,308,47,,,,,,,,,,,,*50
###2023-11-09 13:08:44.340468$GAGSV,1,1,04,07,72,258,45,08,48,043,45,13,64,160,45,26,57,310,45*61
###2023-11-09 13:08:44.343046$GBGSV,2,1,06,11,23,180,42,14,65,008,45,24,20,132,43,26,23,081,42*66
###2023-11-09 13:08:44.344973$GBGSV,2,2,06,28,43,287,47,33,59,304,47,,,,,,,,*66
###2023-11-09 13:08:44.346428$GNVTG,88.53,T,,M,5.58,N,10.33,K,A*2C
###2023-11-09 13:08:44.429004$GNGGA,130844.60,3611.0194689,N,07545.0056039,W,1,24,0.6,0.710,M,-39.962,M,0.0,*6A
###2023-11-09 13:08:44.431579$GPGSV,2,1,07,05,20,090,42,10,19,293,43,13,24,045,41,15,61,037,45*75
###2023-11-09 13:08:44.433829$GPGSV,2,2,07,18,78,277,47,23,50,316,45,24,50,135,46,,,,*4E
###2023-11-09 13:08:44.436402$GLGSV,2,1,05,70,50,017,35,71,48,290,48,80,18,090,43,85,57,203,49*60
###2023-11-09 13:08:44.438024$GLGSV,2,2,05,86,53,308,47,,,,,,,,,,,,*50
###2023-11-09 13:08:44.440590$GAGSV,1,1,04,07,72,258,45,08,48,043,44,13,64,160,45,26,57,310,45*60
###2023-11-09 13:08:44.443155$GBGSV,2,1,06,11,23,180,42,14,65,008,45,24,20,132,44,26,23,081,42*61
###2023-11-09 13:08:44.445084$GBGSV,2,2,06,28,43,287,47,33,59,304,47,,,,,,,,*66
###2023-11-09 13:08:44.446543$GNVTG,89.61,T,,M,5.46,N,10.12,K,A*20
###2023-11-09 13:08:44.529045$GNGGA,130844.70,3611.0194720,N,07545.0054218,W,1,24,0.6,0.726,M,-39.962,M,0.0,*6F
###2023-11-09 13:08:44.531656$GPGSV,2,1,07,05,20,090,42,10,19,293,43,13,24,045,41,15,61,037,45*75
###2023-11-09 13:08:44.533917$GPGSV,2,2,07,18,78,277,47,23,50,316,45,24,50,135,46,,,,*4E
###2023-11-09 13:08:44.536496$GLGSV,2,1,05,70,50,017,35,71,48,290,48,80,18,090,43,85,57,203,49*60
###2023-11-09 13:08:44.538117$GLGSV,2,2,05,86,53,308,47,,,,,,,,,,,,*50
###2023-11-09 13:08:44.540691$GAGSV,1,1,04,07,72,258,45,08,48,043,44,13,64,160,45,26,57,310,45*60
###2023-11-09 13:08:44.543263$GBGSV,2,1,06,11,23,180,42,14,65,008,45,24,20,132,44,26,23,081,42*61
###2023-11-09 13:08:44.545199$GBGSV,2,2,06,28,43,287,48,33,59,304,47,,,,,,,,*69
###2023-11-09 13:08:44.546632$GNVTG,88.19,T,,M,5.21,N,9.65,K,A*17
###2023-11-09 13:08:44.629984$GNGGA,130844.80,3611.0194796,N,07545.0052480,W,1,24,0.6,0.765,M,-39.962,M,0.0,*6B
###2023-11-09 13:08:44.632575$GPGSV,2,1,07,05,20,090,42,10,19,293,43,13,24,045,41,15,61,037,45*75
###2023-11-09 13:08:44.634839$GPGSV,2,2,07,18,78,277,47,23,50,316,45,24,50,135,46,,,,*4E
###2023-11-09 13:08:44.637443$GLGSV,2,1,05,70,50,017,35,71,48,290,48,80,18,090,43,85,57,203,49*60
###2023-11-09 13:08:44.639067$GLGSV,2,2,05,86,53,308,47,,,,,,,,,,,,*50
###2023-11-09 13:08:44.641652$GAGSV,1,1,04,07,72,258,45,08,48,043,44,13,64,160,45,26,57,310,45*60
###2023-11-09 13:08:44.644238$GBGSV,2,1,06,11,23,180,43,14,65,008,45,24,20,132,44,26,23,081,42*60
###2023-11-09 13:08:44.646170$GBGSV,2,2,06,28,43,287,48,33,59,304,47,,,,,,,,*69
###2023-11-09 13:08:44.647611$GNVTG,85.75,T,,M,5.00,N,9.25,K,A*17
###2023-11-09 13:08:44.729012$GNGGA,130844.90,3611.0194925,N,07545.0050817,W,1,24,0.6,0.817,M,-39.962,M,0.0,*66
###2023-11-09 13:08:44.731600$GPGSV,2,1,07,05,20,090,42,10,19,293,43,13,24,045,41,15,61,037,45*75
###2023-11-09 13:08:44.733851$GPGSV,2,2,07,18,78,277,46,23,50,316,44,24,50,135,46,,,,*4E
###2023-11-09 13:08:44.736407$GLGSV,2,1,05,70,50,017,35,71,48,290,48,80,18,090,42,85,57,203,49*61
###2023-11-09 13:08:44.738019$GLGSV,2,2,05,86,53,308,47,,,,,,,,,,,,*50
###2023-11-09 13:08:44.740592$GAGSV,1,1,04,07,72,258,45,08,48,043,44,13,64,160,45,26,57,310,45*60
###2023-11-09 13:08:44.743159$GBGSV,2,1,06,11,23,180,43,14,65,008,45,24,20,132,44,26,23,081,42*60
###2023-11-09 13:08:44.745087$GBGSV,2,2,06,28,43,287,48,33,59,304,47,,,,,,,,*69
###2023-11-09 13:08:44.746513$GNVTG,83.64,T,,M,4.82,N,8.93,K,A*16
###2023-11-09 13:08:44.831992$GNGGA,130845.00,3611.0195090,N,07545.0049197,W,1,24,0.6,0.875,M,-39.962,M,0.0,*65
###2023-11-09 13:08:44.834599$GPGSV,2,1,07,05,20,090,40,10,19,293,43,13,24,045,41,15,61,037,45*77
###2023-11-09 13:08:44.836858$GPGSV,2,2,07,18,78,277,46,23,50,316,45,24,50,135,46,,,,*4F
###2023-11-09 13:08:44.839449$GLGSV,2,1,05,70,50,017,35,71,48,290,48,80,18,090,42,85,57,203,49*61
###2023-11-09 13:08:44.841364$GLGSV,2,2,05,86,53,308,47,,,,,,,,,,,,*50
###2023-11-09 13:08:44.843947$GAGSV,1,1,04,07,72,258,45,08,48,043,44,13,64,160,45,26,57,310,45*60
###2023-11-09 13:08:44.846555$GBGSV,2,1,06,11,23,180,42,14,65,008,45,24,20,132,44,26,23,081,42*61
###2023-11-09 13:08:44.848520$GBGSV,2,2,06,28,43,287,48,33,59,304,48,,,,,,,,*66
###2023-11-09 13:08:44.849964$GNVTG,82.35,T,,M,4.76,N,8.82,K,A*18
###2023-11-09 13:08:44.931139$GNGGA,130845.10,3611.0195236,N,07545.0047581,W,1,24,0.6,0.924,M,-39.962,M,0.0,*62
###2023-11-09 13:08:44.933740$GPGSV,2,1,07,05,20,090,40,10,19,293,43,13,24,045,41,15,61,037,45*77
###2023-11-09 13:08:44.936001$GPGSV,2,2,07,18,78,277,46,23,50,316,45,24,50,135,46,,,,*4F
###2023-11-09 13:08:44.938716$GLGSV,2,1,05,70,50,017,35,71,48,290,48,80,18,090,42,85,57,203,48*60
###2023-11-09 13:08:44.940335$GLGSV,2,2,05,86,53,308,47,,,,,,,,,,,,*50
