###2023-11-09 13:06:53.543972$GAGSV,1,1,04,07,72,255,45,08,49,042,44,13,64,160,44,26,56,311,45*6C
###2023-11-09 13:06:53.546578$GBGSV,2,1,06,11,24,180,41,14,65,006,46,24,19,133,43,26,23,082,43*66
###2023-11-09 13:06:53.548562$GBGSV,2,2,06,28,43,289,47,33,58,302,47,,,,,,,,*6F
###2023-11-09 13:06:53.550011$GNVTG,15.58,T,,M,0.49,N,0.90,K,A*1E
###2023-11-09 13:06:53.632617$GNGGA,130653.80,3611.0470810,N,07544.9781683,W,1,24,0.6,1.053,M,-39.961,M,0.0,*6D
###2023-11-09 13:06:53.635205$GPGSV,2,1,07,05,21,090,42,10,18,292,44,13,24,045,43,15,62,037,46*71
###2023-11-09 13:06:53.637475$GPGSV,2,2,07,18,77,281,47,23,50,315,45,24,49,136,46,,,,*40
###2023-11-09 13:06:53.640063$GLGSV,2,1,05,70,50,016,35,71,48,288,47,80,17,091,44,85,58,203,48*60
###2023-11-09 13:06:53.641680$GLGSV,2,2,05,86,52,309,48,,,,,,,,,,,,*5F
###2023-11-09 13:06:53.644254$GAGSV,1,1,04,07,72,255,45,08,49,042,44,13,64,160,44,26,56,311,45*6C
###2023-11-09 13:06:53.646837$GBGSV,2,1,06,11,24,180,41,14,65,006,45,24,19,133,43,26,23,082,43*65
###2023-11-09 13:06:53.648788$GBGSV,2,2,06,28,43,289,47,33,58,302,47,,,,,,,,*6F
###2023-11-09 13:06:53.650218$GNVTG,15.58,T,,M,0.49,N,0.90,K,A*1E
###2023-11-09 13:06:53.730861$GNGGA,130653.90,3611.0470926,N,07544.9781563,W,1,24,0.6,1.051,M,-39.961,M,0.0,*67
###2023-11-09 13:06:53.733441$GPGSV,2,1,07,05,21,090,41,10,18,292,43,13,24,045,42,15,62,037,45*77
###2023-11-09 13:06:53.735685$GPGSV,2,2,07,18,77,281,47,23,50,315,45,24,49,136,46,,,,*40
###2023-11-09 13:06:53.738256$GLGSV,2,1,05,70,50,016,35,71,48,288,47,80,17,091,43,85,58,203,48*67
###2023-11-09 13:06:53.739860$GLGSV,2,2,05,86,52,309,47,,,,,,,,,,,,*50
###2023-11-09 13:06:53.742419$GAGSV,1,1,04,07,72,255,45,08,49,042,44,13,64,160,44,26,56,311,45*6C
###2023-11-09 13:06:53.744981$GBGSV,2,1,06,11,24,180,41,14,65,006,45,24,19,133,43,26,23,082,43*65
###2023-11-09 13:06:53.746897$GBGSV,2,2,06,28,43,289,47,33,58,302,47,,,,,,,,*6F
###2023-11-09 13:06:53.748331$GNVTG,15.58,T,,M,0.58,N,1.08,K,A*1E
###2023-11-09 13:06:53.836620$GNGGA,130654.00,3611.0471107,N,07544.9781424,W,1,24,0.6,1.046,M,-39.961,M,0.0,*67
###2023-11-09 13:06:53.839240$GPGSV,2,1,07,05,21,090,41,10,18,292,43,13,24,045,40,15,62,037,45*75
###2023-11-09 13:06:53.841491$GPGSV,2,2,07,18,77,281,47,23,50,315,45,24,49,136,46,,,,*40
###2023-11-09 13:06:53.844065$GLGSV,2,1,05,70,50,016,35,71,48,288,47,80,17,091,43,85,58,203,48*67
###2023-11-09 13:06:53.845669$GLGSV,2,2,05,86,52,309,47,,,,,,,,,,,,*50
###2023-11-09 13:06:53.848261$GAGSV,1,1,04,07,72,255,45,08,49,042,44,13,64,160,44,26,56,311,45*6C
###2023-11-09 13:06:53.850864$GBGSV,2,1,06,11,24,180,41,14,65,006,45,24,19,133,43,26,23,082,43*65
###2023-11-09 13:06:53.852818$GBGSV,2,2,06,28,43,289,47,33,58,302,47,,,,,,,,*6F
###2023-11-09 13:06:53.854253$GNVTG,15.58,T,,M,0.93,N,1.73,K,A*15
###2023-11-09 13:06:53.940505$GNGGA,130654.10,3611.0471395,N,07544.9781268,W,1,23,0.6,1.036,M,-39.961,M,0.0,*61
###2023-11-09 13:06:53.943104$GPGSV,2,1,07,05,21,090,41,10,18,292,43,13,24,045,40,15,62,037,45*75
###2023-11-09 13:06:53.945368$GPGSV,2,2,07,18,77,281,47,23,50,315,45,24,49,136,46,,,,*40
###2023-11-09 13:06:53.947973$GLGSV,1,1,04,71,48,288,48,80,17,091,43,85,58,203,48,86,52,309,47*69
###2023-11-09 13:06:53.950548$GAGSV,1,1,04,07,72,255,45,08,49,042,44,13,64,160,44,26,56,311,45*6C
###2023-11-09 13:06:53.953143$GBGSV,2,1,06,11,24,180,42,14,65,006,45,24,19,133,43,26,23,082,42*67
###2023-11-09 13:06:53.955089$GBGSV,2,2,06,28,43,289,47,33,58,302,47,,,,,,,,*6F
###2023-11-09 13:06:53.956529$GNVTG,21.59,T,,M,1.30,N,2.41,K,A*19
###2023-11-09 13:06:54.032734$GNGGA,130654.20,3611.0471748,N,07544.9781096,W,1,23,0.6,1.031,M,-39.961,M,0.0,*62
###2023-11-09 13:06:54.035305$GPGSV,2,1,07,05,21,090,41,10,18,292,43,13,24,045,40,15,62,037,45*75
###2023-11-09 13:06:54.037562$GPGSV,2,2,07,18,77,281,47,23,50,315,45,24,49,136,46,,,,*40
###2023-11-09 13:06:54.040129$GLGSV,1,1,04,71,48,288,48,80,17,091,43,85,58,203,48,86,52,309,47*69
###2023-11-09 13:06:54.042702$GAGSV,1,1,04,07,72,255,45,08,49,042,44,13,64,160,45,26,56,311,45*6D
###2023-11-09 13:06:54.045261$GBGSV,2,1,06,11,24,180,42,14,65,006,45,24,19,133,44,26,23,082,42*60
###2023-11-09 13:06:54.047200$GBGSV,2,2,06,28,43,289,47,33,58,302,47,,,,,,,,*6F
###2023-11-09 13:06:54.048624$GNVTG,21.12,T,,M,1.40,N,2.59,K,A*18
###2023-11-09 13:06:54.130788$GNGGA,130654.30,3611.0472107,N,07544.9780920,W,1,23,0.6,1.020,M,-39.961,M,0.0,*68
###2023-11-09 13:06:54.133401$GPGSV,2,1,07,05,21,090,41,10,18,292,43,13,24,045,42,15,62,037,45*77
###2023-11-09 13:06:54.135665$GPGSV,2,2,07,18,77,281,47,23,50,315,45,24,49,136,46,,,,*40
###2023-11-09 13:06:54.138274$GLGSV,1,1,04,71,48,288,48,80,17,091,43,85,58,203,48,86,52,309,47*69
###2023-11-09 13:06:54.140873$GAGSV,1,1,04,07,72,255,45,08,49,042,45,13,64,160,45,26,56,311,45*6C
###2023-11-09 13:06:54.143462$GBGSV,2,1,06,11,24,180,42,14,65,006,45,24,19,133,44,26,23,082,43*61
###2023-11-09 13:06:54.145416$GBGSV,2,2,06,28,43,289,47,33,58,302,47,,,,,,,,*6F
###2023-11-09 13:06:54.146855$GNVTG,22.98,T,,M,1.34,N,2.48,K,A*1A
###2023-11-09 13:06:54.232761$GNGGA,130654.40,3611.0472405,N,07544.9780753,W,1,23,0.6,1.001,M,-39.961,M,0.0,*61
###2023-11-09 13:06:54.235371$GPGSV,2,1,07,05,21,090,42,10,18,292,43,13,24,045,43,15,62,037,45*75
###2023-11-09 13:06:54.237659$GPGSV,2,2,07,18,77,281,47,23,50,315,45,24,49,136,46,,,,*40
###2023-11-09 13:06:54.240250$GLGSV,1,1,04,71,48,288,48,80,17,091,44,85,58,203,48,86,52,309,48*61
###2023-11-09 13:06:54.242845$GAGSV,1,1,04,07,72,255,45,08,49,042,44,13,64,160,44,26,56,311,45*6C
###2023-11-09 13:06:54.245437$GBGSV,2,1,06,11,24,180,41,14,65,006,45,24,19,133,43,26,23,082,43*65
###2023-11-09 13:06:54.247396$GBGSV,2,2,06,28,43,289,47,33,58,302,47,,,,,,,,*6F
###2023-11-09 13:06:54.248834$GNVTG,22.98,T,,M,0.97,N,1.80,K,A*15
###2023-11-09 13:06:54.331867$GNGGA,130654.50,3611.0472596,N,07544.9780611,W,1,24,0.6,0.990,M,-39.961,M,0.0,*6B
###2023-11-09 13:06:54.334445$GPGSV,2,1,07,05,21,090,42,10,18,292,43,13,24,045,43,15,62,037,46*76
###2023-11-09 13:06:54.336682$GPGSV,2,2,07,18,77,281,47,23,50,315,45,24,49,136,46,,,,*40
###2023-11-09 13:06:54.339268$GLGSV,2,1,05,70,50,016,36,71,48,288,48,80,17,091,44,85,58,203,48*6C
###2023-11-09 13:06:54.340868$GLGSV,2,2,05,86,52,309,48,,,,,,,,,,,,*5F
###2023-11-09 13:06:54.343434$GAGSV,1,1,04,07,72,255,45,08,49,042,45,13,64,160,44,26,56,311,45*6D
###2023-11-09 13:06:54.346007$GBGSV,2,1,06,11,24,180,41,14,65,006,45,24,19,133,43,26,23,082,44*62
###2023-11-09 13:06:54.347952$GBGSV,2,2,06,28,43,289,47,33,58,302,47,,,,,,,,*6F
###2023-11-09 13:06:54.349383$GNVTG,22.98,T,,M,0.60,N,1.12,K,A*16
###2023-11-09 13:06:54.431269$GNGGA,130654.60,3611.0472696,N,07544.9780494,W,1,24,0.6,0.978,M,-39.961,M,0.0,*62
###2023-11-09 13:06:54.433877$GPGSV,2,1,07,05,21,090,42,10,18,292,44,13,24,045,43,15,62,037,46*71
###2023-11-09 13:06:54.436139$GPGSV,2,2,07,18,77,281,47,23,50,315,45,24,49,136,46,,,,*40
###2023-11-09 13:06:54.438770$GLGSV,2,1,05,70,50,016,36,71,48,288,48,80,17,091,44,85,58,203,48*6C
###2023-11-09 13:06:54.440391$GLGSV,2,2,05,86,52,309,48,,,,,,,,,,,,*5F
###2023-11-09 13:06:54.442966$GAGSV,1,1,04,07,72,255,45,08,49,042,45,13,64,160,44,26,56,311,45*6D
###2023-11-09 13:06:54.445545$GBGSV,2,1,06,11,24,180,41,14,65,006,45,24,19,133,43,26,23,082,43*65
###2023-11-09 13:06:54.447493$GBGSV,2,2,06,28,43,289,47,33,58,302,47,,,,,,,,*6F
###2023-11-09 13:06:54.448926$GNVTG,22.98,T,,M,0.39,N,0.72,K,A*1D
###2023-11-09 13:06:54.532744$GNGGA,130654.70,3611.0472776,N,07544.9780378,W,1,24,0.6,0.975,M,-39.961,M,0.0,*64
###2023-11-09 13:06:54.535335$GPGSV,2,1,07,05,21,090,42,10,18,292,44,13,24,045,42,15,62,037,46*70
###2023-11-09 13:06:54.537604$GPGSV,2,2,07,18,77,281,47,23,50,315,45,24,49,136,46,,,,*40
###2023-11-09 13:06:54.540191$GLGSV,2,1,05,70,50,016,36,71,48,288,48,80,17,091,44,85,58,203,48*6C
###2023-11-09 13:06:54.541803$GLGSV,2,2,05,86,52,309,47,,,,,,,,,,,,*50
###2023-11-09 13:06:54.544367$GAGSV,1,1,04,07,72,255,45,08,49,042,45,13,64,160,44,26,56,311,45*6D
###2023-11-09 13:06:54.546968$GBGSV,2,1,06,11,24,180,43,14,65,006,45,24,19,133,43,26,23,082,42*66
###2023-11-09 13:06:54.548921$GBGSV,2,2,06,28,43,289,47,33,58,302,47,,,,,,,,*6F
###2023-11-09 13:06:54.550354$GNVTG,22.98,T,,M,0.49,N,0.90,K,A*16
###2023-11-09 13:06:54.631629$GNGGA,130654.80,3611.0472926,N,07544.9780241,W,1,24,0.6,0.976,M,-39.961,M,0.0,*68
###2023-11-09 13:06:54.634222$GPGSV,2,1,07,05,21,090,41,10,18,292,44,13,24,045,41,15,62,037,46*70
###2023-11-09 13:06:54.636469$GPGSV,2,2,07,18,77,281,47,23,50,315,45,24,49,136,46,,,,*40
###2023-11-09 13:06:54.639063$GLGSV,2,1,05,70,50,016,36,71,48,288,48,80,17,091,43,85,58,203,48*6B
###2023-11-09 13:06:54.640675$GLGSV,2,2,05,86,52,309,47,,,,,,,,,,,,*50
###2023-11-09 13:06:54.643236$GAGSV,1,1,04,07,72,255,45,08,49,042,45,13,64,160,44,26,56,311,45*6D
###2023-11-09 13:06:54.645816$GBGSV,2,1,06,11,24,180,43,14,65,006,45,24,19,133,44,26,23,082,42*61
###2023-11-09 13:06:54.647758$GBGSV,2,2,06,28,43,289,47,33,58,302,47,,,,,,,,*6F
###2023-11-09 13:06:54.649183$GNVTG,22.98,T,,M,0.84,N,1.55,K,A*1F
###2023-11-09 13:06:54.731762$GNGGA,130654.90,3611.0473177,N,07544.9780071,W,1,24,0.6,0.984,M,-39.961,M,0.0,*68
