###2023-11-09 13:05:52.937193$GPGSV,2,2,07,18,77,285,47,23,49,314,45,24,49,137,45,,,,*4F
###2023-11-09 13:05:52.939768$GLGSV,2,1,05,70,51,015,35,71,47,286,48,80,17,092,44,85,59,204,47*66
###2023-11-09 13:05:52.941377$GLGSV,2,2,05,86,52,311,47,,,,,,,,,,,,*59
###2023-11-09 13:05:52.943924$GAGSV,1,1,04,07,72,255,45,08,49,042,44,13,64,160,44,26,56,311,45*6C
###2023-11-09 13:05:52.946505$GBGSV,2,1,06,11,24,180,42,14,65,006,46,24,19,133,43,26,23,082,42*64
###2023-11-09 13:05:52.948461$GBGSV,2,2,06,28,43,289,47,33,58,302,47,,,,,,,,*6F
###2023-11-09 13:05:52.949899$GNVTG,56.26,T,,M,0.95,N,1.76,K,A*18
###2023-11-09 13:05:53.035014$GNGGA,130553.20,3611.0376219,N,07544.9856687,W,1,24,0.6,0.821,M,-39.962,M,0.0,*68
###2023-11-09 13:05:53.037648$GPGSV,2,1,07,05,21,089,42,10,17,292,43,13,25,045,42,15,62,036,46*70
###2023-11-09 13:05:53.039921$GPGSV,2,2,07,18,77,285,47,23,49,314,45,24,49,137,45,,,,*4F
###2023-11-09 13:05:53.042500$GLGSV,2,1,05,70,51,015,35,71,47,286,48,80,17,092,44,85,59,204,48*69
###2023-11-09 13:05:53.044113$GLGSV,2,2,05,86,52,311,47,,,,,,,,,,,,*59
###2023-11-09 13:05:53.046676$GAGSV,1,1,04,07,72,255,45,08,49,042,43,13,64,160,44,26,56,311,45*6B
###2023-11-09 13:05:53.049280$GBGSV,2,1,06,11,24,180,42,14,65,006,45,24,19,133,43,26,23,082,42*67
###2023-11-09 13:05:53.051220$GBGSV,2,2,06,28,43,289,47,33,58,302,47,,,,,,,,*6F
###2023-11-09 13:05:53.052643$GNVTG,46.06,T,,M,1.01,N,1.87,K,A*19
###2023-11-09 13:05:53.131332$GNGGA,130553.30,3611.0376427,N,07544.9856455,W,1,24,0.6,0.852,M,-39.962,M,0.0,*6B
###2023-11-09 13:05:53.133903$GPGSV,2,1,07,05,21,089,42,10,17,292,42,13,25,045,41,15,62,036,45*71
###2023-11-09 13:05:53.136138$GPGSV,2,2,07,18,77,285,47,23,49,314,45,24,49,137,45,,,,*4F
###2023-11-09 13:05:53.138707$GLGSV,2,1,05,70,51,015,35,71,47,286,48,80,17,092,43,85,59,204,48*6E
###2023-11-09 13:05:53.140306$GLGSV,2,2,05,86,52,311,47,,,,,,,,,,,,*59
###2023-11-09 13:05:53.142847$GAGSV,1,1,04,07,72,255,45,08,49,042,43,13,64,160,44,26,56,311,45*6B
###2023-11-09 13:05:53.145410$GBGSV,2,1,06,11,24,180,42,14,65,006,45,24,19,133,43,26,23,082,42*67
###2023-11-09 13:05:53.147339$GBGSV,2,2,06,28,43,289,47,33,58,302,48,,,,,,,,*60
###2023-11-09 13:05:53.148759$GNVTG,38.95,T,,M,1.07,N,1.98,K,A*12
###2023-11-09 13:05:53.231521$GNGGA,130553.40,3611.0376682,N,07544.9856224,W,1,24,0.6,0.880,M,-39.962,M,0.0,*6E
###2023-11-09 13:05:53.234120$GPGSV,2,1,07,05,21,089,42,10,17,292,42,13,25,045,41,15,62,036,45*71
###2023-11-09 13:05:53.236374$GPGSV,2,2,07,18,77,285,47,23,49,314,45,24,49,137,45,,,,*4F
###2023-11-09 13:05:53.238965$GLGSV,2,1,05,70,51,015,35,71,47,286,48,80,17,092,43,85,59,204,48*6E
###2023-11-09 13:05:53.240587$GLGSV,2,2,05,86,52,311,48,,,,,,,,,,,,*56
###2023-11-09 13:05:53.243159$GAGSV,1,1,04,07,72,255,45,08,49,042,43,13,64,160,44,26,56,311,45*6B
###2023-11-09 13:05:53.245743$GBGSV,2,1,06,11,24,180,42,14,65,006,45,24,19,133,42,26,23,082,42*66
###2023-11-09 13:05:53.247691$GBGSV,2,2,06,28,43,289,47,33,58,302,48,,,,,,,,*60
###2023-11-09 13:05:53.249128$GNVTG,34.83,T,,M,1.26,N,2.34,K,A*1F
###2023-11-09 13:05:53.333349$GNGGA,130553.50,3611.0376963,N,07544.9856019,W,1,24,0.6,0.907,M,-39.962,M,0.0,*6D
###2023-11-09 13:05:53.335930$GPGSV,2,1,07,05,21,089,42,10,17,292,42,13,25,045,41,15,62,036,45*71
###2023-11-09 13:05:53.338314$GPGSV,2,2,07,18,77,285,47,23,49,314,45,24,49,137,45,,,,*4F
###2023-11-09 13:05:53.340893$GLGSV,2,1,05,70,51,015,35,71,47,286,48,80,17,092,43,85,59,204,48*6E
###2023-11-09 13:05:53.342503$GLGSV,2,2,05,86,52,311,48,,,,,,,,,,,,*56
###2023-11-09 13:05:53.345070$GAGSV,1,1,04,07,72,255,45,08,49,042,43,13,64,160,44,26,56,311,45*6B
###2023-11-09 13:05:53.347649$GBGSV,2,1,06,11,24,180,42,14,65,006,45,24,19,133,42,26,23,082,42*66
###2023-11-09 13:05:53.349576$GBGSV,2,2,06,28,43,289,47,33,58,302,48,,,,,,,,*60
###2023-11-09 13:05:53.350996$GNVTG,27.79,T,,M,1.15,N,2.12,K,A*1C
###2023-11-09 13:05:53.431215$GNGGA,130553.60,3611.0377210,N,07544.9855875,W,1,24,0.6,0.937,M,-39.962,M,0.0,*62
###2023-11-09 13:05:53.433784$GPGSV,2,1,07,05,21,089,42,10,17,292,42,13,25,045,42,15,62,036,45*72
###2023-11-09 13:05:53.436030$GPGSV,2,2,07,18,77,285,47,23,49,314,45,24,49,137,45,,,,*4F
###2023-11-09 13:05:53.438632$GLGSV,2,1,05,70,51,015,35,71,47,286,48,80,17,092,43,85,59,204,48*6E
###2023-11-09 13:05:53.440229$GLGSV,2,2,05,86,52,311,48,,,,,,,,,,,,*56
###2023-11-09 13:05:53.442781$GAGSV,1,1,04,07,72,255,45,08,49,042,43,13,64,160,44,26,56,311,45*6B
###2023-11-09 13:05:53.445332$GBGSV,2,1,06,11,24,180,42,14,65,006,45,24,19,133,42,26,23,082,42*66
###2023-11-09 13:05:53.447263$GBGSV,2,2,06,28,43,289,47,33,58,302,48,,,,,,,,*60
###2023-11-09 13:05:53.448689$GNVTG,27.79,T,,M,0.89,N,1.66,K,A*18
###2023-11-09 13:05:53.530259$GNGGA,130553.70,3611.0377382,N,07544.9855818,W,1,24,0.6,0.972,M,-39.962,M,0.0,*63
###2023-11-09 13:05:53.532874$GPGSV,2,1,07,05,21,089,42,10,17,292,42,13,25,045,42,15,62,036,45*72
###2023-11-09 13:05:53.535137$GPGSV,2,2,07,18,77,285,47,23,49,314,46,24,49,137,45,,,,*4C
###2023-11-09 13:05:53.537747$GLGSV,2,1,05,70,51,015,35,71,47,286,48,80,17,092,43,85,59,204,48*6E
###2023-11-09 13:05:53.539368$GLGSV,2,2,05,86,52,311,48,,,,,,,,,,,,*56
###2023-11-09 13:05:53.541947$GAGSV,1,1,04,07,72,255,45,08,49,042,43,13,64,160,44,26,56,311,45*6B
###2023-11-09 13:05:53.544532$GBGSV,2,1,06,11,24,180,41,14,65,006,45,24,19,133,42,26,23,082,42*65
###2023-11-09 13:05:53.546466$GBGSV,2,2,06,28,43,289,47,33,58,302,48,,,,,,,,*60
###2023-11-09 13:05:53.547916$GNVTG,27.79,T,,M,0.47,N,0.86,K,A*15
###2023-11-09 13:05:53.631244$GNGGA,130553.80,3611.0377462,N,07544.9855861,W,1,24,0.6,1.012,M,-39.962,M,0.0,*65
###2023-11-09 13:05:53.633844$GPGSV,2,1,07,05,21,089,42,10,17,292,43,13,25,045,42,15,62,036,45*73
###2023-11-09 13:05:53.636109$GPGSV,2,2,07,18,77,285,47,23,49,314,46,24,49,137,45,,,,*4C
###2023-11-09 13:05:53.638716$GLGSV,2,1,05,70,51,015,36,71,47,286,48,80,17,092,43,85,59,204,48*6D
###2023-11-09 13:05:53.640327$GLGSV,2,2,05,86,52,311,48,,,,,,,,,,,,*56
###2023-11-09 13:05:53.642906$GAGSV,1,1,04,07,72,255,45,08,49,042,44,13,64,160,44,26,56,311,45*6C
###2023-11-09 13:05:53.645491$GBGSV,2,1,06,11,24,180,41,14,65,006,45,24,19,133,42,26,23,082,42*65
###2023-11-09 13:05:53.647443$GBGSV,2,2,06,28,43,289,47,33,58,302,47,,,,,,,,*6F
###2023-11-09 13:05:53.648873$GNVTG,27.79,T,,M,0.27,N,0.50,K,A*18
###2023-11-09 13:05:53.730238$GNGGA,130553.90,3611.0377498,N,07544.9855960,W,1,24,0.6,1.057,M,-39.962,M,0.0,*60
###2023-11-09 13:05:53.732820$GPGSV,2,1,07,05,21,089,42,10,17,292,43,13,25,045,42,15,62,036,45*73
###2023-11-09 13:05:53.735065$GPGSV,2,2,07,18,77,285,47,23,49,314,45,24,49,137,45,,,,*4F
###2023-11-09 13:05:53.737643$GLGSV,2,1,05,70,51,015,36,71,47,286,48,80,17,092,43,85,59,204,48*6D
###2023-11-09 13:05:53.739248$GLGSV,2,2,05,86,52,311,48,,,,,,,,,,,,*56
###2023-11-09 13:05:53.741811$GAGSV,1,1,04,07,72,255,45,08,49,042,43,13,64,160,44,26,56,311,45*6B
###2023-11-09 13:05:53.744384$GBGSV,2,1,06,11,24,180,41,14,65,006,45,24,19,133,42,26,23,082,42*65
###2023-11-09 13:05:53.746307$GBGSV,2,2,06,28,43,289,47,33,58,302,47,,,,,,,,*6F
###2023-11-09 13:05:53.747741$GNVTG,27.79,T,,M,0.33,N,0.61,K,A*1F
###2023-11-09 13:05:53.836384$GNGGA,130554.00,3611.0377557,N,07544.9856053,W,1,24,0.6,1.095,M,-39.962,M,0.0,*68
###2023-11-09 13:05:53.839002$GPGSV,2,1,07,05,21,089,42,10,17,292,43,13,25,045,42,15,62,036,45*73
###2023-11-09 13:05:53.841261$GPGSV,2,2,07,18,77,285,47,23,49,314,45,24,49,137,45,,,,*4F
###2023-11-09 13:05:53.843829$GLGSV,2,1,05,70,51,015,35,71,47,286,48,80,17,092,43,85,59,204,48*6E
###2023-11-09 13:05:53.845437$GLGSV,2,2,05,86,52,311,48,,,,,,,,,,,,*56
###2023-11-09 13:05:53.848015$GAGSV,1,1,04,07,72,255,45,08,49,042,43,13,64,160,44,26,56,311,45*6B
###2023-11-09 13:05:53.850601$GBGSV,2,1,06,11,24,180,41,14,65,006,45,24,19,133,42,26,23,082,42*65
###2023-11-09 13:05:53.852544$GBGSV,2,2,06,28,43,289,47,33,58,302,47,,,,,,,,*6F
###2023-11-09 13:05:53.853975$GNVTG,27.79,T,,M,0.37,N,0.68,K,A*12
###2023-11-09 13:05:53.939267$GNGGA,130554.10,3611.0377673,N,07544.9856143,W,1,24,0.6,1.123,M,-39.962,M,0.0,*60
###2023-11-09 13:05:53.941867$GPGSV,2,1,07,05,21,089,42,10,17,292,43,13,25,045,41,15,62,036,45*70
###2023-11-09 13:05:53.944125$GPGSV,2,2,07,18,77,285,47,23,49,314,45,24,49,137,45,,,,*4F
###2023-11-09 13:05:53.947020$GLGSV,2,1,05,70,51,015,35,71,47,286,48,80,17,092,43,85,59,204,48*6E
###2023-11-09 13:05:53.948646$GLGSV,2,2,05,86,52,311,48,,,,,,,,,,,,*56
###2023-11-09 13:05:53.951229$GAGSV,1,1,04,07,72,255,45,08,49,042,43,13,64,160,44,26,56,311,45*6B
###2023-11-09 13:05:53.953836$GBGSV,2,1,06,11,24,180,41,14,65,006,45,24,19,133,42,26,23,082,42*65
###2023-11-09 13:05:53.955778$GBGSV,2,2,06,28,43,289,47,33,58,302,47,,,,,,,,*6F
###2023-11-09 13:05:53.957238$GNVTG,27.79,T,,M,0.60,N,1.12,K,A*1C
###2023-11-09 13:05:54.032385$GNGGA,130554.20,3611.0377830,N,07544.9856252,W,1,24,0.6,1.149,M,-39.962,M,0.0,*65
###2023-11-09 13:05:54.034972$GPGSV,2,1,07,05,21,089,41,10,17,292,43,13,25,045,41,15,62,036,45*73
###2023-11-09 13:05:54.037253$GPGSV,2,2,07,18,77,285,47,23,49,314,45,24,49,137,45,,,,*4F
