###2023-11-09 13:10:35.348576$GBGSV,2,2,06,28,43,286,46,33,59,305,47,,,,,,,,*67
###2023-11-09 13:10:35.350068$GNVTG,306.14,T,,M,3.48,N,6.44,K,A*2A
###2023-11-09 13:10:35.431617$GNGGA,131035.60,3611.0639749,N,07544.8766460,W,1,24,0.6,0.325,M,-39.960,M,0.0,*6D
###2023-11-09 13:10:35.434227$GPGSV,2,1,07,05,20,091,43,10,19,294,42,13,23,045,43,15,60,038,46*7B
###2023-11-09 13:10:35.436485$GPGSV,2,2,07,18,78,272,46,23,51,317,45,24,51,133,46,,,,*4D
###2023-11-09 13:10:35.439085$GLGSV,2,1,05,70,49,019,35,71,48,291,48,80,19,089,45,85,56,202,49*68
###2023-11-09 13:10:35.440698$GLGSV,2,2,05,86,54,306,48,,,,,,,,,,,,*56
###2023-11-09 13:10:35.443270$GAGSV,1,1,04,07,73,259,45,08,48,043,45,13,63,161,45,26,57,310,45*67
###2023-11-09 13:10:35.445865$GBGSV,2,1,06,11,22,180,41,14,65,009,45,24,21,132,44,26,23,080,43*63
###2023-11-09 13:10:35.447834$GBGSV,2,2,06,28,43,286,47,33,59,305,47,,,,,,,,*66
###2023-11-09 13:10:35.449300$GNVTG,312.03,T,,M,3.58,N,6.62,K,A*2C
###2023-11-09 13:10:35.530611$GNGGA,131035.70,3611.0640493,N,07544.8767369,W,1,24,0.6,0.334,M,-39.960,M,0.0,*69
###2023-11-09 13:10:35.533219$GPGSV,2,1,07,05,20,091,44,10,19,294,42,13,23,045,43,15,60,038,46*7C
###2023-11-09 13:10:35.535489$GPGSV,2,2,07,18,78,272,46,23,51,317,45,24,51,133,45,,,,*4E
###2023-11-09 13:10:35.538104$GLGSV,2,1,05,70,49,019,35,71,48,291,48,80,19,089,45,85,56,202,49*68
###2023-11-09 13:10:35.539719$GLGSV,2,2,05,86,54,306,48,,,,,,,,,,,,*56
###2023-11-09 13:10:35.542302$GAGSV,1,1,04,07,73,259,45,08,48,043,45,13,63,161,45,26,57,310,45*67
###2023-11-09 13:10:35.544895$GBGSV,2,1,06,11,22,180,41,14,65,009,45,24,21,132,44,26,23,080,44*64
###2023-11-09 13:10:35.546839$GBGSV,2,2,06,28,43,286,47,33,59,305,47,,,,,,,,*66
###2023-11-09 13:10:35.548321$GNVTG,318.43,T,,M,3.85,N,7.13,K,A*25
###2023-11-09 13:10:35.632115$GNGGA,131035.80,3611.0641285,N,07544.8768271,W,1,24,0.6,0.347,M,-39.960,M,0.0,*65
###2023-11-09 13:10:35.634708$GPGSV,2,1,07,05,20,091,44,10,19,294,41,13,23,045,44,15,60,038,46*78
###2023-11-09 13:10:35.636983$GPGSV,2,2,07,18,78,272,46,23,51,317,45,24,51,133,46,,,,*4D
###2023-11-09 13:10:35.639561$GLGSV,2,1,05,70,49,019,36,71,48,291,48,80,19,089,46,85,56,202,48*69
###2023-11-09 13:10:35.641167$GLGSV,2,2,05,86,54,306,48,,,,,,,,,,,,*56
###2023-11-09 13:10:35.643741$GAGSV,1,1,04,07,73,259,45,08,48,043,45,13,63,161,45,26,57,310,45*67
###2023-11-09 13:10:35.646328$GBGSV,2,1,06,11,22,180,41,14,65,009,45,24,21,132,44,26,23,080,44*64
###2023-11-09 13:10:35.648278$GBGSV,2,2,06,28,43,286,47,33,59,305,47,,,,,,,,*66
###2023-11-09 13:10:35.649748$GNVTG,316.25,T,,M,3.79,N,7.02,K,A*28
###2023-11-09 13:10:35.731099$GNGGA,131035.90,3611.0642014,N,07544.8769240,W,1,24,0.6,0.357,M,-39.960,M,0.0,*6F
###2023-11-09 13:10:35.733682$GPGSV,2,1,07,05,20,091,45,10,19,294,40,13,23,045,44,15,60,038,46*78
###2023-11-09 13:10:35.735934$GPGSV,2,2,07,18,78,272,46,23,51,317,45,24,51,133,45,,,,*4E
###2023-11-09 13:10:35.738526$GLGSV,2,1,05,70,49,019,36,71,48,291,48,80,19,089,46,85,56,202,48*69
###2023-11-09 13:10:35.740131$GLGSV,2,2,05,86,54,306,48,,,,,,,,,,,,*56
###2023-11-09 13:10:35.742689$GAGSV,1,1,04,07,73,259,45,08,48,043,46,13,63,161,44,26,57,310,45*65
###2023-11-09 13:10:35.745258$GBGSV,2,1,06,11,22,180,39,14,65,009,45,24,21,132,44,26,23,080,45*6A
###2023-11-09 13:10:35.747201$GBGSV,2,2,06,28,43,286,46,33,59,305,47,,,,,,,,*67
###2023-11-09 13:10:35.748667$GNVTG,309.56,T,,M,3.81,N,7.06,K,A*21
###2023-11-09 13:10:35.833003$GNGGA,131036.00,3611.0642644,N,07544.8770314,W,1,24,0.6,0.364,M,-39.960,M,0.0,*6E
###2023-11-09 13:10:35.835618$GPGSV,2,1,07,05,20,091,44,10,19,294,40,13,23,045,44,15,60,038,46*79
###2023-11-09 13:10:35.837899$GPGSV,2,2,07,18,78,272,46,23,51,317,45,24,51,133,45,,,,*4E
###2023-11-09 13:10:35.840488$GLGSV,2,1,05,70,49,019,36,71,48,291,49,80,19,089,46,85,56,202,48*68
###2023-11-09 13:10:35.842105$GLGSV,2,2,05,86,54,306,48,,,,,,,,,,,,*56
###2023-11-09 13:10:35.844681$GAGSV,1,1,04,07,73,259,44,08,48,043,46,13,63,161,44,26,57,310,45*64
###2023-11-09 13:10:35.847283$GBGSV,2,1,06,11,22,180,39,14,65,009,45,24,21,132,44,26,23,080,46*69
###2023-11-09 13:10:35.849235$GBGSV,2,2,06,28,43,286,46,33,59,305,47,,,,,,,,*67
###2023-11-09 13:10:35.850706$GNVTG,302.25,T,,M,3.83,N,7.09,K,A*23
###2023-11-09 13:10:35.940990$GNGGA,131036.10,3611.0643211,N,07544.8771465,W,1,24,0.6,0.361,M,-39.960,M,0.0,*6F
###2023-11-09 13:10:35.943592$GPGSV,2,1,07,05,20,091,44,10,19,294,41,13,23,045,43,15,60,038,46*7F
###2023-11-09 13:10:35.945853$GPGSV,2,2,07,18,78,272,46,23,51,317,46,24,51,133,45,,,,*4D
###2023-11-09 13:10:35.948442$GLGSV,2,1,05,70,49,019,36,71,48,291,49,80,19,089,45,85,56,202,49*6A
###2023-11-09 13:10:35.950052$GLGSV,2,2,05,86,54,306,48,,,,,,,,,,,,*56
###2023-11-09 13:10:35.952620$GAGSV,1,1,04,07,73,259,44,08,48,043,45,13,63,161,45,26,57,310,45*66
###2023-11-09 13:10:35.955193$GBGSV,2,1,06,11,22,180,39,14,65,009,45,24,21,132,44,26,23,080,44*6B
###2023-11-09 13:10:35.957145$GBGSV,2,2,06,28,43,286,46,33,59,305,47,,,,,,,,*67
###2023-11-09 13:10:35.958613$GNVTG,300.24,T,,M,3.93,N,7.27,K,A*2D
###2023-11-09 13:10:36.033457$GNGGA,131036.20,3611.0643792,N,07544.8772614,W,1,24,0.6,0.343,M,-39.960,M,0.0,*65
###2023-11-09 13:10:36.036016$GPGSV,2,1,07,05,20,091,44,10,19,294,41,13,23,045,41,15,60,038,46*7D
###2023-11-09 13:10:36.038269$GPGSV,2,2,07,18,78,272,46,23,51,317,46,24,51,133,45,,,,*4D
###2023-11-09 13:10:36.040832$GLGSV,2,1,05,70,49,019,36,71,48,291,49,80,19,089,45,85,56,202,49*6A
###2023-11-09 13:10:36.042432$GLGSV,2,2,05,86,54,306,47,,,,,,,,,,,,*59
###2023-11-09 13:10:36.044994$GAGSV,1,1,04,07,73,259,45,08,48,043,44,13,63,161,45,26,57,310,45*66
###2023-11-09 13:10:36.047578$GBGSV,2,1,06,11,22,180,42,14,65,009,45,24,21,132,45,26,23,080,43*61
###2023-11-09 13:10:36.049499$GBGSV,2,2,06,28,43,286,47,33,59,305,48,,,,,,,,*69
###2023-11-09 13:10:36.050956$GNVTG,303.52,T,,M,3.89,N,7.20,K,A*23
###2023-11-09 13:10:36.132021$GNGGA,131036.30,3611.0644479,N,07544.8773724,W,1,24,0.6,0.333,M,-39.960,M,0.0,*61
###2023-11-09 13:10:36.134638$GPGSV,2,1,07,05,20,091,44,10,19,294,42,13,23,045,41,15,60,038,46*7E
###2023-11-09 13:10:36.136900$GPGSV,2,2,07,18,78,272,46,23,51,317,46,24,51,133,46,,,,*4E
###2023-11-09 13:10:36.139491$GLGSV,2,1,05,70,49,019,35,71,48,291,49,80,19,089,45,85,56,202,49*69
###2023-11-09 13:10:36.141110$GLGSV,2,2,05,86,54,306,48,,,,,,,,,,,,*56
###2023-11-09 13:10:36.143687$GAGSV,1,1,04,07,73,259,45,08,48,043,44,13,63,161,45,26,57,310,45*66
###2023-11-09 13:10:36.146270$GBGSV,2,1,06,11,22,180,43,14,65,009,44,24,21,132,45,26,23,080,43*61
###2023-11-09 13:10:36.148225$GBGSV,2,2,06,28,43,286,47,33,59,305,47,,,,,,,,*66
###2023-11-09 13:10:36.149698$GNVTG,311.05,T,,M,4.20,N,7.78,K,A*2B
###2023-11-09 13:10:36.231971$GNGGA,131036.40,3611.0645338,N,07544.8774787,W,1,24,0.6,0.348,M,-39.960,M,0.0,*67
###2023-11-09 13:10:36.234558$GPGSV,2,1,07,05,20,091,43,10,19,294,41,13,23,045,42,15,60,038,46*79
###2023-11-09 13:10:36.236807$GPGSV,2,2,07,18,78,272,46,23,51,317,46,24,51,133,46,,,,*4E
###2023-11-09 13:10:36.239401$GLGSV,2,1,05,70,49,019,35,71,48,291,49,80,19,089,45,85,56,202,49*69
###2023-11-09 13:10:36.241011$GLGSV,2,2,05,86,54,306,48,,,,,,,,,,,,*56
###2023-11-09 13:10:36.243589$GAGSV,1,1,04,07,73,259,45,08,48,043,44,13,63,161,45,26,57,310,45*66
###2023-11-09 13:10:36.246194$GBGSV,2,1,06,11,22,180,43,14,65,009,44,24,21,132,45,26,23,080,43*61
###2023-11-09 13:10:36.248156$GBGSV,2,2,06,28,43,286,47,33,59,305,47,,,,,,,,*66
###2023-11-09 13:10:36.249630$GNVTG,318.62,T,,M,4.51,N,8.35,K,A*23
###2023-11-09 13:10:36.331728$GNGGA,131036.50,3611.0646314,N,07544.8775822,W,1,24,0.6,0.372,M,-39.960,M,0.0,*63
###2023-11-09 13:10:36.334318$GPGSV,2,1,07,05,20,091,44,10,19,294,41,13,23,045,43,15,60,038,46*7F
###2023-11-09 13:10:36.336561$GPGSV,2,2,07,18,78,272,46,23,51,317,46,24,51,133,46,,,,*4E
###2023-11-09 13:10:36.339131$GLGSV,2,1,05,70,49,019,35,71,48,291,49,80,19,089,46,85,56,202,49*6A
###2023-11-09 13:10:36.340732$GLGSV,2,2,05,86,54,306,48,,,,,,,,,,,,*56
###2023-11-09 13:10:36.343301$GAGSV,1,1,04,07,73,259,45,08,48,043,45,13,63,161,45,26,57,310,45*67
###2023-11-09 13:10:36.345887$GBGSV,2,1,06,11,22,180,41,14,65,009,44,24,21,132,44,26,23,080,45*64
###2023-11-09 13:10:36.348125$GBGSV,2,2,06,28,43,286,47,33,59,305,47,,,,,,,,*66
###2023-11-09 13:10:36.349597$GNVTG,320.14,T,,M,4.68,N,8.68,K,A*2B
###2023-11-09 13:10:36.430649$GNGGA,131036.60,3611.0647244,N,07544.8776931,W,1,24,0.6,0.377,M,-39.960,M,0.0,*60
###2023-11-09 13:10:36.433274$GPGSV,2,1,07,05,20,091,44,10,19,294,40,13,23,045,44,15,60,038,46*79
###2023-11-09 13:10:36.435549$GPGSV,2,2,07,18,78,272,46,23,51,317,46,24,51,133,45,,,,*4D
###2023-11-09 13:10:36.438169$GLGSV,2,1,05,70,49,019,36,71,48,291,49,80,19,089,46,85,56,202,48*68
###2023-11-09 13:10:36.439791$GLGSV,2,2,05,86,54,306,48,,,,,,,,,,,,*56
###2023-11-09 13:10:36.442374$GAGSV,1,1,04,07,73,259,45,08,48,043,45,13,63,161,45,26,57,310,45*67
###2023-11-09 13:10:36.444962$GBGSV,2,1,06,11,22,180,39,14,65,009,45,24,21,132,44,26,23,080,45*6A
###2023-11-09 13:10:36.446922$GBGSV,2,2,06,28,43,286,47,33,59,305,47,,,,,,,,*66
