###2023-11-09 13:10:42.040080$GLGSV,2,2,05,86,54,306,48,,,,,,,,,,,,*56
###2023-11-09 13:10:42.042655$GAGSV,1,1,04,07,73,259,45,08,48,043,45,13,63,161,46,26,57,310,45*64
###2023-11-09 13:10:42.045235$GBGSV,2,1,06,11,22,180,42,14,65,009,45,24,21,132,45,26,23,080,44*66
###2023-11-09 13:10:42.047208$GBGSV,2,2,06,28,43,286,47,33,59,305,47,,,,,,,,*66
###2023-11-09 13:10:42.048708$GNVTG,291.29,T,,M,5.75,N,10.66,K,A*14
###2023-11-09 13:10:42.128621$GNGGA,131042.30,3611.0681553,N,07544.8860747,W,1,24,0.6,0.722,M,-39.960,M,0.0,*6E
###2023-11-09 13:10:42.131223$GPGSV,2,1,07,05,20,091,42,10,19,294,42,13,23,045,43,15,60,038,46*7A
###2023-11-09 13:10:42.133475$GPGSV,2,2,07,18,78,272,46,23,51,317,46,24,51,133,46,,,,*4E
###2023-11-09 13:10:42.136043$GLGSV,2,1,05,70,49,019,36,71,48,291,48,80,19,089,45,85,56,202,49*6B
###2023-11-09 13:10:42.137684$GLGSV,2,2,05,86,54,306,48,,,,,,,,,,,,*56
###2023-11-09 13:10:42.140258$GAGSV,1,1,04,07,73,259,45,08,48,043,45,13,63,161,46,26,57,310,45*64
###2023-11-09 13:10:42.142832$GBGSV,2,1,06,11,22,180,42,14,65,009,45,24,21,132,45,26,23,080,44*66
###2023-11-09 13:10:42.144769$GBGSV,2,2,06,28,43,286,46,33,59,305,47,,,,,,,,*67
###2023-11-09 13:10:42.146280$GNVTG,293.19,T,,M,5.58,N,10.33,K,A*1A
###2023-11-09 13:10:42.229863$GNGGA,131042.40,3611.0682190,N,07544.8862500,W,1,24,0.6,0.726,M,-39.960,M,0.0,*66
###2023-11-09 13:10:42.232451$GPGSV,2,1,07,05,20,091,43,10,19,294,42,13,23,045,43,15,60,038,46*7B
###2023-11-09 13:10:42.234704$GPGSV,2,2,07,18,78,272,46,23,51,317,46,24,51,133,46,,,,*4E
###2023-11-09 13:10:42.237299$GLGSV,2,1,05,70,49,019,36,71,48,291,48,80,19,089,45,85,56,202,48*6A
###2023-11-09 13:10:42.238906$GLGSV,2,2,05,86,54,306,48,,,,,,,,,,,,*56
###2023-11-09 13:10:42.241482$GAGSV,1,1,04,07,73,259,45,08,48,043,45,13,63,161,46,26,57,310,45*64
###2023-11-09 13:10:42.244068$GBGSV,2,1,06,11,22,180,42,14,65,009,45,24,21,132,45,26,23,080,44*66
###2023-11-09 13:10:42.245996$GBGSV,2,2,06,28,43,286,46,33,59,305,47,,,,,,,,*67
###2023-11-09 13:10:42.247511$GNVTG,294.97,T,,M,5.66,N,10.48,K,A*1A
###2023-11-09 13:10:42.328500$GNGGA,131042.50,3611.0682848,N,07544.8864246,W,1,24,0.6,0.719,M,-39.960,M,0.0,*64
###2023-11-09 13:10:42.331079$GPGSV,2,1,07,05,20,091,43,10,19,294,42,13,23,045,43,15,60,038,46*7B
###2023-11-09 13:10:42.333327$GPGSV,2,2,07,18,78,272,46,23,51,317,46,24,51,133,45,,,,*4D
###2023-11-09 13:10:42.335896$GLGSV,2,1,05,70,49,019,36,71,48,291,48,80,19,089,45,85,56,202,48*6A
###2023-11-09 13:10:42.337513$GLGSV,2,2,05,86,54,306,48,,,,,,,,,,,,*56
###2023-11-09 13:10:42.340067$GAGSV,1,1,04,07,73,259,45,08,48,043,45,13,63,161,45,26,57,310,45*67
###2023-11-09 13:10:42.342648$GBGSV,2,1,06,11,22,180,41,14,65,009,45,24,21,132,44,26,23,080,45*65
###2023-11-09 13:10:42.344572$GBGSV,2,2,06,28,43,286,46,33,59,305,47,,,,,,,,*67
###2023-11-09 13:10:42.346069$GNVTG,294.81,T,,M,5.56,N,10.30,K,A*11
###2023-11-09 13:10:42.429302$GNGGA,131042.60,3611.0683454,N,07544.8865936,W,1,24,0.6,0.714,M,-39.960,M,0.0,*67
###2023-11-09 13:10:42.431908$GPGSV,2,1,07,05,20,091,43,10,19,294,42,13,23,045,44,15,60,038,47*7D
###2023-11-09 13:10:42.434171$GPGSV,2,2,07,18,78,272,46,23,51,317,46,24,51,133,45,,,,*4D
###2023-11-09 13:10:42.436747$GLGSV,2,1,05,70,49,019,36,71,48,291,48,80,19,089,45,85,56,202,48*6A
###2023-11-09 13:10:42.438377$GLGSV,2,2,05,86,54,306,48,,,,,,,,,,,,*56
###2023-11-09 13:10:42.440969$GAGSV,1,1,04,07,73,259,45,08,48,043,45,13,63,161,45,26,57,310,45*67
###2023-11-09 13:10:42.443573$GBGSV,2,1,06,11,22,180,41,14,65,009,45,24,21,132,44,26,23,080,45*65
###2023-11-09 13:10:42.445516$GBGSV,2,2,06,28,43,286,46,33,59,305,47,,,,,,,,*67
###2023-11-09 13:10:42.447028$GNVTG,292.64,T,,M,5.23,N,9.68,K,A*2B
###2023-11-09 13:10:42.528128$GNGGA,131042.70,3611.0684006,N,07544.8867592,W,1,24,0.6,0.705,M,-39.960,M,0.0,*62
###2023-11-09 13:10:42.530732$GPGSV,2,1,07,05,20,091,44,10,19,294,41,13,23,045,44,15,60,038,47*79
###2023-11-09 13:10:42.532992$GPGSV,2,2,07,18,78,272,46,23,51,317,46,24,51,133,45,,,,*4D
###2023-11-09 13:10:42.535575$GLGSV,2,1,05,70,49,019,36,71,48,291,48,80,19,089,46,85,56,202,48*69
###2023-11-09 13:10:42.537206$GLGSV,2,2,05,86,54,306,48,,,,,,,,,,,,*56
###2023-11-09 13:10:42.539784$GAGSV,1,1,04,07,73,259,45,08,48,043,45,13,63,161,45,26,57,310,45*67
###2023-11-09 13:10:42.542361$GBGSV,2,1,06,11,22,180,41,14,65,009,45,24,21,132,44,26,23,080,45*65
###2023-11-09 13:10:42.544309$GBGSV,2,2,06,28,43,286,46,33,59,305,48,,,,,,,,*68
###2023-11-09 13:10:42.545776$GNVTG,291.95,T,,M,5.21,N,9.65,K,A*29
###2023-11-09 13:10:42.629003$GNGGA,131042.80,3611.0684551,N,07544.8869240,W,1,24,0.6,0.695,M,-39.960,M,0.0,*64
###2023-11-09 13:10:42.631575$GPGSV,2,1,07,05,20,091,44,10,19,294,41,13,23,045,44,15,60,038,46*78
###2023-11-09 13:10:42.633819$GPGSV,2,2,07,18,78,272,46,23,51,317,46,24,51,133,45,,,,*4D
###2023-11-09 13:10:42.636391$GLGSV,2,1,05,70,49,019,36,71,48,291,48,80,19,089,46,85,56,202,48*69
###2023-11-09 13:10:42.638010$GLGSV,2,2,05,86,54,306,48,,,,,,,,,,,,*56
###2023-11-09 13:10:42.640579$GAGSV,1,1,04,07,73,259,44,08,48,043,45,13,63,161,45,26,57,310,45*66
###2023-11-09 13:10:42.643156$GBGSV,2,1,06,11,22,180,39,14,65,009,45,24,21,132,43,26,23,080,45*6D
###2023-11-09 13:10:42.645084$GBGSV,2,2,06,28,43,286,46,33,59,305,48,,,,,,,,*68
###2023-11-09 13:10:42.646544$GNVTG,292.32,T,,M,5.17,N,9.58,K,A*2C
###2023-11-09 13:10:42.728513$GNGGA,131042.90,3611.0685120,N,07544.8870825,W,1,24,0.6,0.695,M,-39.960,M,0.0,*67
###2023-11-09 13:10:42.731113$GPGSV,2,1,07,05,20,091,44,10,19,294,41,13,23,045,44,15,60,038,46*78
###2023-11-09 13:10:42.733375$GPGSV,2,2,07,18,78,272,46,23,51,317,46,24,51,133,45,,,,*4D
###2023-11-09 13:10:42.735946$GLGSV,2,1,05,70,49,019,36,71,48,291,48,80,19,089,46,85,56,202,48*69
###2023-11-09 13:10:42.737564$GLGSV,2,2,05,86,54,306,48,,,,,,,,,,,,*56
###2023-11-09 13:10:42.740145$GAGSV,1,1,04,07,73,259,44,08,48,043,45,13,63,161,45,26,57,310,45*66
###2023-11-09 13:10:42.742727$GBGSV,2,1,06,11,22,180,40,14,65,009,45,24,21,132,43,26,23,080,45*63
###2023-11-09 13:10:42.744669$GBGSV,2,2,06,28,43,286,47,33,59,305,48,,,,,,,,*69
###2023-11-09 13:10:42.746136$GNVTG,295.38,T,,M,4.96,N,9.18,K,A*2D
###2023-11-09 13:10:42.833498$GNGGA,131043.00,3611.0685712,N,07544.8872367,W,1,24,0.6,0.691,M,-39.960,M,0.0,*63
###2023-11-09 13:10:42.836083$GPGSV,2,1,07,05,20,091,44,10,19,294,41,13,23,045,44,15,60,038,46*78
###2023-11-09 13:10:42.838367$GPGSV,2,2,07,18,78,272,46,23,51,317,45,24,51,133,46,,,,*4D
###2023-11-09 13:10:42.840947$GLGSV,2,1,05,70,49,019,36,71,48,291,48,80,19,089,46,85,56,202,48*69
###2023-11-09 13:10:42.842553$GLGSV,2,2,05,86,54,306,47,,,,,,,,,,,,*59
###2023-11-09 13:10:42.845120$GAGSV,1,1,04,07,73,259,44,08,48,043,45,13,63,161,45,26,57,310,45*66
###2023-11-09 13:10:42.847711$GBGSV,2,1,06,11,22,180,41,14,65,009,45,24,21,132,43,26,23,080,45*62
###2023-11-09 13:10:42.849655$GBGSV,2,2,06,28,43,286,47,33,59,305,47,,,,,,,,*66
###2023-11-09 13:10:42.851113$GNVTG,295.32,T,,M,4.96,N,9.18,K,A*27
###2023-11-09 13:10:42.929732$GNGGA,131043.10,3611.0686316,N,07544.8873876,W,1,24,0.6,0.692,M,-39.960,M,0.0,*68
###2023-11-09 13:10:42.932311$GPGSV,2,1,07,05,20,091,44,10,19,294,41,13,23,045,43,15,60,038,46*7F
###2023-11-09 13:10:42.934559$GPGSV,2,2,07,18,78,272,46,23,51,317,45,24,51,133,45,,,,*4E
###2023-11-09 13:10:42.937136$GLGSV,2,1,05,70,49,019,36,71,48,291,48,80,19,089,45,85,56,202,49*6B
###2023-11-09 13:10:42.938737$GLGSV,2,2,05,86,54,306,48,,,,,,,,,,,,*56
###2023-11-09 13:10:42.941301$GAGSV,1,1,04,07,73,259,44,08,48,043,45,13,63,161,46,26,57,310,45*65
###2023-11-09 13:10:42.943881$GBGSV,2,1,06,11,22,180,42,14,65,009,45,24,21,132,43,26,23,080,44*60
###2023-11-09 13:10:42.945810$GBGSV,2,2,06,28,43,286,46,33,59,305,47,,,,,,,,*67
###2023-11-09 13:10:42.947307$GNVTG,297.18,T,,M,4.86,N,9.00,K,A*25
###2023-11-09 13:10:43.030617$GNGGA,131043.20,3611.0686990,N,07544.8875310,W,1,24,0.6,0.690,M,-39.960,M,0.0,*60
###2023-11-09 13:10:43.033213$GPGSV,2,1,07,05,20,091,44,10,19,294,41,13,23,045,43,15,60,038,46*7F
###2023-11-09 13:10:43.035457$GPGSV,2,2,07,18,78,272,46,23,51,317,45,24,51,133,45,,,,*4E
###2023-11-09 13:10:43.038047$GLGSV,2,1,05,70,49,019,36,71,48,291,48,80,19,089,45,85,56,202,49*6B
###2023-11-09 13:10:43.039962$GLGSV,2,2,05,86,54,306,47,,,,,,,,,,,,*59
###2023-11-09 13:10:43.042542$GAGSV,1,1,04,07,73,259,44,08,48,043,45,13,63,161,46,26,57,310,45*65
###2023-11-09 13:10:43.045131$GBGSV,2,1,06,11,22,180,42,14,65,009,45,24,21,132,43,26,23,080,44*60
###2023-11-09 13:10:43.047088$GBGSV,2,2,06,28,43,286,46,33,59,305,47,,,,,,,,*67
###2023-11-09 13:10:43.048557$GNVTG,302.80,T,,M,4.82,N,8.93,K,A*26
###2023-11-09 13:10:43.130115$GNGGA,131043.30,3611.0687736,N,07544.8876665,W,1,24,0.6,0.678,M,-39.960,M,0.0,*60
###2023-11-09 13:10:43.132706$GPGSV,2,1,07,05,20,091,44,10,19,294,41,13,23,045,43,15,60,038,46*7F
###2023-11-09 13:10:43.134952$GPGSV,2,2,07,18,78,272,46,23,51,317,45,24,51,133,45,,,,*4E
###2023-11-09 13:10:43.137539$GLGSV,2,1,05,70,49,019,36,71,48,291,48,80,19,089,45,85,56,202,49*6B
###2023-11-09 13:10:43.139151$GLGSV,2,2,05,86,54,306,47,,,,,,,,,,,,*59
