###2023-11-09 13:08:18.250957$GNVTG,257.04,T,,M,4.65,N,8.60,K,A*2E
###2023-11-09 13:08:18.329609$GNGGA,130818.50,3611.0383102,N,07545.0082615,W,1,24,0.6,0.911,M,-39.962,M,0.0,*6E
###2023-11-09 13:08:18.332182$GPGSV,2,1,07,05,20,090,44,10,18,292,44,13,24,045,43,15,62,037,46*76
###2023-11-09 13:08:18.334428$GPGSV,2,2,07,18,77,281,46,23,50,315,45,24,49,136,45,,,,*42
###2023-11-09 13:08:18.337005$GLGSV,2,1,05,70,50,017,36,71,48,290,49,80,18,090,45,85,57,203,47*6A
###2023-11-09 13:08:18.338608$GLGSV,2,2,05,86,53,308,48,,,,,,,,,,,,*5F
###2023-11-09 13:08:18.341169$GAGSV,1,1,04,07,72,258,45,08,49,042,45,13,64,160,45,26,56,310,44*61
###2023-11-09 13:08:18.343747$GBGSV,2,1,06,11,23,180,41,14,65,008,46,24,20,132,43,26,23,081,44*60
###2023-11-09 13:08:18.345682$GBGSV,2,2,06,28,43,287,46,33,59,304,47,,,,,,,,*67
###2023-11-09 13:08:18.347156$GNVTG,255.41,T,,M,4.74,N,8.78,K,A*24
###2023-11-09 13:08:18.429664$GNGGA,130818.60,3611.0382754,N,07545.0084213,W,1,24,0.6,0.938,M,-39.962,M,0.0,*66
###2023-11-09 13:08:18.432272$GPGSV,2,1,07,05,20,090,43,10,18,292,44,13,24,045,43,15,62,037,46*71
###2023-11-09 13:08:18.434542$GPGSV,2,2,07,18,77,281,46,23,50,315,45,24,49,136,45,,,,*42
###2023-11-09 13:08:18.437143$GLGSV,2,1,05,70,50,017,36,71,48,290,49,80,18,090,44,85,57,203,47*6B
###2023-11-09 13:08:18.438773$GLGSV,2,2,05,86,53,308,48,,,,,,,,,,,,*5F
###2023-11-09 13:08:18.441349$GAGSV,1,1,04,07,72,258,45,08,49,042,45,13,64,160,45,26,56,310,44*61
###2023-11-09 13:08:18.443927$GBGSV,2,1,06,11,23,180,40,14,65,008,46,24,20,132,43,26,23,081,44*61
###2023-11-09 13:08:18.445864$GBGSV,2,2,06,28,43,287,47,33,59,304,47,,,,,,,,*66
###2023-11-09 13:08:18.447352$GNVTG,254.52,T,,M,4.88,N,9.04,K,A*2E
###2023-11-09 13:08:18.530498$GNGGA,130818.70,3611.0382388,N,07545.0085838,W,1,24,0.6,0.954,M,-39.962,M,0.0,*6A
###2023-11-09 13:08:18.533095$GPGSV,2,1,07,05,20,090,42,10,18,292,44,13,24,045,43,15,62,037,46*70
###2023-11-09 13:08:18.535352$GPGSV,2,2,07,18,77,281,46,23,50,315,45,24,49,136,45,,,,*42
###2023-11-09 13:08:18.537956$GLGSV,2,1,05,70,50,017,36,71,48,290,49,80,18,090,44,85,57,203,47*6B
###2023-11-09 13:08:18.539574$GLGSV,2,2,05,86,53,308,47,,,,,,,,,,,,*50
###2023-11-09 13:08:18.542145$GAGSV,1,1,04,07,72,258,45,08,49,042,45,13,64,160,45,26,56,310,44*61
###2023-11-09 13:08:18.544726$GBGSV,2,1,06,11,23,180,40,14,65,008,46,24,20,132,43,26,23,081,44*61
###2023-11-09 13:08:18.546671$GBGSV,2,2,06,28,43,287,47,33,59,304,47,,,,,,,,*66
###2023-11-09 13:08:18.548157$GNVTG,254.39,T,,M,4.94,N,9.14,K,A*2F
###2023-11-09 13:08:18.629609$GNGGA,130818.80,3611.0382019,N,07545.0087486,W,1,24,0.6,0.956,M,-39.962,M,0.0,*67
###2023-11-09 13:08:18.632197$GPGSV,2,1,07,05,20,090,42,10,18,292,44,13,24,045,43,15,62,037,46*70
###2023-11-09 13:08:18.634451$GPGSV,2,2,07,18,77,281,46,23,50,315,45,24,49,136,45,,,,*42
###2023-11-09 13:08:18.637031$GLGSV,2,1,05,70,50,017,36,71,48,290,49,80,18,090,44,85,57,203,47*6B
###2023-11-09 13:08:18.638644$GLGSV,2,2,05,86,53,308,47,,,,,,,,,,,,*50
###2023-11-09 13:08:18.641201$GAGSV,1,1,04,07,72,258,45,08,49,042,45,13,64,160,45,26,56,310,44*61
###2023-11-09 13:08:18.643774$GBGSV,2,1,06,11,23,180,40,14,65,008,46,24,20,132,43,26,23,081,44*61
###2023-11-09 13:08:18.645700$GBGSV,2,2,06,28,43,287,47,33,59,304,47,,,,,,,,*66
###2023-11-09 13:08:18.647169$GNVTG,254.56,T,,M,4.98,N,9.22,K,A*2F
###2023-11-09 13:08:18.728519$GNGGA,130818.90,3611.0381618,N,07545.0089135,W,1,24,0.6,0.966,M,-39.962,M,0.0,*62
###2023-11-09 13:08:18.731120$GPGSV,2,1,07,05,20,090,42,10,18,292,44,13,24,045,43,15,62,037,46*70
###2023-11-09 13:08:18.733388$GPGSV,2,2,07,18,77,281,46,23,50,315,45,24,49,136,45,,,,*42
###2023-11-09 13:08:18.735965$GLGSV,2,1,05,70,50,017,36,71,48,290,49,80,18,090,44,85,57,203,47*6B
###2023-11-09 13:08:18.737594$GLGSV,2,2,05,86,53,308,47,,,,,,,,,,,,*50
###2023-11-09 13:08:18.740170$GAGSV,1,1,04,07,72,258,45,08,49,042,45,13,64,160,45,26,56,310,45*60
###2023-11-09 13:08:18.742761$GBGSV,2,1,06,11,23,180,40,14,65,008,46,24,20,132,43,26,23,081,44*61
###2023-11-09 13:08:18.744705$GBGSV,2,2,06,28,43,287,47,33,59,304,47,,,,,,,,*66
###2023-11-09 13:08:18.746173$GNVTG,252.19,T,,M,5.03,N,9.32,K,A*20
###2023-11-09 13:08:18.832876$GNGGA,130819.00,3611.0381183,N,07545.0090811,W,1,24,0.6,0.979,M,-39.962,M,0.0,*66
###2023-11-09 13:08:18.835475$GPGSV,2,1,07,05,20,090,43,10,18,292,43,13,24,045,43,15,62,037,46*76
###2023-11-09 13:08:18.837758$GPGSV,2,2,07,18,77,281,46,23,50,315,45,24,49,136,45,,,,*42
###2023-11-09 13:08:18.840351$GLGSV,2,1,05,70,50,017,36,71,48,290,49,80,18,090,44,85,57,203,47*6B
###2023-11-09 13:08:18.841967$GLGSV,2,2,05,86,53,308,47,,,,,,,,,,,,*50
###2023-11-09 13:08:18.844547$GAGSV,1,1,04,07,72,258,45,08,49,042,45,13,64,160,45,26,56,310,45*60
###2023-11-09 13:08:18.847160$GBGSV,2,1,06,11,23,180,40,14,65,008,46,24,20,132,43,26,23,081,44*61
###2023-11-09 13:08:18.849116$GBGSV,2,2,06,28,43,287,47,33,59,304,47,,,,,,,,*66
###2023-11-09 13:08:18.850586$GNVTG,252.39,T,,M,5.19,N,9.61,K,A*2F
###2023-11-09 13:08:18.930744$GNGGA,130819.10,3611.0380761,N,07545.0092540,W,1,24,0.6,0.989,M,-39.962,M,0.0,*68
###2023-11-09 13:08:18.933328$GPGSV,2,1,07,05,20,090,44,10,18,292,43,13,24,045,43,15,62,037,46*71
###2023-11-09 13:08:18.935568$GPGSV,2,2,07,18,77,281,46,23,50,315,44,24,49,136,45,,,,*43
###2023-11-09 13:08:18.938287$GLGSV,2,1,05,70,50,017,36,71,48,290,49,80,18,090,45,85,57,203,47*6A
###2023-11-09 13:08:18.939912$GLGSV,2,2,05,86,53,308,47,,,,,,,,,,,,*50
###2023-11-09 13:08:18.942478$GAGSV,1,1,04,07,72,258,45,08,49,042,45,13,64,160,45,26,56,310,45*60
###2023-11-09 13:08:18.945052$GBGSV,2,1,06,11,23,180,41,14,65,008,46,24,20,132,44,26,23,081,44*67
###2023-11-09 13:08:18.947003$GBGSV,2,2,06,28,43,287,47,33,59,304,47,,,,,,,,*66
###2023-11-09 13:08:18.948467$GNVTG,253.99,T,,M,5.29,N,9.79,K,A*2E
###2023-11-09 13:08:19.032866$GNGGA,130819.20,3611.0380355,N,07545.0094307,W,1,24,0.6,1.004,M,-39.962,M,0.0,*66
###2023-11-09 13:08:19.035469$GPGSV,2,1,07,05,20,090,44,10,18,292,43,13,24,045,43,15,62,037,46*71
###2023-11-09 13:08:19.037757$GPGSV,2,2,07,18,77,281,46,23,50,315,45,24,49,136,45,,,,*42
###2023-11-09 13:08:19.040348$GLGSV,2,1,05,70,50,017,36,71,48,290,49,80,18,090,45,85,57,203,47*6A
###2023-11-09 13:08:19.041966$GLGSV,2,2,05,86,53,308,47,,,,,,,,,,,,*50
###2023-11-09 13:08:19.044541$GAGSV,1,1,04,07,72,258,45,08,49,042,45,13,64,160,45,26,56,310,44*61
###2023-11-09 13:08:19.047139$GBGSV,2,1,06,11,23,180,41,14,65,008,46,24,20,132,44,26,23,081,44*67
###2023-11-09 13:08:19.049079$GBGSV,2,2,06,28,43,287,47,33,59,304,47,,,,,,,,*66
###2023-11-09 13:08:19.050548$GNVTG,254.41,T,,M,5.38,N,9.97,K,A*2C
###2023-11-09 13:08:19.130491$GNGGA,130819.30,3611.0379924,N,07545.0096091,W,1,24,0.6,1.009,M,-39.962,M,0.0,*6E
###2023-11-09 13:08:19.133077$GPGSV,2,1,07,05,20,090,44,10,18,292,43,13,24,045,43,15,62,037,46*71
###2023-11-09 13:08:19.135326$GPGSV,2,2,07,18,77,281,46,23,50,315,45,24,49,136,45,,,,*42
###2023-11-09 13:08:19.137925$GLGSV,2,1,05,70,50,017,36,71,48,290,49,80,18,090,45,85,57,203,47*6A
###2023-11-09 13:08:19.139529$GLGSV,2,2,05,86,53,308,47,,,,,,,,,,,,*50
###2023-11-09 13:08:19.142091$GAGSV,1,1,04,07,72,258,45,08,49,042,45,13,64,160,45,26,56,310,44*61
###2023-11-09 13:08:19.144666$GBGSV,2,1,06,11,23,180,41,14,65,008,46,24,20,132,44,26,23,081,44*67
###2023-11-09 13:08:19.146596$GBGSV,2,2,06,28,43,287,47,33,59,304,47,,,,,,,,*66
###2023-11-09 13:08:19.148108$GNVTG,252.38,T,,M,5.42,N,10.04,K,A*1B
###2023-11-09 13:08:19.229476$GNGGA,130819.40,3611.0379412,N,07545.0097849,W,1,24,0.6,1.013,M,-39.962,M,0.0,*66
###2023-11-09 13:08:19.232046$GPGSV,2,1,07,05,20,090,44,10,18,292,43,13,24,045,43,15,62,037,47*70
###2023-11-09 13:08:19.234281$GPGSV,2,2,07,18,77,281,46,23,50,315,45,24,49,136,45,,,,*42
###2023-11-09 13:08:19.236834$GLGSV,2,1,05,70,50,017,36,71,48,290,49,80,18,090,45,85,57,203,47*6A
###2023-11-09 13:08:19.238439$GLGSV,2,2,05,86,53,308,47,,,,,,,,,,,,*50
###2023-11-09 13:08:19.240997$GAGSV,1,1,04,07,72,258,45,08,49,042,45,13,64,160,45,26,56,310,44*61
###2023-11-09 13:08:19.243561$GBGSV,2,1,06,11,23,180,41,14,65,008,46,24,20,132,44,26,23,081,44*67
###2023-11-09 13:08:19.245487$GBGSV,2,2,06,28,43,287,47,33,59,304,47,,,,,,,,*66
###2023-11-09 13:08:19.247277$GNVTG,248.16,T,,M,5.44,N,10.08,K,A*16
###2023-11-09 13:08:19.329619$GNGGA,130819.50,3611.0378792,N,07545.0099564,W,1,24,0.6,1.023,M,-39.962,M,0.0,*62
###2023-11-09 13:08:19.332215$GPGSV,2,1,07,05,20,090,44,10,18,292,43,13,24,045,43,15,62,037,47*70
###2023-11-09 13:08:19.334461$GPGSV,2,2,07,18,77,281,46,23,50,315,45,24,49,136,45,,,,*42
###2023-11-09 13:08:19.337039$GLGSV,2,1,05,70,50,017,36,71,48,290,49,80,18,090,45,85,57,203,47*6A
###2023-11-09 13:08:19.338654$GLGSV,2,2,05,86,53,308,47,,,,,,,,,,,,*50
###2023-11-09 13:08:19.341215$GAGSV,1,1,04,07,72,258,45,08,49,042,45,13,64,160,45,26,56,310,44*61
###2023-11-09 13:08:19.343778$GBGSV,2,1,06,11,23,180,41,14,65,008,46,24,20,132,44,26,23,081,44*67
###2023-11-09 13:08:19.345707$GBGSV,2,2,06,28,43,287,47,33,59,304,47,,,,,,,,*66
###2023-11-09 13:08:19.347221$GNVTG,243.82,T,,M,5.48,N,10.15,K,A*10
