###2023-11-09 13:08:08.247823$GNVTG,241.73,T,,M,5.02,N,9.29,K,A*25
###2023-11-09 13:08:08.330722$GNGGA,130808.50,3611.0429014,N,07544.9951597,W,1,24,0.6,1.160,M,-39.962,M,0.0,*67
###2023-11-09 13:08:08.333328$GPGSV,2,1,07,05,21,090,43,10,18,292,44,13,24,045,41,15,62,037,46*72
###2023-11-09 13:08:08.335588$GPGSV,2,2,07,18,77,281,46,23,50,315,45,24,49,136,46,,,,*41
###2023-11-09 13:08:08.338190$GLGSV,2,1,05,70,50,017,37,71,48,290,49,80,18,090,45,85,58,203,47*64
###2023-11-09 13:08:08.339806$GLGSV,2,2,05,86,52,309,48,,,,,,,,,,,,*5F
###2023-11-09 13:08:08.342378$GAGSV,1,1,04,07,72,258,44,08,49,042,45,13,64,160,45,26,56,310,44*60
###2023-11-09 13:08:08.344959$GBGSV,2,1,06,11,23,180,40,14,65,008,45,24,20,132,43,26,23,081,44*62
###2023-11-09 13:08:08.346915$GBGSV,2,2,06,28,43,287,46,33,59,304,47,,,,,,,,*67
###2023-11-09 13:08:08.348406$GNVTG,240.34,T,,M,4.96,N,9.18,K,A*29
###2023-11-09 13:08:08.429384$GNGGA,130808.60,3611.0428303,N,07544.9953040,W,1,24,0.6,1.152,M,-39.962,M,0.0,*6C
###2023-11-09 13:08:08.431969$GPGSV,2,1,07,05,21,090,42,10,18,292,45,13,24,045,42,15,62,037,46*71
###2023-11-09 13:08:08.434215$GPGSV,2,2,07,18,77,281,46,23,50,315,45,24,49,136,46,,,,*41
###2023-11-09 13:08:08.436783$GLGSV,2,1,05,70,50,017,37,71,48,290,49,80,18,090,45,85,58,203,47*64
###2023-11-09 13:08:08.438398$GLGSV,2,2,05,86,52,309,48,,,,,,,,,,,,*5F
###2023-11-09 13:08:08.440952$GAGSV,1,1,04,07,72,258,44,08,49,042,45,13,64,160,45,26,56,310,44*60
###2023-11-09 13:08:08.443503$GBGSV,2,1,06,11,23,180,40,14,65,008,46,24,20,132,43,26,23,081,44*61
###2023-11-09 13:08:08.445416$GBGSV,2,2,06,28,43,287,46,33,59,304,47,,,,,,,,*67
###2023-11-09 13:08:08.446867$GNVTG,237.12,T,,M,4.90,N,9.07,K,A*25
###2023-11-09 13:08:08.529863$GNGGA,130808.70,3611.0427562,N,07544.9954434,W,1,24,0.6,1.141,M,-39.962,M,0.0,*61
###2023-11-09 13:08:08.532450$GPGSV,2,1,07,05,21,090,43,10,18,292,45,13,24,045,42,15,62,037,46*70
###2023-11-09 13:08:08.534693$GPGSV,2,2,07,18,77,281,46,23,50,315,45,24,49,136,46,,,,*41
###2023-11-09 13:08:08.537387$GLGSV,2,1,05,70,50,017,37,71,48,290,49,80,18,090,45,85,58,203,47*64
###2023-11-09 13:08:08.539013$GLGSV,2,2,05,86,52,309,48,,,,,,,,,,,,*5F
###2023-11-09 13:08:08.541595$GAGSV,1,1,04,07,72,258,44,08,49,042,45,13,64,160,45,26,56,310,45*61
###2023-11-09 13:08:08.544189$GBGSV,2,1,06,11,23,180,40,14,65,008,46,24,20,132,43,26,23,081,44*61
###2023-11-09 13:08:08.546134$GBGSV,2,2,06,28,43,287,47,33,59,304,48,,,,,,,,*69
###2023-11-09 13:08:08.547625$GNVTG,236.33,T,,M,4.82,N,8.93,K,A*28
###2023-11-09 13:08:08.630741$GNGGA,130808.80,3611.0426827,N,07544.9955798,W,1,24,0.6,1.142,M,-39.962,M,0.0,*64
###2023-11-09 13:08:08.633338$GPGSV,2,1,07,05,21,090,44,10,18,292,44,13,24,045,42,15,62,037,46*76
###2023-11-09 13:08:08.635596$GPGSV,2,2,07,18,77,281,46,23,50,315,45,24,49,136,46,,,,*41
###2023-11-09 13:08:08.638202$GLGSV,2,1,05,70,50,017,37,71,48,290,48,80,18,090,45,85,58,203,47*65
###2023-11-09 13:08:08.639808$GLGSV,2,2,05,86,52,309,48,,,,,,,,,,,,*5F
###2023-11-09 13:08:08.642378$GAGSV,1,1,04,07,72,258,44,08,49,042,45,13,64,160,45,26,56,310,45*61
###2023-11-09 13:08:08.644960$GBGSV,2,1,06,11,23,180,40,14,65,008,46,24,20,132,43,26,23,081,44*61
###2023-11-09 13:08:08.646914$GBGSV,2,2,06,28,43,287,46,33,59,304,48,,,,,,,,*68
###2023-11-09 13:08:08.648384$GNVTG,236.48,T,,M,4.74,N,8.78,K,A*28
###2023-11-09 13:08:08.729749$GNGGA,130808.90,3611.0426101,N,07544.9957164,W,1,24,0.6,1.156,M,-39.962,M,0.0,*6A
###2023-11-09 13:08:08.732337$GPGSV,2,1,07,05,21,090,44,10,18,292,44,13,24,045,42,15,62,037,46*76
###2023-11-09 13:08:08.734594$GPGSV,2,2,07,18,77,281,46,23,50,315,45,24,49,136,46,,,,*41
###2023-11-09 13:08:08.737184$GLGSV,2,1,05,70,50,017,37,71,48,290,49,80,18,090,45,85,58,203,49*6A
###2023-11-09 13:08:08.738788$GLGSV,2,2,05,86,52,309,48,,,,,,,,,,,,*5F
###2023-11-09 13:08:08.741355$GAGSV,1,1,04,07,72,258,44,08,49,042,45,13,64,160,45,26,56,310,45*61
###2023-11-09 13:08:08.743931$GBGSV,2,1,06,11,23,180,40,14,65,008,46,24,20,132,43,26,23,081,44*61
###2023-11-09 13:08:08.745863$GBGSV,2,2,06,28,43,287,46,33,59,304,47,,,,,,,,*67
###2023-11-09 13:08:08.747337$GNVTG,237.23,T,,M,4.80,N,8.89,K,A*21
###2023-11-09 13:08:08.830879$GNGGA,130809.00,3611.0425407,N,07544.9958566,W,1,24,0.6,1.167,M,-39.962,M,0.0,*69
###2023-11-09 13:08:08.833496$GPGSV,2,1,07,05,21,090,44,10,18,292,43,13,24,045,42,15,62,037,46*71
###2023-11-09 13:08:08.835765$GPGSV,2,2,07,18,77,281,46,23,50,315,45,24,49,136,46,,,,*41
###2023-11-09 13:08:08.838368$GLGSV,2,1,05,70,50,017,37,71,48,290,49,80,18,090,45,85,58,203,48*6B
###2023-11-09 13:08:08.839988$GLGSV,2,2,05,86,52,309,48,,,,,,,,,,,,*5F
###2023-11-09 13:08:08.842574$GAGSV,1,1,04,07,72,258,44,08,49,042,45,13,64,160,45,26,56,310,45*61
###2023-11-09 13:08:08.845174$GBGSV,2,1,06,11,23,180,41,14,65,008,46,24,20,132,44,26,23,081,44*67
###2023-11-09 13:08:08.847133$GBGSV,2,2,06,28,43,287,46,33,59,304,47,,,,,,,,*67
###2023-11-09 13:08:08.848610$GNVTG,239.81,T,,M,4.80,N,8.89,K,A*27
###2023-11-09 13:08:08.933126$GNGGA,130809.10,3611.0424747,N,07544.9960009,W,1,24,0.6,1.169,M,-39.962,M,0.0,*67
###2023-11-09 13:08:08.935722$GPGSV,2,1,07,05,21,090,44,10,18,292,43,13,24,045,42,15,62,037,46*71
###2023-11-09 13:08:08.938002$GPGSV,2,2,07,18,77,281,46,23,50,315,45,24,49,136,46,,,,*41
###2023-11-09 13:08:08.940576$GLGSV,2,1,05,70,50,017,37,71,48,290,49,80,18,090,45,85,58,203,48*6B
###2023-11-09 13:08:08.942184$GLGSV,2,2,05,86,52,309,48,,,,,,,,,,,,*5F
###2023-11-09 13:08:08.944751$GAGSV,1,1,04,07,72,258,44,08,49,042,45,13,64,160,45,26,56,310,44*60
###2023-11-09 13:08:08.947350$GBGSV,2,1,06,11,23,180,41,14,65,008,46,24,20,132,44,26,23,081,44*67
###2023-11-09 13:08:08.949296$GBGSV,2,2,06,28,43,287,47,33,59,304,47,,,,,,,,*66
###2023-11-09 13:08:08.950762$GNVTG,241.13,T,,M,4.86,N,9.00,K,A*25
###2023-11-09 13:08:09.032960$GNGGA,130809.20,3611.0424114,N,07544.9961490,W,1,24,0.6,1.156,M,-39.962,M,0.0,*6D
###2023-11-09 13:08:09.035541$GPGSV,2,1,07,05,21,090,44,10,18,292,43,13,24,045,42,15,62,037,46*71
###2023-11-09 13:08:09.037803$GPGSV,2,2,07,18,77,281,46,23,50,315,45,24,49,136,46,,,,*41
###2023-11-09 13:08:09.040361$GLGSV,2,1,05,70,50,017,36,71,48,290,49,80,18,090,45,85,58,203,48*6A
###2023-11-09 13:08:09.041956$GLGSV,2,2,05,86,52,309,48,,,,,,,,,,,,*5F
###2023-11-09 13:08:09.044511$GAGSV,1,1,04,07,72,258,44,08,49,042,45,13,64,160,45,26,56,310,44*60
###2023-11-09 13:08:09.047097$GBGSV,2,1,06,11,23,180,41,14,65,008,45,24,20,132,44,26,23,081,44*64
###2023-11-09 13:08:09.049032$GBGSV,2,2,06,28,43,287,47,33,59,304,47,,,,,,,,*66
###2023-11-09 13:08:09.050494$GNVTG,243.31,T,,M,4.92,N,9.11,K,A*22
###2023-11-09 13:08:09.129902$GNGGA,130809.30,3611.0423541,N,07544.9962997,W,1,24,0.6,1.127,M,-39.962,M,0.0,*60
###2023-11-09 13:08:09.132504$GPGSV,2,1,07,05,21,090,43,10,18,292,43,13,24,045,42,15,62,037,46*76
###2023-11-09 13:08:09.134764$GPGSV,2,2,07,18,77,281,46,23,50,315,45,24,49,136,46,,,,*41
###2023-11-09 13:08:09.137364$GLGSV,2,1,05,70,50,017,36,71,48,290,49,80,18,090,45,85,58,203,48*6A
###2023-11-09 13:08:09.138980$GLGSV,2,2,05,86,52,309,48,,,,,,,,,,,,*5F
###2023-11-09 13:08:09.141563$GAGSV,1,1,04,07,72,258,44,08,49,042,45,13,64,160,45,26,56,310,44*60
###2023-11-09 13:08:09.144148$GBGSV,2,1,06,11,23,180,41,14,65,008,45,24,20,132,43,26,23,081,44*63
###2023-11-09 13:08:09.146086$GBGSV,2,2,06,28,43,287,47,33,59,304,47,,,,,,,,*66
###2023-11-09 13:08:09.147565$GNVTG,246.28,T,,M,4.80,N,8.89,K,A*2C
###2023-11-09 13:08:09.242245$GNGGA,130809.40,3611.0423056,N,07544.9964511,W,1,24,0.6,1.109,M,-39.962,M,0.0,*6C
###2023-11-09 13:08:09.244844$GPGSV,2,1,07,05,21,090,43,10,18,292,43,13,24,045,42,15,62,037,46*76
###2023-11-09 13:08:09.247117$GPGSV,2,2,07,18,77,281,46,23,50,315,45,24,49,136,45,,,,*42
###2023-11-09 13:08:09.249686$GLGSV,2,1,05,70,50,017,36,71,48,290,49,80,18,090,44,85,58,203,48*6B
###2023-11-09 13:08:09.251284$GLGSV,2,2,05,86,52,309,48,,,,,,,,,,,,*5F
###2023-11-09 13:08:09.253850$GAGSV,1,1,04,07,72,258,44,08,49,042,45,13,64,160,45,26,56,310,45*61
###2023-11-09 13:08:09.256430$GBGSV,2,1,06,11,23,180,41,14,65,008,45,24,20,132,43,26,23,081,44*63
###2023-11-09 13:08:09.258381$GBGSV,2,2,06,28,43,287,47,33,59,304,47,,,,,,,,*66
###2023-11-09 13:08:09.260144$GNVTG,250.44,T,,M,4.72,N,8.75,K,A*2F
###2023-11-09 13:08:09.330721$GNGGA,130809.50,3611.0422606,N,07544.9966041,W,1,24,0.6,1.109,M,-39.962,M,0.0,*6D
###2023-11-09 13:08:09.333304$GPGSV,2,1,07,05,21,090,43,10,18,292,44,13,24,045,42,15,62,037,46*71
###2023-11-09 13:08:09.335557$GPGSV,2,2,07,18,77,281,46,23,50,315,45,24,49,136,45,,,,*42
###2023-11-09 13:08:09.338138$GLGSV,2,1,05,70,50,017,36,71,48,290,49,80,18,090,44,85,58,203,47*64
###2023-11-09 13:08:09.339745$GLGSV,2,2,05,86,52,309,48,,,,,,,,,,,,*5F
###2023-11-09 13:08:09.342303$GAGSV,1,1,04,07,72,258,44,08,49,042,45,13,64,160,45,26,56,310,45*61
###2023-11-09 13:08:09.344868$GBGSV,2,1,06,11,23,180,40,14,65,008,46,24,20,132,42,26,23,081,43*67
###2023-11-09 13:08:09.346792$GBGSV,2,2,06,28,43,287,47,33,59,304,47,,,,,,,,*66
###2023-11-09 13:08:09.348269$GNVTG,249.55,T,,M,4.78,N,8.86,K,A*21
