###2023-11-09 13:10:29.839950$GPGSV,2,2,07,18,78,272,46,23,50,316,46,24,50,134,46,,,,*48
###2023-11-09 13:10:29.842558$GLGSV,2,1,05,70,49,019,35,71,48,291,49,80,19,089,46,85,56,202,48*6B
###2023-11-09 13:10:29.844169$GLGSV,2,2,05,86,54,306,48,,,,,,,,,,,,*56
###2023-11-09 13:10:29.846742$GAGSV,1,1,04,07,73,259,45,08,48,043,45,13,63,161,44,26,57,310,45*66
###2023-11-09 13:10:29.849379$GBGSV,2,1,06,11,22,180,41,14,65,009,46,24,21,132,44,26,23,080,45*66
###2023-11-09 13:10:29.851331$GBGSV,2,2,06,28,43,286,47,33,59,305,47,,,,,,,,*66
###2023-11-09 13:10:29.852799$GNVTG,321.49,T,,M,4.39,N,8.14,K,A*2D
###2023-11-09 13:10:29.940725$GNGGA,131030.10,3611.0591214,N,07544.8707112,W,1,24,0.6,0.573,M,-39.960,M,0.0,*61
###2023-11-09 13:10:29.943301$GPGSV,2,1,07,05,20,091,44,10,19,294,43,13,23,045,42,15,60,038,46*7C
###2023-11-09 13:10:29.945550$GPGSV,2,2,07,18,78,272,46,23,50,316,46,24,50,134,46,,,,*48
###2023-11-09 13:10:29.948149$GLGSV,2,1,05,70,49,019,35,71,48,291,49,80,19,089,46,85,56,202,49*6A
###2023-11-09 13:10:29.949764$GLGSV,2,2,05,86,54,306,48,,,,,,,,,,,,*56
###2023-11-09 13:10:29.952339$GAGSV,1,1,04,07,73,259,45,08,48,043,45,13,63,161,44,26,57,310,45*66
###2023-11-09 13:10:29.954931$GBGSV,2,1,06,11,22,180,43,14,65,009,45,24,21,132,45,26,23,080,44*67
###2023-11-09 13:10:29.956870$GBGSV,2,2,06,28,43,286,47,33,59,305,47,,,,,,,,*66
###2023-11-09 13:10:29.958350$GNVTG,323.40,T,,M,4.55,N,8.42,K,A*2F
###2023-11-09 13:10:30.033221$GNGGA,131030.20,3611.0592286,N,07544.8708008,W,1,24,0.6,0.579,M,-39.960,M,0.0,*65
###2023-11-09 13:10:30.035793$GPGSV,2,1,07,05,20,091,44,10,19,294,43,13,23,045,42,15,60,038,46*7C
###2023-11-09 13:10:30.038051$GPGSV,2,2,07,18,78,272,46,23,50,316,46,24,50,134,45,,,,*4B
###2023-11-09 13:10:30.040607$GLGSV,2,1,05,70,49,019,35,71,48,291,49,80,19,089,45,85,56,202,49*69
###2023-11-09 13:10:30.042211$GLGSV,2,2,05,86,54,306,48,,,,,,,,,,,,*56
###2023-11-09 13:10:30.044759$GAGSV,1,1,04,07,73,259,45,08,48,043,45,13,63,161,44,26,57,310,45*66
###2023-11-09 13:10:30.047326$GBGSV,2,1,06,11,22,180,42,14,65,009,45,24,21,132,45,26,23,080,44*66
###2023-11-09 13:10:30.049252$GBGSV,2,2,06,28,43,286,46,33,59,305,47,,,,,,,,*67
###2023-11-09 13:10:30.050703$GNVTG,327.77,T,,M,4.82,N,8.93,K,A*29
###2023-11-09 13:10:30.131097$GNGGA,131030.30,3611.0593464,N,07544.8708866,W,1,24,0.6,0.597,M,-39.960,M,0.0,*6F
###2023-11-09 13:10:30.133700$GPGSV,2,1,07,05,20,091,44,10,19,294,43,13,23,045,42,15,60,038,46*7C
###2023-11-09 13:10:30.135957$GPGSV,2,2,07,18,78,272,46,23,50,316,45,24,50,134,45,,,,*48
###2023-11-09 13:10:30.138554$GLGSV,2,1,05,70,49,019,35,71,48,291,49,80,19,089,45,85,56,202,49*69
###2023-11-09 13:10:30.140172$GLGSV,2,2,05,86,54,306,48,,,,,,,,,,,,*56
###2023-11-09 13:10:30.142743$GAGSV,1,1,04,07,73,259,45,08,48,043,45,13,63,161,44,26,57,310,45*66
###2023-11-09 13:10:30.145327$GBGSV,2,1,06,11,22,180,42,14,65,009,45,24,21,132,45,26,23,080,44*66
###2023-11-09 13:10:30.147278$GBGSV,2,2,06,28,43,286,46,33,59,305,47,,,,,,,,*67
###2023-11-09 13:10:30.148753$GNVTG,330.53,T,,M,5.03,N,9.32,K,A*2B
###2023-11-09 13:10:30.231256$GNGGA,131030.40,3611.0594701,N,07544.8709721,W,1,24,0.6,0.607,M,-39.960,M,0.0,*68
###2023-11-09 13:10:30.233856$GPGSV,2,1,07,05,20,091,45,10,19,294,42,13,23,045,43,15,60,038,46*7D
###2023-11-09 13:10:30.236104$GPGSV,2,2,07,18,78,272,46,23,50,316,45,24,50,134,46,,,,*4B
###2023-11-09 13:10:30.238692$GLGSV,2,1,05,70,49,019,35,71,48,291,49,80,19,089,46,85,56,202,48*6B
###2023-11-09 13:10:30.240299$GLGSV,2,2,05,86,54,306,48,,,,,,,,,,,,*56
###2023-11-09 13:10:30.242868$GAGSV,1,1,04,07,73,259,45,08,48,043,45,13,63,161,44,26,57,310,45*66
###2023-11-09 13:10:30.245439$GBGSV,2,1,06,11,22,180,42,14,65,009,45,24,21,132,45,26,23,080,45*67
###2023-11-09 13:10:30.247388$GBGSV,2,2,06,28,43,286,46,33,59,305,47,,,,,,,,*67
###2023-11-09 13:10:30.248854$GNVTG,330.66,T,,M,5.15,N,9.54,K,A*2A
###2023-11-09 13:10:30.335973$GNGGA,131030.50,3611.0595930,N,07544.8710640,W,1,24,0.6,0.605,M,-39.960,M,0.0,*68
###2023-11-09 13:10:30.338574$GPGSV,2,1,07,05,20,091,45,10,19,294,41,13,23,045,43,15,60,038,46*7E
###2023-11-09 13:10:30.340819$GPGSV,2,2,07,18,78,272,46,23,50,316,45,24,50,134,46,,,,*4B
###2023-11-09 13:10:30.343381$GLGSV,2,1,05,70,49,019,35,71,48,291,48,80,19,089,47,85,56,202,48*6B
###2023-11-09 13:10:30.344981$GLGSV,2,2,05,86,54,306,48,,,,,,,,,,,,*56
###2023-11-09 13:10:30.347557$GAGSV,1,1,04,07,73,259,45,08,48,043,45,13,63,161,44,26,57,310,45*66
###2023-11-09 13:10:30.350125$GBGSV,2,1,06,11,22,180,41,14,65,009,45,24,21,132,44,26,23,080,46*66
###2023-11-09 13:10:30.352059$GBGSV,2,2,06,28,43,286,46,33,59,305,47,,,,,,,,*67
###2023-11-09 13:10:30.353538$GNVTG,326.71,T,,M,5.17,N,9.58,K,A*25
###2023-11-09 13:10:30.430879$GNGGA,131030.60,3611.0597060,N,07544.8711681,W,1,24,0.6,0.601,M,-39.960,M,0.0,*6D
###2023-11-09 13:10:30.433491$GPGSV,2,1,07,05,20,091,45,10,19,294,41,13,23,045,43,15,60,038,46*7E
###2023-11-09 13:10:30.435762$GPGSV,2,2,07,18,78,272,46,23,50,316,46,24,50,134,46,,,,*48
###2023-11-09 13:10:30.438364$GLGSV,2,1,05,70,49,019,35,71,48,291,48,80,19,089,47,85,56,202,47*64
###2023-11-09 13:10:30.439976$GLGSV,2,2,05,86,54,306,48,,,,,,,,,,,,*56
###2023-11-09 13:10:30.442561$GAGSV,1,1,04,07,73,259,45,08,48,043,45,13,63,161,44,26,57,310,45*66
###2023-11-09 13:10:30.445140$GBGSV,2,1,06,11,22,180,41,14,65,009,45,24,21,132,44,26,23,080,46*66
###2023-11-09 13:10:30.447102$GBGSV,2,2,06,28,43,286,46,33,59,305,47,,,,,,,,*67
###2023-11-09 13:10:30.448575$GNVTG,319.39,T,,M,4.98,N,9.22,K,A*2E
###2023-11-09 13:10:30.531232$GNGGA,131030.70,3611.0598087,N,07544.8712849,W,1,24,0.6,0.599,M,-39.960,M,0.0,*61
###2023-11-09 13:10:30.533828$GPGSV,2,1,07,05,20,091,44,10,19,294,41,13,23,045,43,15,60,038,46*7F
###2023-11-09 13:10:30.536095$GPGSV,2,2,07,18,78,272,46,23,50,316,46,24,50,134,46,,,,*48
###2023-11-09 13:10:30.538706$GLGSV,2,1,05,70,49,019,35,71,48,291,48,80,19,089,46,85,56,202,48*6A
###2023-11-09 13:10:30.540335$GLGSV,2,2,05,86,54,306,48,,,,,,,,,,,,*56
###2023-11-09 13:10:30.542906$GAGSV,1,1,04,07,73,259,45,08,48,043,45,13,63,161,44,26,57,310,45*66
###2023-11-09 13:10:30.545497$GBGSV,2,1,06,11,22,180,41,14,65,009,45,24,21,132,44,26,23,080,46*66
###2023-11-09 13:10:30.547454$GBGSV,2,2,06,28,43,286,46,33,59,305,47,,,,,,,,*67
###2023-11-09 13:10:30.548933$GNVTG,314.94,T,,M,5.03,N,9.32,K,A*26
###2023-11-09 13:10:30.631111$GNGGA,131030.80,3611.0599088,N,07544.8714077,W,1,24,0.6,0.603,M,-39.960,M,0.0,*63
###2023-11-09 13:10:30.633700$GPGSV,2,1,07,05,20,091,44,10,19,294,42,13,23,045,42,15,60,038,46*7D
###2023-11-09 13:10:30.635955$GPGSV,2,2,07,18,78,272,46,23,50,316,46,24,50,134,46,,,,*48
###2023-11-09 13:10:30.638540$GLGSV,2,1,05,70,49,019,35,71,48,291,48,80,19,089,46,85,56,202,49*6B
###2023-11-09 13:10:30.640143$GLGSV,2,2,05,86,54,306,48,,,,,,,,,,,,*56
###2023-11-09 13:10:30.642705$GAGSV,1,1,04,07,73,259,45,08,48,043,45,13,63,161,45,26,57,310,45*67
###2023-11-09 13:10:30.645263$GBGSV,2,1,06,11,22,180,42,14,65,009,45,24,21,132,44,26,23,080,45*66
###2023-11-09 13:10:30.647196$GBGSV,2,2,06,28,43,286,46,33,59,305,47,,,,,,,,*67
###2023-11-09 13:10:30.648656$GNVTG,314.99,T,,M,5.09,N,9.43,K,A*27
###2023-11-09 13:10:30.731124$GNGGA,131030.90,3611.0600127,N,07544.8715278,W,1,24,0.6,0.618,M,-39.960,M,0.0,*63
###2023-11-09 13:10:30.733732$GPGSV,2,1,07,05,20,091,44,10,19,294,42,13,23,045,42,15,60,038,46*7D
###2023-11-09 13:10:30.735983$GPGSV,2,2,07,18,78,272,46,23,50,316,45,24,50,134,46,,,,*4B
###2023-11-09 13:10:30.738602$GLGSV,2,1,05,70,49,019,35,71,48,291,49,80,19,089,44,85,56,202,49*68
###2023-11-09 13:10:30.740221$GLGSV,2,2,05,86,54,306,48,,,,,,,,,,,,*56
###2023-11-09 13:10:30.742808$GAGSV,1,1,04,07,73,259,45,08,48,043,45,13,63,161,45,26,57,310,45*67
###2023-11-09 13:10:30.745399$GBGSV,2,1,06,11,22,180,42,14,65,009,44,24,21,132,44,26,23,080,45*67
###2023-11-09 13:10:30.747356$GBGSV,2,2,06,28,43,286,46,33,59,305,47,,,,,,,,*67
###2023-11-09 13:10:30.748829$GNVTG,318.27,T,,M,5.13,N,9.50,K,A*27
###2023-11-09 13:10:30.834646$GNGGA,131031.00,3611.0601275,N,07544.8716401,W,1,24,0.6,0.649,M,-39.960,M,0.0,*61
###2023-11-09 13:10:30.837268$GPGSV,2,1,07,05,20,091,43,10,19,294,42,13,23,045,41,15,60,038,46*79
###2023-11-09 13:10:30.839813$GPGSV,2,2,07,18,78,272,46,23,50,316,45,24,50,134,46,,,,*4B
###2023-11-09 13:10:30.842392$GLGSV,2,1,05,70,49,019,35,71,48,291,49,80,19,089,44,85,56,202,49*68
###2023-11-09 13:10:30.844001$GLGSV,2,2,05,86,54,306,48,,,,,,,,,,,,*56
###2023-11-09 13:10:30.846568$GAGSV,1,1,04,07,73,259,45,08,48,043,45,13,63,161,45,26,57,310,45*67
###2023-11-09 13:10:30.849166$GBGSV,2,1,06,11,22,180,42,14,65,009,44,24,21,132,44,26,23,080,44*66
###2023-11-09 13:10:30.851101$GBGSV,2,2,06,28,43,286,46,33,59,305,47,,,,,,,,*67
###2023-11-09 13:10:30.852611$GNVTG,324.24,T,,M,5.40,N,10.01,K,A*11
###2023-11-09 13:10:30.932104$GNGGA,131031.10,3611.0602532,N,07544.8717462,W,1,24,0.6,0.676,M,-39.960,M,0.0,*6F
###2023-11-09 13:10:30.934690$GPGSV,2,1,07,05,20,091,44,10,19,294,43,13,23,045,41,15,60,038,46*7F
###2023-11-09 13:10:30.936961$GPGSV,2,2,07,18,78,272,46,23,50,316,45,24,50,134,46,,,,*4B
