###2023-11-09 13:09:04.949164$GNVTG,90.07,T,,M,4.28,N,7.92,K,A*1F
###2023-11-09 13:09:05.032631$GNGGA,130905.20,3611.0230549,N,07544.9712791,W,1,24,0.6,0.941,M,-39.962,M,0.0,*68
###2023-11-09 13:09:05.035241$GPGSV,2,1,07,05,20,090,42,10,19,293,45,13,24,045,40,15,61,037,46*71
###2023-11-09 13:09:05.037526$GPGSV,2,2,07,18,78,277,47,23,50,316,45,24,50,135,45,,,,*4D
###2023-11-09 13:09:05.040106$GLGSV,2,1,05,70,50,017,35,71,48,290,48,80,18,090,44,85,57,203,49*67
###2023-11-09 13:09:05.041715$GLGSV,2,2,05,86,53,308,48,,,,,,,,,,,,*5F
###2023-11-09 13:09:05.044294$GAGSV,1,1,04,07,73,259,46,08,48,043,45,13,64,160,44,26,57,310,45*63
###2023-11-09 13:09:05.046871$GBGSV,2,1,06,11,23,180,41,14,65,008,45,24,20,132,44,26,23,081,41*61
###2023-11-09 13:09:05.048831$GBGSV,2,2,06,28,43,287,47,33,59,304,47,,,,,,,,*66
###2023-11-09 13:09:05.050270$GNVTG,83.55,T,,M,4.20,N,7.78,K,A*16
###2023-11-09 13:09:05.129368$GNGGA,130905.30,3611.0230733,N,07544.9711365,W,1,24,0.6,0.927,M,-39.962,M,0.0,*6A
###2023-11-09 13:09:05.131949$GPGSV,2,1,07,05,20,090,42,10,19,293,45,13,24,045,40,15,61,037,45*72
###2023-11-09 13:09:05.134196$GPGSV,2,2,07,18,78,277,47,23,50,316,45,24,50,135,45,,,,*4D
###2023-11-09 13:09:05.136753$GLGSV,2,1,05,70,50,017,35,71,48,290,48,80,18,090,44,85,57,203,48*66
###2023-11-09 13:09:05.138367$GLGSV,2,2,05,86,53,308,48,,,,,,,,,,,,*5F
###2023-11-09 13:09:05.140925$GAGSV,1,1,04,07,73,259,45,08,48,043,45,13,64,160,44,26,57,310,45*60
###2023-11-09 13:09:05.143500$GBGSV,2,1,06,11,23,180,42,14,65,008,45,24,20,132,44,26,23,081,41*62
###2023-11-09 13:09:05.145430$GBGSV,2,2,06,28,43,287,47,33,59,304,47,,,,,,,,*66
###2023-11-09 13:09:05.146856$GNVTG,78.15,T,,M,4.24,N,7.85,K,A*10
###2023-11-09 13:09:05.229391$GNGGA,130905.40,3611.0230987,N,07544.9709925,W,1,24,0.6,0.920,M,-39.962,M,0.0,*6C
###2023-11-09 13:09:05.231991$GPGSV,2,1,07,05,20,090,42,10,19,293,45,13,24,045,40,15,61,037,45*72
###2023-11-09 13:09:05.234251$GPGSV,2,2,07,18,78,277,47,23,50,316,45,24,50,135,45,,,,*4D
###2023-11-09 13:09:05.236826$GLGSV,2,1,05,70,50,017,35,71,48,290,48,80,18,090,45,85,57,203,49*66
###2023-11-09 13:09:05.238451$GLGSV,2,2,05,86,53,308,48,,,,,,,,,,,,*5F
###2023-11-09 13:09:05.241020$GAGSV,1,1,04,07,73,259,45,08,48,043,45,13,64,160,45,26,57,310,45*61
###2023-11-09 13:09:05.243612$GBGSV,2,1,06,11,23,180,42,14,65,008,45,24,20,132,44,26,23,081,41*62
###2023-11-09 13:09:05.245568$GBGSV,2,2,06,28,43,287,47,33,59,304,47,,,,,,,,*66
###2023-11-09 13:09:05.247025$GNVTG,76.81,T,,M,4.35,N,8.06,K,A*17
###2023-11-09 13:09:05.330352$GNGGA,130905.50,3611.0231276,N,07544.9708458,W,1,24,0.6,0.905,M,-39.962,M,0.0,*68
###2023-11-09 13:09:05.332946$GPGSV,2,1,07,05,20,090,43,10,19,293,45,13,24,045,40,15,61,037,45*73
###2023-11-09 13:09:05.335193$GPGSV,2,2,07,18,78,277,47,23,50,316,45,24,50,135,45,,,,*4D
###2023-11-09 13:09:05.337798$GLGSV,2,1,05,70,50,017,35,71,48,290,48,80,18,090,45,85,57,203,49*66
###2023-11-09 13:09:05.339449$GLGSV,2,2,05,86,53,308,48,,,,,,,,,,,,*5F
###2023-11-09 13:09:05.342061$GAGSV,1,1,04,07,73,259,45,08,48,043,45,13,64,160,44,26,57,310,45*60
###2023-11-09 13:09:05.344674$GBGSV,2,1,06,11,23,180,42,14,65,008,45,24,20,132,44,26,23,081,43*60
###2023-11-09 13:09:05.346609$GBGSV,2,2,06,28,43,287,47,33,59,304,47,,,,,,,,*66
###2023-11-09 13:09:05.348062$GNVTG,75.63,T,,M,4.43,N,8.21,K,A*1C
###2023-11-09 13:09:05.429281$GNGGA,130905.60,3611.0231628,N,07544.9706998,W,1,24,0.6,0.883,M,-39.962,M,0.0,*64
###2023-11-09 13:09:05.431868$GPGSV,2,1,07,05,20,090,43,10,19,293,45,13,24,045,40,15,61,037,45*73
###2023-11-09 13:09:05.434118$GPGSV,2,2,07,18,78,277,47,23,50,316,45,24,50,135,45,,,,*4D
###2023-11-09 13:09:05.436682$GLGSV,2,1,05,70,50,017,35,71,48,290,48,80,18,090,45,85,57,203,49*66
###2023-11-09 13:09:05.438298$GLGSV,2,2,05,86,53,308,48,,,,,,,,,,,,*5F
###2023-11-09 13:09:05.440849$GAGSV,1,1,04,07,73,259,45,08,48,043,45,13,64,160,45,26,57,310,45*61
###2023-11-09 13:09:05.443402$GBGSV,2,1,06,11,23,180,42,14,65,008,46,24,20,132,44,26,23,081,43*63
###2023-11-09 13:09:05.445316$GBGSV,2,2,06,28,43,287,47,33,59,304,47,,,,,,,,*66
###2023-11-09 13:09:05.446729$GNVTG,70.99,T,,M,4.45,N,8.24,K,A*1F
###2023-11-09 13:09:05.529263$GNGGA,130905.70,3611.0232077,N,07544.9705546,W,1,24,0.6,0.857,M,-39.962,M,0.0,*6F
###2023-11-09 13:09:05.531867$GPGSV,2,1,07,05,20,090,43,10,19,293,45,13,24,045,40,15,61,037,45*73
###2023-11-09 13:09:05.534119$GPGSV,2,2,07,18,78,277,47,23,50,316,45,24,50,135,45,,,,*4D
###2023-11-09 13:09:05.536690$GLGSV,2,1,05,70,50,017,35,71,48,290,48,80,18,090,45,85,57,203,49*66
###2023-11-09 13:09:05.538315$GLGSV,2,2,05,86,53,308,48,,,,,,,,,,,,*5F
###2023-11-09 13:09:05.540880$GAGSV,1,1,04,07,73,259,45,08,48,043,45,13,64,160,45,26,57,310,45*61
###2023-11-09 13:09:05.543460$GBGSV,2,1,06,11,23,180,42,14,65,008,46,24,20,132,43,26,23,081,43*64
###2023-11-09 13:09:05.545392$GBGSV,2,2,06,28,43,287,47,33,59,304,47,,,,,,,,*66
###2023-11-09 13:09:05.546813$GNVTG,67.07,T,,M,4.63,N,8.57,K,A*1E
###2023-11-09 13:09:05.629268$GNGGA,130905.80,3611.0232574,N,07544.9704062,W,1,24,0.6,0.826,M,-39.962,M,0.0,*62
###2023-11-09 13:09:05.631871$GPGSV,2,1,07,05,20,090,43,10,19,293,45,13,24,045,40,15,61,037,45*73
###2023-11-09 13:09:05.634130$GPGSV,2,2,07,18,78,277,47,23,50,316,45,24,50,135,45,,,,*4D
###2023-11-09 13:09:05.636715$GLGSV,2,1,05,70,50,017,35,71,48,290,48,80,18,090,44,85,57,203,49*67
###2023-11-09 13:09:05.638343$GLGSV,2,2,05,86,53,308,48,,,,,,,,,,,,*5F
###2023-11-09 13:09:05.640920$GAGSV,1,1,04,07,73,259,45,08,48,043,45,13,64,160,45,26,57,310,45*61
###2023-11-09 13:09:05.643507$GBGSV,2,1,06,11,23,180,42,14,65,008,45,24,20,132,44,26,23,081,43*60
###2023-11-09 13:09:05.645446$GBGSV,2,2,06,28,43,287,47,33,59,304,47,,,,,,,,*66
###2023-11-09 13:09:05.646872$GNVTG,67.79,T,,M,4.76,N,8.82,K,A*1B
###2023-11-09 13:09:05.729369$GNGGA,130905.90,3611.0233087,N,07544.9702521,W,1,24,0.6,0.792,M,-39.962,M,0.0,*6F
###2023-11-09 13:09:05.731944$GPGSV,2,1,07,05,20,090,43,10,19,293,45,13,24,045,40,15,61,037,45*73
###2023-11-09 13:09:05.734188$GPGSV,2,2,07,18,78,277,47,23,50,316,45,24,50,135,45,,,,*4D
###2023-11-09 13:09:05.736747$GLGSV,2,1,05,70,50,017,35,71,48,290,48,80,18,090,44,85,57,203,49*67
###2023-11-09 13:09:05.738483$GLGSV,2,2,05,86,53,308,48,,,,,,,,,,,,*5F
###2023-11-09 13:09:05.741056$GAGSV,1,1,04,07,73,259,45,08,48,043,45,13,64,160,45,26,57,310,45*61
###2023-11-09 13:09:05.743645$GBGSV,2,1,06,11,23,180,42,14,65,008,45,24,20,132,44,26,23,081,43*60
###2023-11-09 13:09:05.745585$GBGSV,2,2,06,28,43,287,46,33,59,304,47,,,,,,,,*67
###2023-11-09 13:09:05.747038$GNVTG,67.36,T,,M,4.96,N,9.18,K,A*1C
###2023-11-09 13:09:05.837147$GNGGA,130906.00,3611.0233633,N,07544.9700930,W,1,24,0.6,0.753,M,-39.962,M,0.0,*6F
###2023-11-09 13:09:05.839756$GPGSV,2,1,07,05,20,090,42,10,19,293,44,13,24,045,40,15,61,037,45*73
###2023-11-09 13:09:05.842016$GPGSV,2,2,07,18,78,277,47,23,50,316,45,24,50,135,45,,,,*4D
###2023-11-09 13:09:05.844594$GLGSV,2,1,05,70,50,017,35,71,48,290,48,80,18,090,45,85,57,203,49*66
###2023-11-09 13:09:05.846203$GLGSV,2,2,05,86,53,308,48,,,,,,,,,,,,*5F
###2023-11-09 13:09:05.848795$GAGSV,1,1,04,07,73,259,45,08,48,043,45,13,64,160,45,26,57,310,45*61
###2023-11-09 13:09:05.851381$GBGSV,2,1,06,11,23,180,42,14,65,008,45,24,20,132,43,26,23,081,43*67
###2023-11-09 13:09:05.853311$GBGSV,2,2,06,28,43,287,46,33,59,304,47,,,,,,,,*67
###2023-11-09 13:09:05.854742$GNVTG,66.38,T,,M,5.11,N,9.47,K,A*17
###2023-11-09 13:09:05.935246$GNGGA,130906.10,3611.0234227,N,07544.9699320,W,1,24,0.6,0.698,M,-39.962,M,0.0,*64
###2023-11-09 13:09:05.937857$GPGSV,2,1,07,05,20,090,42,10,19,293,44,13,24,045,40,15,61,037,45*73
###2023-11-09 13:09:05.940120$GPGSV,2,2,07,18,78,277,47,23,50,316,45,24,50,135,45,,,,*4D
###2023-11-09 13:09:05.942700$GLGSV,2,1,05,70,50,017,35,71,48,290,48,80,18,090,45,85,57,203,49*66
###2023-11-09 13:09:05.944303$GLGSV,2,2,05,86,53,308,47,,,,,,,,,,,,*50
###2023-11-09 13:09:05.946874$GAGSV,1,1,04,07,73,259,45,08,48,043,45,13,64,160,45,26,57,310,44*60
###2023-11-09 13:09:05.949477$GBGSV,2,1,06,11,23,180,42,14,65,008,45,24,20,132,44,26,23,081,43*60
###2023-11-09 13:09:05.951407$GBGSV,2,2,06,28,43,287,46,33,59,304,46,,,,,,,,*66
###2023-11-09 13:09:05.952836$GNVTG,64.45,T,,M,5.21,N,9.65,K,A*1C
###2023-11-09 13:09:06.033984$GNGGA,130906.20,3611.0234875,N,07544.9697700,W,1,24,0.6,0.642,M,-39.962,M,0.0,*65
###2023-11-09 13:09:06.036574$GPGSV,2,1,07,05,20,090,43,10,19,293,44,13,24,045,40,15,61,037,45*72
###2023-11-09 13:09:06.038857$GPGSV,2,2,07,18,78,277,47,23,50,316,45,24,50,135,45,,,,*4D
###2023-11-09 13:09:06.041436$GLGSV,2,1,05,70,50,017,35,71,48,290,48,80,18,090,45,85,57,203,49*66
###2023-11-09 13:09:06.043037$GLGSV,2,2,05,86,53,308,47,,,,,,,,,,,,*50
###2023-11-09 13:09:06.045594$GAGSV,1,1,04,07,73,259,45,08,48,043,45,13,64,160,45,26,57,310,44*60
###2023-11-09 13:09:06.048181$GBGSV,2,1,06,11,23,180,43,14,65,008,45,24,20,132,44,26,23,081,43*61
###2023-11-09 13:09:06.050118$GBGSV,2,2,06,28,43,287,46,33,59,304,46,,,,,,,,*66
###2023-11-09 13:09:06.051537$GNVTG,62.91,T,,M,5.35,N,9.90,K,A*1C
