###2023-11-09 13:10:43.142065$GAGSV,1,1,04,07,73,259,44,08,48,043,45,13,63,161,46,26,57,310,44*64
###2023-11-09 13:10:43.144666$GBGSV,2,1,06,11,22,180,42,14,65,009,45,24,21,132,43,26,23,080,44*60
###2023-11-09 13:10:43.146624$GBGSV,2,2,06,28,43,286,46,33,59,305,47,,,,,,,,*67
###2023-11-09 13:10:43.148141$GNVTG,305.51,T,,M,4.72,N,8.75,K,A*2A
###2023-11-09 13:10:43.228490$GNGGA,131043.40,3611.0688487,N,07544.8877939,W,1,24,0.6,0.671,M,-39.960,M,0.0,*6F
###2023-11-09 13:10:43.231076$GPGSV,2,1,07,05,20,091,44,10,19,294,41,13,23,045,43,15,60,038,46*7F
###2023-11-09 13:10:43.233314$GPGSV,2,2,07,18,78,272,46,23,51,317,45,24,51,133,45,,,,*4E
###2023-11-09 13:10:43.235871$GLGSV,2,1,05,70,49,019,36,71,48,291,48,80,19,089,45,85,56,202,49*6B
###2023-11-09 13:10:43.237484$GLGSV,2,2,05,86,54,306,48,,,,,,,,,,,,*56
###2023-11-09 13:10:43.240046$GAGSV,1,1,04,07,73,259,44,08,48,043,46,13,63,161,45,26,57,310,44*64
###2023-11-09 13:10:43.242617$GBGSV,2,1,06,11,22,180,42,14,65,009,44,24,21,132,43,26,23,080,44*61
###2023-11-09 13:10:43.244550$GBGSV,2,2,06,28,43,286,46,33,59,305,47,,,,,,,,*67
###2023-11-09 13:10:43.246004$GNVTG,306.29,T,,M,4.49,N,8.32,K,A*2D
###2023-11-09 13:10:43.328655$GNGGA,131043.50,3611.0689247,N,07544.8879126,W,1,24,0.6,0.669,M,-39.960,M,0.0,*64
###2023-11-09 13:10:43.331259$GPGSV,2,1,07,05,20,091,44,10,19,294,41,13,23,045,44,15,60,038,46*78
###2023-11-09 13:10:43.333514$GPGSV,2,2,07,18,78,272,46,23,51,317,45,24,51,133,45,,,,*4E
###2023-11-09 13:10:43.336078$GLGSV,2,1,05,70,49,019,36,71,48,291,48,80,19,089,45,85,56,202,49*6B
###2023-11-09 13:10:43.337709$GLGSV,2,2,05,86,54,306,48,,,,,,,,,,,,*56
###2023-11-09 13:10:43.340293$GAGSV,1,1,04,07,73,259,44,08,48,043,46,13,63,161,45,26,57,310,44*64
###2023-11-09 13:10:43.342882$GBGSV,2,1,06,11,22,180,41,14,65,009,44,24,21,132,44,26,23,080,44*65
###2023-11-09 13:10:43.344824$GBGSV,2,2,06,28,43,286,46,33,59,305,47,,,,,,,,*67
###2023-11-09 13:10:43.346291$GNVTG,310.04,T,,M,4.35,N,8.06,K,A*29
###2023-11-09 13:10:43.429795$GNGGA,131043.60,3611.0689998,N,07544.8880280,W,1,24,0.6,0.673,M,-39.960,M,0.0,*6C
###2023-11-09 13:10:43.432393$GPGSV,2,1,07,05,20,091,44,10,19,294,40,13,23,045,44,15,60,038,46*79
###2023-11-09 13:10:43.434647$GPGSV,2,2,07,18,78,272,46,23,51,317,45,24,51,133,45,,,,*4E
###2023-11-09 13:10:43.437244$GLGSV,2,1,05,70,49,019,36,71,48,291,48,80,19,089,46,85,56,202,48*69
###2023-11-09 13:10:43.438861$GLGSV,2,2,05,86,54,306,48,,,,,,,,,,,,*56
###2023-11-09 13:10:43.441434$GAGSV,1,1,04,07,73,259,44,08,48,043,46,13,63,161,45,26,57,310,44*64
###2023-11-09 13:10:43.444035$GBGSV,2,1,06,11,22,180,39,14,65,009,45,24,21,132,43,26,23,080,45*6D
###2023-11-09 13:10:43.445989$GBGSV,2,2,06,28,43,286,46,33,59,305,47,,,,,,,,*67
###2023-11-09 13:10:43.447513$GNVTG,307.32,T,,M,4.28,N,7.92,K,A*24
###2023-11-09 13:10:43.528513$GNGGA,131043.70,3611.0690656,N,07544.8881466,W,1,24,0.6,0.685,M,-39.960,M,0.0,*6E
###2023-11-09 13:10:43.531104$GPGSV,2,1,07,05,20,091,43,10,19,294,40,13,23,045,44,15,60,038,46*7E
###2023-11-09 13:10:43.533359$GPGSV,2,2,07,18,78,272,46,23,51,317,45,24,51,133,45,,,,*4E
###2023-11-09 13:10:43.535932$GLGSV,2,1,05,70,49,019,36,71,48,291,48,80,19,089,45,85,56,202,48*6A
###2023-11-09 13:10:43.537550$GLGSV,2,2,05,86,54,306,47,,,,,,,,,,,,*59
###2023-11-09 13:10:43.540118$GAGSV,1,1,04,07,73,259,44,08,48,043,46,13,63,161,45,26,57,310,44*64
###2023-11-09 13:10:43.542687$GBGSV,2,1,06,11,22,180,39,14,65,009,45,24,21,132,43,26,23,080,45*6D
###2023-11-09 13:10:43.544615$GBGSV,2,2,06,28,43,286,46,33,59,305,47,,,,,,,,*67
###2023-11-09 13:10:43.546074$GNVTG,301.09,T,,M,4.12,N,7.63,K,A*2D
###2023-11-09 13:10:43.627283$GNGGA,131043.80,3611.0691229,N,07544.8882707,W,1,24,0.6,0.685,M,-39.960,M,0.0,*6B
###2023-11-09 13:10:43.629896$GPGSV,2,1,07,05,20,091,43,10,19,294,40,13,23,045,43,15,60,038,46*79
###2023-11-09 13:10:43.632154$GPGSV,2,2,07,18,78,272,46,23,51,317,45,24,51,133,46,,,,*4D
###2023-11-09 13:10:43.634736$GLGSV,2,1,05,70,49,019,36,71,48,291,47,80,19,089,44,85,56,202,48*64
###2023-11-09 13:10:43.636350$GLGSV,2,2,05,86,54,306,47,,,,,,,,,,,,*59
###2023-11-09 13:10:43.638931$GAGSV,1,1,04,07,73,259,44,08,48,043,46,13,63,161,45,26,57,310,44*64
###2023-11-09 13:10:43.641507$GBGSV,2,1,06,11,22,180,40,14,65,009,44,24,21,132,43,26,23,080,44*63
###2023-11-09 13:10:43.643448$GBGSV,2,2,06,28,43,286,46,33,59,305,47,,,,,,,,*67
###2023-11-09 13:10:43.644914$GNVTG,298.06,T,,M,4.22,N,7.81,K,A*2C
###2023-11-09 13:10:43.728137$GNGGA,131043.90,3611.0691809,N,07544.8883928,W,1,24,0.6,0.660,M,-39.960,M,0.0,*6B
###2023-11-09 13:10:43.730716$GPGSV,2,1,07,05,20,091,42,10,19,294,42,13,23,045,41,15,60,038,46*78
###2023-11-09 13:10:43.732978$GPGSV,2,2,07,18,78,272,46,23,51,317,45,24,51,133,45,,,,*4E
###2023-11-09 13:10:43.735562$GLGSV,2,1,05,70,49,019,35,71,48,291,47,80,19,089,44,85,56,202,48*67
###2023-11-09 13:10:43.737186$GLGSV,2,2,05,86,54,306,47,,,,,,,,,,,,*59
###2023-11-09 13:10:43.739769$GAGSV,1,1,04,07,73,259,45,08,48,043,45,13,63,161,46,26,57,310,44*65
###2023-11-09 13:10:43.742351$GBGSV,2,1,06,11,22,180,41,14,65,009,44,24,21,132,44,26,23,080,43*62
###2023-11-09 13:10:43.744291$GBGSV,2,2,06,28,43,286,46,33,59,305,47,,,,,,,,*67
###2023-11-09 13:10:43.745758$GNVTG,302.55,T,,M,4.06,N,7.52,K,A*20
###2023-11-09 13:10:43.832465$GNGGA,131044.00,3611.0692480,N,07544.8885007,W,1,24,0.6,0.632,M,-39.960,M,0.0,*6E
###2023-11-09 13:10:43.835046$GPGSV,2,1,07,05,20,091,41,10,19,294,42,13,23,045,41,15,60,038,46*7B
###2023-11-09 13:10:43.837313$GPGSV,2,2,07,18,78,272,46,23,51,317,45,24,51,133,46,,,,*4D
###2023-11-09 13:10:43.839867$GLGSV,2,1,05,70,49,019,35,71,48,291,48,80,19,089,44,85,56,202,49*69
###2023-11-09 13:10:43.841465$GLGSV,2,2,05,86,54,306,47,,,,,,,,,,,,*59
###2023-11-09 13:10:43.844025$GAGSV,1,1,04,07,73,259,45,08,48,043,45,13,63,161,46,26,57,310,44*65
###2023-11-09 13:10:43.846585$GBGSV,2,1,06,11,22,180,42,14,65,009,44,24,21,132,43,26,23,080,43*66
###2023-11-09 13:10:43.848529$GBGSV,2,2,06,28,43,286,46,33,59,305,47,,,,,,,,*67
###2023-11-09 13:10:43.849994$GNVTG,312.37,T,,M,3.91,N,7.24,K,A*2D
###2023-11-09 13:10:43.939774$GNGGA,131044.10,3611.0693275,N,07544.8885892,W,1,24,0.6,0.617,M,-39.960,M,0.0,*61
###2023-11-09 13:10:43.942390$GPGSV,2,1,07,05,20,091,43,10,19,294,42,13,23,045,41,15,60,038,45*7A
###2023-11-09 13:10:43.944665$GPGSV,2,2,07,18,78,272,46,23,51,317,45,24,51,133,46,,,,*4D
###2023-11-09 13:10:43.947289$GLGSV,2,1,05,70,49,019,35,71,48,291,48,80,19,089,44,85,56,202,49*69
###2023-11-09 13:10:43.948908$GLGSV,2,2,05,86,54,306,47,,,,,,,,,,,,*59
###2023-11-09 13:10:43.951481$GAGSV,1,1,04,07,73,259,45,08,48,043,45,13,63,161,46,26,57,310,44*65
###2023-11-09 13:10:43.954073$GBGSV,2,1,06,11,22,180,42,14,65,009,44,24,21,132,43,26,23,080,44*61
###2023-11-09 13:10:43.956022$GBGSV,2,2,06,28,43,286,46,33,59,305,47,,,,,,,,*67
###2023-11-09 13:10:43.957517$GNVTG,323.23,T,,M,3.85,N,7.13,K,A*2B
###2023-11-09 13:10:44.033624$GNGGA,131044.20,3611.0694128,N,07544.8886662,W,1,24,0.6,0.609,M,-39.960,M,0.0,*63
###2023-11-09 13:10:44.036221$GPGSV,2,1,07,05,20,091,43,10,19,294,42,13,23,045,42,15,60,038,45*79
###2023-11-09 13:10:44.038488$GPGSV,2,2,07,18,78,272,46,23,51,317,45,24,51,133,46,,,,*4D
###2023-11-09 13:10:44.041067$GLGSV,2,1,05,70,49,019,36,71,48,291,48,80,19,089,44,85,56,202,49*6A
###2023-11-09 13:10:44.042676$GLGSV,2,2,05,86,54,306,47,,,,,,,,,,,,*59
###2023-11-09 13:10:44.045248$GAGSV,1,1,04,07,73,259,45,08,48,043,45,13,63,161,46,26,57,310,44*65
###2023-11-09 13:10:44.047843$GBGSV,2,1,06,11,22,180,41,14,65,009,44,24,21,132,43,26,23,080,44*62
###2023-11-09 13:10:44.049787$GBGSV,2,2,06,28,43,286,46,33,59,305,46,,,,,,,,*66
###2023-11-09 13:10:44.051256$GNVTG,324.25,T,,M,3.77,N,6.98,K,A*25
###2023-11-09 13:10:44.132727$GNGGA,131044.30,3611.0694937,N,07544.8887434,W,1,24,0.6,0.601,M,-39.960,M,0.0,*6C
###2023-11-09 13:10:44.135309$GPGSV,2,1,07,05,20,091,43,10,19,294,41,13,23,045,43,15,60,038,46*78
###2023-11-09 13:10:44.137574$GPGSV,2,2,07,18,78,272,46,23,51,317,45,24,51,133,46,,,,*4D
###2023-11-09 13:10:44.140129$GLGSV,2,1,05,70,49,019,36,71,48,291,48,80,19,089,45,85,56,202,48*6A
###2023-11-09 13:10:44.141728$GLGSV,2,2,05,86,54,306,47,,,,,,,,,,,,*59
###2023-11-09 13:10:44.144597$GAGSV,1,1,04,07,73,259,45,08,48,043,45,13,63,161,46,26,57,310,44*65
###2023-11-09 13:10:44.147204$GBGSV,2,1,06,11,22,180,41,14,65,009,44,24,21,132,42,26,23,080,45*62
###2023-11-09 13:10:44.149151$GBGSV,2,2,06,28,43,286,45,33,59,305,46,,,,,,,,*65
###2023-11-09 13:10:44.150618$GNVTG,319.83,T,,M,3.60,N,6.66,K,A*20
###2023-11-09 13:10:44.228534$GNGGA,131044.40,3611.0695655,N,07544.8888244,W,1,24,0.6,0.589,M,-39.960,M,0.0,*6C
###2023-11-09 13:10:44.231156$GPGSV,2,1,07,05,20,091,44,10,19,294,41,13,23,045,43,15,60,038,46*7F
###2023-11-09 13:10:44.233424$GPGSV,2,2,07,18,78,272,46,23,51,317,45,24,51,133,46,,,,*4D
###2023-11-09 13:10:44.236023$GLGSV,2,1,05,70,49,019,36,71,48,291,48,80,19,089,46,85,56,202,48*69
###2023-11-09 13:10:44.237654$GLGSV,2,2,05,86,54,306,47,,,,,,,,,,,,*59
###2023-11-09 13:10:44.240241$GAGSV,1,1,04,07,73,259,45,08,48,043,46,13,63,161,45,26,57,310,44*65
