###2023-11-09 13:06:06.939700$GPGSV,2,2,07,18,77,285,47,23,49,314,45,24,49,137,45,,,,*4F
###2023-11-09 13:06:06.942279$GLGSV,1,1,04,71,48,288,49,80,17,091,45,85,59,204,48,86,52,311,47*61
###2023-11-09 13:06:06.944859$GAGSV,1,1,04,07,72,255,45,08,49,042,45,13,64,160,45,26,56,311,45*6C
###2023-11-09 13:06:06.947458$GBGSV,2,1,06,11,24,180,40,14,65,006,45,24,19,133,42,26,23,082,43*65
###2023-11-09 13:06:06.949401$GBGSV,2,2,06,28,43,289,47,33,58,302,48,,,,,,,,*60
###2023-11-09 13:06:06.950842$GNVTG,59.86,T,,M,0.25,N,0.47,K,A*15
###2023-11-09 13:06:07.034625$GNGGA,130607.20,3611.0387740,N,07544.9837421,W,1,23,0.6,1.023,M,-39.962,M,0.0,*68
###2023-11-09 13:06:07.037245$GPGSV,2,1,07,05,21,089,42,10,17,292,44,13,25,045,41,15,62,036,46*74
###2023-11-09 13:06:07.039519$GPGSV,2,2,07,18,77,285,47,23,49,314,46,24,49,137,45,,,,*4C
###2023-11-09 13:06:07.042119$GLGSV,1,1,04,71,48,288,49,80,17,091,45,85,59,204,47,86,52,311,48*61
###2023-11-09 13:06:07.044701$GAGSV,1,1,04,07,72,255,45,08,49,042,45,13,64,160,45,26,56,311,45*6C
###2023-11-09 13:06:07.047294$GBGSV,2,1,06,11,24,180,40,14,65,006,45,24,19,133,42,26,23,082,43*65
###2023-11-09 13:06:07.049231$GBGSV,2,2,06,28,43,289,47,33,58,302,48,,,,,,,,*60
###2023-11-09 13:06:07.050661$GNVTG,59.86,T,,M,0.16,N,0.29,K,A*1D
###2023-11-09 13:06:07.133256$GNGGA,130607.30,3611.0387749,N,07544.9837345,W,1,23,0.6,1.003,M,-39.962,M,0.0,*67
###2023-11-09 13:06:07.135871$GPGSV,2,1,07,05,21,089,42,10,17,292,44,13,25,045,41,15,62,036,46*74
###2023-11-09 13:06:07.138158$GPGSV,2,2,07,18,77,285,46,23,49,314,46,24,49,137,45,,,,*4D
###2023-11-09 13:06:07.140748$GLGSV,1,1,04,71,48,288,49,80,17,091,45,85,59,204,48,86,52,311,48*6E
###2023-11-09 13:06:07.143338$GAGSV,1,1,04,07,72,255,45,08,49,042,45,13,64,160,45,26,56,311,45*6C
###2023-11-09 13:06:07.145932$GBGSV,2,1,06,11,24,180,40,14,65,006,45,24,19,133,42,26,23,082,43*65
###2023-11-09 13:06:07.147888$GBGSV,2,2,06,28,43,289,47,33,58,302,48,,,,,,,,*60
###2023-11-09 13:06:07.149320$GNVTG,59.86,T,,M,0.29,N,0.54,K,A*1B
###2023-11-09 13:06:07.232966$GNGGA,130607.40,3611.0387783,N,07544.9837209,W,1,23,0.6,0.985,M,-39.962,M,0.0,*69
###2023-11-09 13:06:07.235542$GPGSV,2,1,07,05,21,089,42,10,17,292,44,13,25,045,41,15,62,036,46*74
###2023-11-09 13:06:07.237810$GPGSV,2,2,07,18,77,285,47,23,49,314,46,24,49,137,45,,,,*4C
###2023-11-09 13:06:07.240389$GLGSV,1,1,04,71,48,288,49,80,17,091,45,85,59,204,48,86,52,311,48*6E
###2023-11-09 13:06:07.242957$GAGSV,1,1,04,07,72,255,45,08,49,042,45,13,64,160,45,26,56,311,45*6C
###2023-11-09 13:06:07.245532$GBGSV,2,1,06,11,24,180,40,14,65,006,45,24,19,133,42,26,23,082,43*65
###2023-11-09 13:06:07.247483$GBGSV,2,2,06,28,43,289,47,33,58,302,48,,,,,,,,*60
###2023-11-09 13:06:07.248908$GNVTG,59.86,T,,M,0.54,N,1.01,K,A*10
###2023-11-09 13:06:07.331874$GNGGA,130607.50,3611.0387857,N,07544.9836996,W,1,23,0.6,0.977,M,-39.962,M,0.0,*6F
###2023-11-09 13:06:07.334470$GPGSV,2,1,07,05,21,089,42,10,17,292,45,13,25,045,41,15,62,036,46*75
###2023-11-09 13:06:07.336726$GPGSV,2,2,07,18,77,285,47,23,49,314,46,24,49,137,45,,,,*4C
###2023-11-09 13:06:07.339330$GLGSV,1,1,04,71,48,288,49,80,17,091,45,85,59,204,48,86,52,311,48*6E
###2023-11-09 13:06:07.341904$GAGSV,1,1,04,07,72,255,45,08,49,042,45,13,64,160,45,26,56,311,45*6C
###2023-11-09 13:06:07.344488$GBGSV,2,1,06,11,24,180,40,14,65,006,45,24,19,133,42,26,23,082,42*64
###2023-11-09 13:06:07.346422$GBGSV,2,2,06,28,43,289,47,33,58,302,48,,,,,,,,*60
###2023-11-09 13:06:07.347863$GNVTG,59.86,T,,M,0.78,N,1.44,K,A*1F
###2023-11-09 13:06:07.433501$GNGGA,130607.60,3611.0387953,N,07544.9836742,W,1,23,0.6,0.967,M,-39.962,M,0.0,*6F
###2023-11-09 13:06:07.436109$GPGSV,2,1,07,05,21,089,42,10,17,292,45,13,25,045,41,15,62,036,46*75
###2023-11-09 13:06:07.438432$GPGSV,2,2,07,18,77,285,47,23,49,314,46,24,49,137,45,,,,*4C
###2023-11-09 13:06:07.441017$GLGSV,1,1,04,71,48,288,49,80,17,091,45,85,59,204,48,86,52,311,48*6E
###2023-11-09 13:06:07.443592$GAGSV,1,1,04,07,72,255,45,08,49,042,45,13,64,160,45,26,56,311,45*6C
###2023-11-09 13:06:07.446171$GBGSV,2,1,06,11,24,180,40,14,65,006,45,24,19,133,42,26,23,082,42*64
###2023-11-09 13:06:07.448117$GBGSV,2,2,06,28,43,289,47,33,58,302,48,,,,,,,,*60
###2023-11-09 13:06:07.449546$GNVTG,59.86,T,,M,0.84,N,1.55,K,A*1C
###2023-11-09 13:06:07.531966$GNGGA,130607.70,3611.0388065,N,07544.9836496,W,1,23,0.6,0.955,M,-39.962,M,0.0,*66
###2023-11-09 13:06:07.534539$GPGSV,2,1,07,05,21,089,42,10,17,292,45,13,25,045,41,15,62,036,46*75
###2023-11-09 13:06:07.536776$GPGSV,2,2,07,18,77,285,46,23,49,314,46,24,49,137,45,,,,*4D
###2023-11-09 13:06:07.539345$GLGSV,1,1,04,71,48,288,49,80,17,091,45,85,59,204,48,86,52,311,47*61
###2023-11-09 13:06:07.541906$GAGSV,1,1,04,07,72,255,45,08,49,042,45,13,64,160,45,26,56,311,45*6C
###2023-11-09 13:06:07.544468$GBGSV,2,1,06,11,24,180,40,14,65,006,45,24,19,133,42,26,23,082,42*64
###2023-11-09 13:06:07.546393$GBGSV,2,2,06,28,43,289,47,33,58,302,48,,,,,,,,*60
###2023-11-09 13:06:07.547834$GNVTG,59.86,T,,M,0.80,N,1.48,K,A*14
###2023-11-09 13:06:07.631876$GNGGA,130607.80,3611.0388173,N,07544.9836275,W,1,23,0.6,0.942,M,-39.962,M,0.0,*62
###2023-11-09 13:06:07.634491$GPGSV,2,1,07,05,21,089,42,10,17,292,44,13,25,045,41,15,62,036,46*74
###2023-11-09 13:06:07.636764$GPGSV,2,2,07,18,77,285,46,23,49,314,46,24,49,137,45,,,,*4D
###2023-11-09 13:06:07.639366$GLGSV,1,1,04,71,48,288,49,80,17,091,45,85,59,204,48,86,52,311,47*61
###2023-11-09 13:06:07.641951$GAGSV,1,1,04,07,72,255,45,08,49,042,45,13,64,160,45,26,56,311,45*6C
###2023-11-09 13:06:07.644541$GBGSV,2,1,06,11,24,180,40,14,65,006,45,24,19,133,42,26,23,082,42*64
###2023-11-09 13:06:07.646476$GBGSV,2,2,06,28,43,289,47,33,58,302,48,,,,,,,,*60
###2023-11-09 13:06:07.647919$GNVTG,59.86,T,,M,0.70,N,1.30,K,A*14
###2023-11-09 13:06:07.733488$GNGGA,130607.90,3611.0388263,N,07544.9836058,W,1,23,0.6,0.936,M,-39.962,M,0.0,*6F
###2023-11-09 13:06:07.736080$GPGSV,2,1,07,05,21,089,42,10,17,292,44,13,25,045,41,15,62,036,46*74
###2023-11-09 13:06:07.738358$GPGSV,2,2,07,18,77,285,47,23,49,314,46,24,49,137,45,,,,*4C
###2023-11-09 13:06:07.740940$GLGSV,1,1,04,71,48,288,49,80,17,091,45,85,59,204,48,86,52,311,47*61
###2023-11-09 13:06:07.743529$GAGSV,1,1,04,07,72,255,45,08,49,042,45,13,64,160,45,26,56,311,45*6C
###2023-11-09 13:06:07.746116$GBGSV,2,1,06,11,24,180,40,14,65,006,45,24,19,133,42,26,23,082,43*65
###2023-11-09 13:06:07.748075$GBGSV,2,2,06,28,43,289,47,33,58,302,48,,,,,,,,*60
###2023-11-09 13:06:07.749514$GNVTG,59.86,T,,M,0.70,N,1.30,K,A*14
###2023-11-09 13:06:07.837495$GNGGA,130608.00,3611.0388350,N,07544.9835812,W,1,24,0.6,0.933,M,-39.962,M,0.0,*6F
###2023-11-09 13:06:07.840081$GPGSV,2,1,07,05,21,089,42,10,17,292,44,13,25,045,41,15,62,036,46*74
###2023-11-09 13:06:07.842335$GPGSV,2,2,07,18,77,285,47,23,49,314,46,24,49,137,45,,,,*4C
###2023-11-09 13:06:07.844893$GLGSV,2,1,05,70,50,016,35,71,48,288,49,80,17,091,45,85,59,204,48*69
###2023-11-09 13:06:07.846493$GLGSV,2,2,05,86,52,311,48,,,,,,,,,,,,*56
###2023-11-09 13:06:07.849066$GAGSV,1,1,04,07,72,255,45,08,49,042,45,13,64,160,45,26,56,311,45*6C
###2023-11-09 13:06:07.851654$GBGSV,2,1,06,11,24,180,40,14,65,006,45,24,19,133,42,26,23,082,43*65
###2023-11-09 13:06:07.853600$GBGSV,2,2,06,28,43,289,47,33,58,302,48,,,,,,,,*60
###2023-11-09 13:06:07.855029$GNVTG,59.86,T,,M,0.84,N,1.55,K,A*1C
###2023-11-09 13:06:07.951018$GNGGA,130608.10,3611.0388452,N,07544.9835519,W,1,24,0.6,0.932,M,-39.962,M,0.0,*6C
###2023-11-09 13:06:07.953642$GPGSV,2,1,07,05,21,089,42,10,17,292,44,13,25,045,41,15,62,036,46*74
###2023-11-09 13:06:07.955905$GPGSV,2,2,07,18,77,285,47,23,49,314,46,24,49,137,45,,,,*4C
###2023-11-09 13:06:07.958521$GLGSV,2,1,05,70,50,016,35,71,48,288,49,80,17,091,45,85,59,204,48*69
###2023-11-09 13:06:07.960142$GLGSV,2,2,05,86,52,311,48,,,,,,,,,,,,*56
###2023-11-09 13:06:07.962715$GAGSV,1,1,04,07,72,255,45,08,49,042,45,13,64,160,45,26,56,311,45*6C
###2023-11-09 13:06:07.965301$GBGSV,2,1,06,11,24,180,40,14,65,006,45,24,19,133,42,26,23,082,43*65
###2023-11-09 13:06:07.967246$GBGSV,2,2,06,28,43,289,47,33,58,302,48,,,,,,,,*60
###2023-11-09 13:06:07.968681$GNVTG,66.82,T,,M,1.01,N,1.87,K,A*17
###2023-11-09 13:06:08.038503$GNGGA,130608.20,3611.0388566,N,07544.9835188,W,1,23,0.6,0.935,M,-39.962,M,0.0,*65
###2023-11-09 13:06:08.041386$GPGSV,2,1,07,05,21,089,42,10,17,292,44,13,25,045,41,15,62,036,46*74
###2023-11-09 13:06:08.043662$GPGSV,2,2,07,18,77,285,47,23,49,314,46,24,49,137,45,,,,*4C
###2023-11-09 13:06:08.046242$GLGSV,1,1,04,71,48,288,49,80,17,091,45,85,59,204,48,86,52,311,48*6E
###2023-11-09 13:06:08.048837$GAGSV,1,1,04,07,72,255,45,08,49,042,45,13,64,160,45,26,56,311,45*6C
###2023-11-09 13:06:08.051426$GBGSV,2,1,06,11,24,180,40,14,65,006,45,24,19,133,42,26,23,082,43*65
###2023-11-09 13:06:08.053374$GBGSV,2,2,06,28,43,289,47,33,58,302,48,,,,,,,,*60
###2023-11-09 13:06:08.054812$GNVTG,67.59,T,,M,1.07,N,1.98,K,A*18
###2023-11-09 13:06:08.135985$GNGGA,130608.30,3611.0388681,N,07544.9834854,W,1,23,0.6,0.929,M,-39.962,M,0.0,*6A
###2023-11-09 13:06:08.138611$GPGSV,2,1,07,05,21,089,42,10,17,292,44,13,25,045,41,15,62,036,46*74
###2023-11-09 13:06:08.140870$GPGSV,2,2,07,18,77,285,47,23,49,314,46,24,49,137,45,,,,*4C
###2023-11-09 13:06:08.143438$GLGSV,1,1,04,71,48,288,49,80,17,091,45,85,59,204,48,86,52,311,48*6E
