###2023-11-09 13:09:43.030170$GNGGA,130943.20,3611.0344169,N,07544.9221922,W,1,24,0.6,0.626,M,-39.961,M,0.0,*60
###2023-11-09 13:09:43.032793$GPGSV,2,1,07,05,20,090,41,10,19,293,44,13,24,045,39,15,61,037,46*7D
###2023-11-09 13:09:43.035061$GPGSV,2,2,07,18,78,277,46,23,50,316,46,24,50,134,45,,,,*4E
###2023-11-09 13:09:43.037694$GLGSV,2,1,05,70,50,017,36,71,48,290,49,80,18,090,44,85,57,203,49*65
###2023-11-09 13:09:43.039317$GLGSV,2,2,05,86,53,308,49,,,,,,,,,,,,*5E
###2023-11-09 13:09:43.041885$GAGSV,1,1,04,07,73,259,45,08,48,043,44,13,63,161,45,26,57,310,45*66
###2023-11-09 13:09:43.044470$GBGSV,2,1,06,11,22,180,41,14,65,009,44,24,21,132,42,26,23,080,41*66
###2023-11-09 13:09:43.046404$GBGSV,2,2,06,28,43,286,46,33,59,304,46,,,,,,,,*67
###2023-11-09 13:09:43.047893$GNVTG,73.84,T,,M,5.75,N,10.66,K,A*2D
###2023-11-09 13:09:43.129137$GNGGA,130943.30,3611.0344565,N,07544.9220035,W,1,24,0.6,0.661,M,-39.961,M,0.0,*64
###2023-11-09 13:09:43.131730$GPGSV,2,1,07,05,20,090,41,10,19,293,44,13,24,045,39,15,61,037,46*7D
###2023-11-09 13:09:43.133983$GPGSV,2,2,07,18,78,277,46,23,50,316,45,24,50,134,45,,,,*4D
###2023-11-09 13:09:43.136553$GLGSV,2,1,05,70,50,017,36,71,48,290,49,80,18,090,44,85,57,203,49*65
###2023-11-09 13:09:43.138170$GLGSV,2,2,05,86,53,308,49,,,,,,,,,,,,*5E
###2023-11-09 13:09:43.140738$GAGSV,1,1,04,07,73,259,45,08,48,043,45,13,63,161,45,26,57,310,45*67
###2023-11-09 13:09:43.143316$GBGSV,2,1,06,11,22,180,41,14,65,009,44,24,21,132,42,26,23,080,41*66
###2023-11-09 13:09:43.145252$GBGSV,2,2,06,28,43,286,46,33,59,304,46,,,,,,,,*67
###2023-11-09 13:09:43.146718$GNVTG,77.40,T,,M,5.62,N,10.40,K,A*23
###2023-11-09 13:09:43.228997$GNGGA,130943.40,3611.0344913,N,07544.9218202,W,1,24,0.6,0.684,M,-39.961,M,0.0,*68
###2023-11-09 13:09:43.231578$GPGSV,2,1,07,05,20,090,41,10,19,293,44,13,24,045,39,15,61,037,46*7D
###2023-11-09 13:09:43.233828$GPGSV,2,2,07,18,78,277,46,23,50,316,45,24,50,134,45,,,,*4D
###2023-11-09 13:09:43.236389$GLGSV,2,1,05,70,50,017,36,71,48,290,49,80,18,090,44,85,57,203,49*65
###2023-11-09 13:09:43.238004$GLGSV,2,2,05,86,53,308,49,,,,,,,,,,,,*5E
###2023-11-09 13:09:43.240558$GAGSV,1,1,04,07,73,259,45,08,48,043,45,13,63,161,45,26,57,310,45*67
###2023-11-09 13:09:43.243126$GBGSV,2,1,06,11,22,180,41,14,65,009,44,24,21,132,42,26,23,080,41*66
###2023-11-09 13:09:43.245055$GBGSV,2,2,06,28,43,286,46,33,59,304,46,,,,,,,,*67
###2023-11-09 13:09:43.246478$GNVTG,76.51,T,,M,5.38,N,9.97,K,A*1F
###2023-11-09 13:09:43.328261$GNGGA,130943.50,3611.0345312,N,07544.9216453,W,1,24,0.6,0.715,M,-39.961,M,0.0,*66
###2023-11-09 13:09:43.330849$GPGSV,2,1,07,05,20,090,41,10,19,293,44,13,24,045,39,15,61,037,46*7D
###2023-11-09 13:09:43.333109$GPGSV,2,2,07,18,78,277,46,23,50,316,45,24,50,134,45,,,,*4D
###2023-11-09 13:09:43.335680$GLGSV,2,1,05,70,50,017,36,71,48,290,49,80,18,090,44,85,57,203,49*65
###2023-11-09 13:09:43.337300$GLGSV,2,2,05,86,53,308,48,,,,,,,,,,,,*5F
###2023-11-09 13:09:43.339868$GAGSV,1,1,04,07,73,259,45,08,48,043,45,13,63,161,45,26,57,310,45*67
###2023-11-09 13:09:43.342440$GBGSV,2,1,06,11,22,180,41,14,65,009,44,24,21,132,43,26,23,080,41*67
###2023-11-09 13:09:43.344371$GBGSV,2,2,06,28,43,286,46,33,59,304,46,,,,,,,,*67
###2023-11-09 13:09:43.345802$GNVTG,72.42,T,,M,5.23,N,9.68,K,A*13
###2023-11-09 13:09:43.428158$GNGGA,130943.60,3611.0345815,N,07544.9214790,W,1,24,0.6,0.772,M,-39.961,M,0.0,*66
###2023-11-09 13:09:43.430776$GPGSV,2,1,07,05,20,090,41,10,19,293,44,13,24,045,39,15,61,037,46*7D
###2023-11-09 13:09:43.433034$GPGSV,2,2,07,18,78,277,46,23,50,316,45,24,50,134,45,,,,*4D
###2023-11-09 13:09:43.435615$GLGSV,2,1,05,70,50,017,36,71,48,290,49,80,18,090,44,85,57,203,49*65
###2023-11-09 13:09:43.437257$GLGSV,2,2,05,86,53,308,48,,,,,,,,,,,,*5F
###2023-11-09 13:09:43.439838$GAGSV,1,1,04,07,73,259,45,08,48,043,45,13,63,161,45,26,57,310,45*67
###2023-11-09 13:09:43.442420$GBGSV,2,1,06,11,22,180,42,14,65,009,44,24,21,132,44,26,23,080,41*63
###2023-11-09 13:09:43.444352$GBGSV,2,2,06,28,43,286,47,33,59,304,47,,,,,,,,*67
###2023-11-09 13:09:43.445777$GNVTG,66.93,T,,M,5.13,N,9.50,K,A*12
###2023-11-09 13:09:43.528134$GNGGA,130943.70,3611.0346397,N,07544.9213201,W,1,24,0.6,0.825,M,-39.961,M,0.0,*62
###2023-11-09 13:09:43.530725$GPGSV,2,1,07,05,20,090,41,10,19,293,43,13,24,045,39,15,61,037,46*7A
###2023-11-09 13:09:43.532961$GPGSV,2,2,07,18,78,277,46,23,50,316,45,24,50,134,45,,,,*4D
###2023-11-09 13:09:43.535532$GLGSV,2,1,05,70,50,017,36,71,48,290,49,80,18,090,44,85,57,203,50*6D
###2023-11-09 13:09:43.537180$GLGSV,2,2,05,86,53,308,48,,,,,,,,,,,,*5F
###2023-11-09 13:09:43.539742$GAGSV,1,1,04,07,73,259,45,08,48,043,45,13,63,161,45,26,57,310,45*67
###2023-11-09 13:09:43.542308$GBGSV,2,1,06,11,22,180,42,14,65,009,44,24,21,132,44,26,23,080,41*63
###2023-11-09 13:09:43.544243$GBGSV,2,2,06,28,43,286,47,33,59,304,46,,,,,,,,*66
###2023-11-09 13:09:43.545675$GNVTG,64.75,T,,M,5.05,N,9.36,K,A*1F
###2023-11-09 13:09:43.628534$GNGGA,130943.80,3611.0346971,N,07544.9211638,W,1,24,0.6,0.863,M,-39.961,M,0.0,*61
###2023-11-09 13:09:43.631144$GPGSV,2,1,07,05,20,090,41,10,19,293,43,13,24,045,39,15,61,037,46*7A
###2023-11-09 13:09:43.633406$GPGSV,2,2,07,18,78,277,46,23,50,316,45,24,50,134,45,,,,*4D
###2023-11-09 13:09:43.635980$GLGSV,2,1,05,70,50,017,36,71,48,290,49,80,18,090,44,85,57,203,49*65
###2023-11-09 13:09:43.637609$GLGSV,2,2,05,86,53,308,49,,,,,,,,,,,,*5E
###2023-11-09 13:09:43.640185$GAGSV,1,1,04,07,73,259,45,08,48,043,45,13,63,161,45,26,57,310,45*67
###2023-11-09 13:09:43.642775$GBGSV,2,1,06,11,22,180,42,14,65,009,44,24,21,132,43,26,23,080,41*64
###2023-11-09 13:09:43.644719$GBGSV,2,2,06,28,43,286,47,33,59,304,46,,,,,,,,*66
###2023-11-09 13:09:43.646150$GNVTG,66.82,T,,M,4.98,N,9.22,K,A*15
###2023-11-09 13:09:43.728140$GNGGA,130943.90,3611.0347490,N,07544.9210049,W,1,24,0.6,0.873,M,-39.961,M,0.0,*63
###2023-11-09 13:09:43.730727$GPGSV,2,1,07,05,20,090,41,10,19,293,43,13,24,045,40,15,61,037,46*74
###2023-11-09 13:09:43.732987$GPGSV,2,2,07,18,78,277,46,23,50,316,45,24,50,134,45,,,,*4D
###2023-11-09 13:09:43.735564$GLGSV,2,1,05,70,50,017,36,71,48,290,49,80,18,090,44,85,57,203,49*65
###2023-11-09 13:09:43.737186$GLGSV,2,2,05,86,53,308,49,,,,,,,,,,,,*5E
###2023-11-09 13:09:43.739768$GAGSV,1,1,04,07,73,259,45,08,48,043,45,13,63,161,45,26,57,310,45*67
###2023-11-09 13:09:43.742367$GBGSV,2,1,06,11,22,180,42,14,65,009,44,24,21,132,43,26,23,080,41*64
###2023-11-09 13:09:43.744316$GBGSV,2,2,06,28,43,286,47,33,59,304,46,,,,,,,,*66
###2023-11-09 13:09:43.745751$GNVTG,69.52,T,,M,5.05,N,9.36,K,A*17
###2023-11-09 13:09:43.832254$GNGGA,130944.00,3611.0347970,N,07544.9208436,W,1,24,0.6,0.850,M,-39.961,M,0.0,*6A
###2023-11-09 13:09:43.834833$GPGSV,2,1,07,05,20,090,41,10,19,293,44,13,24,045,40,15,61,037,46*73
###2023-11-09 13:09:43.837091$GPGSV,2,2,07,18,78,277,47,23,50,316,46,24,50,134,45,,,,*4F
###2023-11-09 13:09:43.839652$GLGSV,2,1,05,70,50,017,36,71,48,290,49,80,18,090,45,85,57,203,49*64
###2023-11-09 13:09:43.841256$GLGSV,2,2,05,86,53,308,49,,,,,,,,,,,,*5E
###2023-11-09 13:09:43.843821$GAGSV,1,1,04,07,73,259,45,08,48,043,45,13,63,161,45,26,57,310,45*67
###2023-11-09 13:09:43.846394$GBGSV,2,1,06,11,22,180,42,14,65,009,44,24,21,132,43,26,23,080,41*64
###2023-11-09 13:09:43.848347$GBGSV,2,2,06,28,43,286,47,33,59,304,47,,,,,,,,*67
###2023-11-09 13:09:43.849782$GNVTG,70.42,T,,M,5.00,N,9.25,K,A*19
###2023-11-09 13:09:43.939907$GNGGA,130944.10,3611.0348437,N,07544.9206841,W,1,24,0.6,0.808,M,-39.961,M,0.0,*65
###2023-11-09 13:09:43.942507$GPGSV,2,1,07,05,20,090,42,10,19,293,44,13,24,045,40,15,61,037,46*70
###2023-11-09 13:09:43.944768$GPGSV,2,2,07,18,78,277,47,23,50,316,46,24,50,134,45,,,,*4F
###2023-11-09 13:09:43.947363$GLGSV,2,1,05,70,50,017,36,71,48,290,49,80,18,090,45,85,57,203,49*64
###2023-11-09 13:09:43.948974$GLGSV,2,2,05,86,53,308,49,,,,,,,,,,,,*5E
###2023-11-09 13:09:43.951556$GAGSV,1,1,04,07,73,259,45,08,48,043,45,13,63,161,45,26,57,310,45*67
###2023-11-09 13:09:43.954146$GBGSV,2,1,06,11,22,180,42,14,65,009,45,24,21,132,43,26,23,080,42*66
###2023-11-09 13:09:43.956085$GBGSV,2,2,06,28,43,286,47,33,59,304,47,,,,,,,,*67
###2023-11-09 13:09:43.957529$GNVTG,70.19,T,,M,4.92,N,9.11,K,A*1A
###2023-11-09 13:09:44.032987$GNGGA,130944.20,3611.0348898,N,07544.9205259,W,1,24,0.6,0.771,M,-39.961,M,0.0,*6E
###2023-11-09 13:09:44.035881$GPGSV,2,1,07,05,20,090,42,10,19,293,44,13,24,045,40,15,61,037,46*70
###2023-11-09 13:09:44.038207$GPGSV,2,2,07,18,78,277,47,23,50,316,45,24,50,134,45,,,,*4C
###2023-11-09 13:09:44.040784$GLGSV,2,1,05,70,50,017,36,71,48,290,49,80,18,090,45,85,57,203,49*64
###2023-11-09 13:09:44.042394$GLGSV,2,2,05,86,53,308,49,,,,,,,,,,,,*5E
###2023-11-09 13:09:44.044956$GAGSV,1,1,04,07,73,259,45,08,48,043,45,13,63,161,45,26,57,310,45*67
###2023-11-09 13:09:44.047543$GBGSV,2,1,06,11,22,180,42,14,65,009,45,24,21,132,44,26,23,080,42*61
###2023-11-09 13:09:44.049476$GBGSV,2,2,06,28,43,286,47,33,59,304,47,,,,,,,,*67
###2023-11-09 13:09:44.050904$GNVTG,70.44,T,,M,4.92,N,9.11,K,A*12
###2023-11-09 13:09:44.132330$GNGGA,130944.30,3611.0349380,N,07544.9203687,W,1,24,0.6,0.742,M,-39.961,M,0.0,*6D
