###2023-11-09 13:07:05.835550$GPGSV,2,2,07,18,77,281,47,23,50,315,45,24,49,136,46,,,,*40
###2023-11-09 13:07:05.838181$GLGSV,2,1,05,70,50,016,36,71,48,288,48,80,17,091,44,85,58,203,48*6C
###2023-11-09 13:07:05.839809$GLGSV,2,2,05,86,52,309,48,,,,,,,,,,,,*5F
###2023-11-09 13:07:05.842384$GAGSV,1,1,04,07,72,257,45,08,49,042,45,13,64,160,44,26,56,311,45*6F
###2023-11-09 13:07:05.844959$GBGSV,2,1,06,11,24,180,41,14,65,006,45,24,19,133,43,26,23,082,43*65
###2023-11-09 13:07:05.846896$GBGSV,2,2,06,28,43,289,47,33,58,302,47,,,,,,,,*6F
###2023-11-09 13:07:05.848382$GNVTG,355.09,T,,M,0.86,N,1.58,K,A*2B
###2023-11-09 13:07:05.936376$GNGGA,130706.10,3611.0499031,N,07544.9772248,W,1,24,0.6,1.195,M,-39.961,M,0.0,*6D
###2023-11-09 13:07:05.939021$GPGSV,2,1,07,05,21,090,42,10,18,292,43,13,24,045,42,15,62,037,46*77
###2023-11-09 13:07:05.941299$GPGSV,2,2,07,18,77,281,47,23,50,315,45,24,49,136,46,,,,*40
###2023-11-09 13:07:05.943888$GLGSV,2,1,05,70,50,016,36,71,48,288,48,80,17,091,44,85,58,203,48*6C
###2023-11-09 13:07:05.945500$GLGSV,2,2,05,86,52,309,48,,,,,,,,,,,,*5F
###2023-11-09 13:07:05.948093$GAGSV,1,1,04,07,72,257,45,08,49,042,45,13,64,160,44,26,56,311,45*6F
###2023-11-09 13:07:05.950677$GBGSV,2,1,06,11,24,180,41,14,65,006,45,24,19,133,43,26,23,082,43*65
###2023-11-09 13:07:05.952611$GBGSV,2,2,06,28,43,289,47,33,58,302,47,,,,,,,,*6F
###2023-11-09 13:07:05.954084$GNVTG,355.09,T,,M,0.87,N,1.62,K,A*23
###2023-11-09 13:07:06.031493$GNGGA,130706.20,3611.0499233,N,07544.9772459,W,1,24,0.6,1.197,M,-39.961,M,0.0,*6A
###2023-11-09 13:07:06.034082$GPGSV,2,1,07,05,21,090,42,10,18,292,43,13,24,045,42,15,62,037,46*77
###2023-11-09 13:07:06.036332$GPGSV,2,2,07,18,77,281,47,23,50,315,45,24,49,136,46,,,,*40
###2023-11-09 13:07:06.038921$GLGSV,2,1,05,70,50,016,36,71,48,288,48,80,17,091,44,85,58,203,48*6C
###2023-11-09 13:07:06.040521$GLGSV,2,2,05,86,52,309,48,,,,,,,,,,,,*5F
###2023-11-09 13:07:06.043078$GAGSV,1,1,04,07,72,257,45,08,49,042,45,13,64,160,44,26,56,311,45*6F
###2023-11-09 13:07:06.045644$GBGSV,2,1,06,11,24,180,41,14,65,006,45,24,19,133,43,26,23,082,43*65
###2023-11-09 13:07:06.047585$GBGSV,2,2,06,28,43,289,47,33,58,302,47,,,,,,,,*6F
###2023-11-09 13:07:06.049042$GNVTG,321.77,T,,M,0.99,N,1.84,K,A*2E
###2023-11-09 13:07:06.129392$GNGGA,130706.30,3611.0499500,N,07544.9772636,W,1,24,0.6,1.207,M,-39.961,M,0.0,*6D
###2023-11-09 13:07:06.132010$GPGSV,2,1,07,05,21,090,42,10,18,292,42,13,24,045,41,15,62,037,46*75
###2023-11-09 13:07:06.134280$GPGSV,2,2,07,18,77,281,47,23,50,315,46,24,49,136,46,,,,*43
###2023-11-09 13:07:06.136870$GLGSV,2,1,05,70,50,016,36,71,48,288,48,80,17,091,44,85,58,203,48*6C
###2023-11-09 13:07:06.138624$GLGSV,2,2,05,86,52,309,48,,,,,,,,,,,,*5F
###2023-11-09 13:07:06.141221$GAGSV,1,1,04,07,72,257,45,08,49,042,45,13,64,160,44,26,56,311,45*6F
###2023-11-09 13:07:06.143807$GBGSV,2,1,06,11,24,180,42,14,65,006,45,24,19,133,43,26,23,082,42*67
###2023-11-09 13:07:06.145755$GBGSV,2,2,06,28,43,289,47,33,58,302,47,,,,,,,,*6F
###2023-11-09 13:07:06.147238$GNVTG,339.07,T,,M,1.17,N,2.16,K,A*2F
###2023-11-09 13:07:06.230482$GNGGA,130706.40,3611.0499839,N,07544.9772779,W,1,24,0.6,1.208,M,-39.961,M,0.0,*68
###2023-11-09 13:07:06.233066$GPGSV,2,1,07,05,21,090,42,10,18,292,42,13,24,045,41,15,62,037,45*76
###2023-11-09 13:07:06.235316$GPGSV,2,2,07,18,77,281,47,23,50,315,46,24,49,136,46,,,,*43
###2023-11-09 13:07:06.237906$GLGSV,2,1,05,70,50,016,36,71,48,288,48,80,17,091,44,85,58,203,48*6C
###2023-11-09 13:07:06.239515$GLGSV,2,2,05,86,52,309,48,,,,,,,,,,,,*5F
###2023-11-09 13:07:06.242088$GAGSV,1,1,04,07,72,257,45,08,49,042,45,13,64,160,44,26,56,311,45*6F
###2023-11-09 13:07:06.244666$GBGSV,2,1,06,11,24,180,42,14,65,006,45,24,19,133,43,26,23,082,42*67
###2023-11-09 13:07:06.246594$GBGSV,2,2,06,28,43,289,47,33,58,302,47,,,,,,,,*6F
###2023-11-09 13:07:06.248071$GNVTG,343.42,T,,M,1.36,N,2.52,K,A*20
###2023-11-09 13:07:06.329367$GNGGA,130706.50,3611.0500220,N,07544.9772923,W,1,24,0.6,1.207,M,-39.961,M,0.0,*64
###2023-11-09 13:07:06.331943$GPGSV,2,1,07,05,21,090,42,10,18,292,42,13,24,045,41,15,62,037,45*76
###2023-11-09 13:07:06.334189$GPGSV,2,2,07,18,77,281,47,23,50,315,45,24,49,136,46,,,,*40
###2023-11-09 13:07:06.336748$GLGSV,2,1,05,70,50,016,35,71,48,288,48,80,17,091,44,85,58,203,48*6F
###2023-11-09 13:07:06.338361$GLGSV,2,2,05,86,52,309,48,,,,,,,,,,,,*5F
###2023-11-09 13:07:06.340916$GAGSV,1,1,04,07,72,257,45,08,49,042,45,13,64,160,44,26,56,311,45*6F
###2023-11-09 13:07:06.343491$GBGSV,2,1,06,11,24,180,42,14,65,006,45,24,19,133,43,26,23,082,42*67
###2023-11-09 13:07:06.345411$GBGSV,2,2,06,28,43,289,47,33,58,302,47,,,,,,,,*6F
###2023-11-09 13:07:06.346866$GNVTG,342.74,T,,M,1.46,N,2.70,K,A*23
###2023-11-09 13:07:06.429550$GNGGA,130706.60,3611.0500600,N,07544.9773071,W,1,24,0.6,1.198,M,-39.961,M,0.0,*6B
###2023-11-09 13:07:06.432155$GPGSV,2,1,07,05,21,090,42,10,18,292,42,13,24,045,41,15,62,037,45*76
###2023-11-09 13:07:06.434411$GPGSV,2,2,07,18,77,281,47,23,50,315,45,24,49,136,46,,,,*40
###2023-11-09 13:07:06.436997$GLGSV,2,1,05,70,50,016,35,71,48,288,47,80,17,091,44,85,58,203,48*60
###2023-11-09 13:07:06.438618$GLGSV,2,2,05,86,52,309,48,,,,,,,,,,,,*5F
###2023-11-09 13:07:06.441214$GAGSV,1,1,04,07,72,257,45,08,49,042,45,13,64,160,44,26,56,311,45*6F
###2023-11-09 13:07:06.443781$GBGSV,2,1,06,11,24,180,42,14,65,006,45,24,19,133,43,26,23,082,43*66
###2023-11-09 13:07:06.445720$GBGSV,2,2,06,28,43,289,47,33,58,302,47,,,,,,,,*6F
###2023-11-09 13:07:06.447205$GNVTG,342.25,T,,M,1.34,N,2.48,K,A*29
###2023-11-09 13:07:06.530261$GNGGA,130706.70,3611.0500932,N,07544.9773232,W,1,24,0.6,1.184,M,-39.961,M,0.0,*6C
###2023-11-09 13:07:06.532860$GPGSV,2,1,07,05,21,090,42,10,18,292,42,13,24,045,42,15,62,037,45*75
###2023-11-09 13:07:06.535110$GPGSV,2,2,07,18,77,281,47,23,50,315,45,24,49,136,46,,,,*40
###2023-11-09 13:07:06.537721$GLGSV,2,1,05,70,50,016,35,71,48,288,47,80,17,091,44,85,58,203,48*60
###2023-11-09 13:07:06.539339$GLGSV,2,2,05,86,52,309,48,,,,,,,,,,,,*5F
###2023-11-09 13:07:06.541916$GAGSV,1,1,04,07,72,257,45,08,49,042,45,13,64,160,44,26,56,311,45*6F
###2023-11-09 13:07:06.544499$GBGSV,2,1,06,11,24,180,42,14,65,006,45,24,19,133,43,26,23,082,43*66
###2023-11-09 13:07:06.546435$GBGSV,2,2,06,28,43,289,47,33,58,302,47,,,,,,,,*6F
###2023-11-09 13:07:06.547931$GNVTG,334.42,T,,M,1.17,N,2.16,K,A*23
###2023-11-09 13:07:06.630386$GNGGA,130706.80,3611.0501222,N,07544.9773411,W,1,24,0.6,1.165,M,-39.961,M,0.0,*60
###2023-11-09 13:07:06.632982$GPGSV,2,1,07,05,21,090,42,10,18,292,42,13,24,045,42,15,62,037,46*76
###2023-11-09 13:07:06.635223$GPGSV,2,2,07,18,77,281,47,23,50,315,45,24,49,136,46,,,,*40
###2023-11-09 13:07:06.637798$GLGSV,2,1,05,70,50,016,36,71,48,288,47,80,17,091,44,85,58,203,48*63
###2023-11-09 13:07:06.639398$GLGSV,2,2,05,86,52,309,48,,,,,,,,,,,,*5F
###2023-11-09 13:07:06.641958$GAGSV,1,1,04,07,72,257,45,08,49,042,45,13,64,160,44,26,56,311,45*6F
###2023-11-09 13:07:06.644535$GBGSV,2,1,06,11,24,180,42,14,65,006,45,24,19,133,43,26,23,082,43*66
###2023-11-09 13:07:06.646452$GBGSV,2,2,06,28,43,289,47,33,58,302,47,,,,,,,,*6F
###2023-11-09 13:07:06.647929$GNVTG,332.49,T,,M,1.11,N,2.05,K,A*2A
###2023-11-09 13:07:06.728382$GNGGA,130706.90,3611.0501497,N,07544.9773581,W,1,24,0.6,1.150,M,-39.961,M,0.0,*67
###2023-11-09 13:07:06.730971$GPGSV,2,1,07,05,21,090,42,10,18,292,42,13,24,045,42,15,62,037,46*76
###2023-11-09 13:07:06.733215$GPGSV,2,2,07,18,77,281,47,23,50,315,45,24,49,136,46,,,,*40
###2023-11-09 13:07:06.735790$GLGSV,2,1,05,70,50,016,36,71,48,288,48,80,17,091,44,85,58,203,48*6C
###2023-11-09 13:07:06.737411$GLGSV,2,2,05,86,52,309,48,,,,,,,,,,,,*5F
###2023-11-09 13:07:06.739995$GAGSV,1,1,04,07,72,257,45,08,49,042,45,13,64,160,44,26,56,311,45*6F
###2023-11-09 13:07:06.742583$GBGSV,2,1,06,11,24,180,42,14,65,006,45,24,19,133,43,26,23,082,43*66
###2023-11-09 13:07:06.744510$GBGSV,2,2,06,28,43,289,47,33,58,302,47,,,,,,,,*6F
###2023-11-09 13:07:06.745969$GNVTG,333.67,T,,M,1.05,N,1.94,K,A*29
###2023-11-09 13:07:06.832250$GNGGA,130707.00,3611.0501776,N,07544.9773740,W,1,24,0.6,1.138,M,-39.961,M,0.0,*62
###2023-11-09 13:07:06.834854$GPGSV,2,1,07,05,21,090,42,10,18,292,43,13,24,045,42,15,62,037,45*74
###2023-11-09 13:07:06.837430$GPGSV,2,2,07,18,77,281,47,23,50,315,45,24,49,136,46,,,,*40
###2023-11-09 13:07:06.840026$GLGSV,2,1,05,70,50,016,36,71,48,288,48,80,17,091,44,85,58,203,49*6D
###2023-11-09 13:07:06.841640$GLGSV,2,2,05,86,52,309,48,,,,,,,,,,,,*5F
###2023-11-09 13:07:06.844213$GAGSV,1,1,04,07,72,257,45,08,49,042,45,13,64,160,44,26,56,311,45*6F
###2023-11-09 13:07:06.846791$GBGSV,2,1,06,11,24,180,42,14,65,006,45,24,19,133,43,26,23,082,43*66
###2023-11-09 13:07:06.848751$GBGSV,2,2,06,28,43,289,47,33,58,302,47,,,,,,,,*6F
###2023-11-09 13:07:06.850225$GNVTG,336.35,T,,M,1.11,N,2.05,K,A*25
###2023-11-09 13:07:06.930485$GNGGA,130707.10,3611.0502085,N,07544.9773885,W,1,24,0.6,1.132,M,-39.961,M,0.0,*67
###2023-11-09 13:07:06.933083$GPGSV,2,1,07,05,21,090,42,10,18,292,43,13,24,045,42,15,62,037,44*75
###2023-11-09 13:07:06.935325$GPGSV,2,2,07,18,77,281,47,23,50,315,45,24,49,136,46,,,,*40
