###2023-11-09 13:08:22.738260$GLGSV,2,1,05,70,50,017,36,71,48,290,47,80,18,090,44,85,57,203,48*6A
###2023-11-09 13:08:22.739901$GLGSV,2,2,05,86,53,308,47,,,,,,,,,,,,*50
###2023-11-09 13:08:22.742473$GAGSV,1,1,04,07,72,258,44,08,48,043,45,13,64,160,44,26,57,310,44*60
###2023-11-09 13:08:22.745059$GBGSV,2,1,06,11,23,180,40,14,65,008,45,24,20,132,44,26,23,081,45*64
###2023-11-09 13:08:22.747020$GBGSV,2,2,06,28,43,287,45,33,59,304,47,,,,,,,,*64
###2023-11-09 13:08:22.748491$GNVTG,230.27,T,,M,4.04,N,7.49,K,A*2D
###2023-11-09 13:08:22.831371$GNGGA,130823.00,3611.0352928,N,07545.0155631,W,1,24,0.6,0.937,M,-39.962,M,0.0,*66
###2023-11-09 13:08:22.833962$GPGSV,2,1,07,05,20,090,43,10,18,292,41,13,24,045,41,15,62,037,46*76
###2023-11-09 13:08:22.836220$GPGSV,2,2,07,18,77,281,46,23,50,315,45,24,49,136,46,,,,*41
###2023-11-09 13:08:22.838809$GLGSV,2,1,05,70,50,017,36,71,48,290,47,80,18,090,46,85,57,203,48*68
###2023-11-09 13:08:22.840415$GLGSV,2,2,05,86,53,308,47,,,,,,,,,,,,*50
###2023-11-09 13:08:22.842981$GAGSV,1,1,04,07,72,258,44,08,48,043,45,13,64,160,44,26,57,310,44*60
###2023-11-09 13:08:22.845549$GBGSV,2,1,06,11,23,180,41,14,65,008,45,24,20,132,45,26,23,081,45*64
###2023-11-09 13:08:22.847490$GBGSV,2,2,06,28,43,287,45,33,59,304,47,,,,,,,,*64
###2023-11-09 13:08:22.848956$GNVTG,232.87,T,,M,3.89,N,7.20,K,A*28
###2023-11-09 13:08:22.930371$GNGGA,130823.10,3611.0352299,N,07545.0156674,W,1,24,0.6,0.902,M,-39.962,M,0.0,*62
###2023-11-09 13:08:22.932973$GPGSV,2,1,07,05,20,090,44,10,19,293,41,13,24,045,41,15,62,037,46*71
###2023-11-09 13:08:22.935238$GPGSV,2,2,07,18,77,281,46,23,50,315,45,24,49,136,46,,,,*41
###2023-11-09 13:08:22.937829$GLGSV,2,1,05,70,50,017,36,71,48,290,47,80,18,090,46,85,57,203,48*68
###2023-11-09 13:08:22.939442$GLGSV,2,2,05,86,53,308,47,,,,,,,,,,,,*50
###2023-11-09 13:08:22.942007$GAGSV,1,1,04,07,72,258,44,08,48,043,45,13,64,160,45,26,57,310,44*61
###2023-11-09 13:08:22.944584$GBGSV,2,1,06,11,23,180,41,14,65,008,45,24,20,132,45,26,23,081,45*64
###2023-11-09 13:08:22.946514$GBGSV,2,2,06,28,43,287,45,33,59,304,47,,,,,,,,*64
###2023-11-09 13:08:22.948012$GNVTG,233.87,T,,M,3.69,N,6.84,K,A*28
###2023-11-09 13:08:23.033620$GNGGA,130823.20,3611.0351690,N,07545.0157683,W,1,24,0.6,0.867,M,-39.962,M,0.0,*64
###2023-11-09 13:08:23.036217$GPGSV,2,1,07,05,20,090,44,10,19,293,42,13,24,045,41,15,62,037,46*72
###2023-11-09 13:08:23.038500$GPGSV,2,2,07,18,77,281,46,23,50,315,45,24,49,136,46,,,,*41
###2023-11-09 13:08:23.041083$GLGSV,2,1,05,70,50,017,36,71,48,290,48,80,18,090,46,85,57,203,48*67
###2023-11-09 13:08:23.042694$GLGSV,2,2,05,86,53,308,47,,,,,,,,,,,,*50
###2023-11-09 13:08:23.045279$GAGSV,1,1,04,07,72,258,44,08,48,043,46,13,64,160,45,26,57,310,44*62
###2023-11-09 13:08:23.047883$GBGSV,2,1,06,11,23,180,41,14,65,008,45,24,20,132,44,26,23,081,45*65
###2023-11-09 13:08:23.049838$GBGSV,2,2,06,28,43,287,45,33,59,304,47,,,,,,,,*64
###2023-11-09 13:08:23.051307$GNVTG,232.44,T,,M,3.63,N,6.73,K,A*24
###2023-11-09 13:08:23.129369$GNGGA,130823.30,3611.0351042,N,07545.0158625,W,1,24,0.6,0.833,M,-39.962,M,0.0,*6E
###2023-11-09 13:08:23.131956$GPGSV,2,1,07,05,20,090,44,10,19,293,42,13,24,045,41,15,62,037,46*72
###2023-11-09 13:08:23.134190$GPGSV,2,2,07,18,77,281,46,23,50,315,45,24,49,136,46,,,,*41
###2023-11-09 13:08:23.136749$GLGSV,2,1,05,70,50,017,36,71,48,290,48,80,18,090,46,85,57,203,48*67
###2023-11-09 13:08:23.138363$GLGSV,2,2,05,86,53,308,47,,,,,,,,,,,,*50
###2023-11-09 13:08:23.140922$GAGSV,1,1,04,07,72,258,44,08,48,043,46,13,64,160,45,26,57,310,44*62
###2023-11-09 13:08:23.143487$GBGSV,2,1,06,11,23,180,41,14,65,008,45,24,20,132,43,26,23,081,45*62
###2023-11-09 13:08:23.145416$GBGSV,2,2,06,28,43,287,46,33,59,304,47,,,,,,,,*67
###2023-11-09 13:08:23.146873$GNVTG,226.94,T,,M,3.58,N,6.62,K,A*24
###2023-11-09 13:08:23.229416$GNGGA,130823.40,3611.0350334,N,07545.0159472,W,1,24,0.6,0.804,M,-39.962,M,0.0,*6F
###2023-11-09 13:08:23.232028$GPGSV,2,1,07,05,20,090,44,10,19,293,43,13,24,045,41,15,62,037,46*73
###2023-11-09 13:08:23.234289$GPGSV,2,2,07,18,77,281,46,23,50,315,45,24,49,136,46,,,,*41
###2023-11-09 13:08:23.236882$GLGSV,2,1,05,70,50,017,36,71,48,290,49,80,18,090,45,85,57,203,48*65
###2023-11-09 13:08:23.238512$GLGSV,2,2,05,86,53,308,48,,,,,,,,,,,,*5F
###2023-11-09 13:08:23.241088$GAGSV,1,1,04,07,72,258,44,08,48,043,46,13,64,160,45,26,57,310,45*63
###2023-11-09 13:08:23.243671$GBGSV,2,1,06,11,23,180,41,14,65,008,46,24,20,132,44,26,23,081,44*67
###2023-11-09 13:08:23.245610$GBGSV,2,2,06,28,43,287,47,33,59,304,47,,,,,,,,*66
###2023-11-09 13:08:23.247090$GNVTG,221.21,T,,M,3.52,N,6.52,K,A*24
###2023-11-09 13:08:23.330490$GNGGA,130823.50,3611.0349619,N,07545.0160252,W,1,24,0.6,0.782,M,-39.962,M,0.0,*63
###2023-11-09 13:08:23.333083$GPGSV,2,1,07,05,20,090,44,10,19,293,44,13,24,045,41,15,62,037,46*74
###2023-11-09 13:08:23.335342$GPGSV,2,2,07,18,77,281,46,23,50,315,46,24,49,136,46,,,,*42
###2023-11-09 13:08:23.337935$GLGSV,2,1,05,70,50,017,36,71,48,290,49,80,18,090,45,85,57,203,48*65
###2023-11-09 13:08:23.339549$GLGSV,2,2,05,86,53,308,48,,,,,,,,,,,,*5F
###2023-11-09 13:08:23.342119$GAGSV,1,1,04,07,72,258,44,08,48,043,46,13,64,160,45,26,57,310,45*63
###2023-11-09 13:08:23.344695$GBGSV,2,1,06,11,23,180,41,14,65,008,46,24,20,132,44,26,23,081,44*67
###2023-11-09 13:08:23.346623$GBGSV,2,2,06,28,43,287,47,33,59,304,47,,,,,,,,*66
###2023-11-09 13:08:23.348105$GNVTG,221.85,T,,M,3.34,N,6.19,K,A*25
###2023-11-09 13:08:23.430330$GNGGA,130823.60,3611.0348934,N,07545.0161020,W,1,24,0.6,0.771,M,-39.962,M,0.0,*6B
###2023-11-09 13:08:23.432909$GPGSV,2,1,07,05,20,090,44,10,19,293,44,13,24,045,41,15,62,037,46*74
###2023-11-09 13:08:23.435154$GPGSV,2,2,07,18,77,281,46,23,50,315,46,24,49,136,46,,,,*42
###2023-11-09 13:08:23.437755$GLGSV,2,1,05,70,50,017,36,71,48,290,49,80,18,090,45,85,57,203,48*65
###2023-11-09 13:08:23.439359$GLGSV,2,2,05,86,53,308,48,,,,,,,,,,,,*5F
###2023-11-09 13:08:23.441919$GAGSV,1,1,04,07,72,258,44,08,48,043,46,13,64,160,45,26,57,310,45*63
###2023-11-09 13:08:23.444489$GBGSV,2,1,06,11,23,180,41,14,65,008,45,24,20,132,44,26,23,081,44*64
###2023-11-09 13:08:23.446419$GBGSV,2,2,06,28,43,287,47,33,59,304,47,,,,,,,,*66
###2023-11-09 13:08:23.447899$GNVTG,222.64,T,,M,3.30,N,6.12,K,A*26
###2023-11-09 13:08:23.529523$GNGGA,130823.70,3611.0348242,N,07545.0161799,W,1,24,0.6,0.770,M,-39.962,M,0.0,*64
###2023-11-09 13:08:23.532137$GPGSV,2,1,07,05,20,090,43,10,19,293,44,13,24,045,41,15,62,037,46*73
###2023-11-09 13:08:23.534397$GPGSV,2,2,07,18,77,281,46,23,50,315,46,24,49,136,46,,,,*42
###2023-11-09 13:08:23.536997$GLGSV,2,1,05,70,50,017,37,71,48,290,48,80,18,090,45,85,57,203,48*65
###2023-11-09 13:08:23.538608$GLGSV,2,2,05,86,53,308,48,,,,,,,,,,,,*5F
###2023-11-09 13:08:23.541188$GAGSV,1,1,04,07,72,258,44,08,48,043,46,13,64,160,45,26,57,310,45*63
###2023-11-09 13:08:23.543768$GBGSV,2,1,06,11,23,180,41,14,65,008,45,24,20,132,44,26,23,081,44*64
###2023-11-09 13:08:23.545699$GBGSV,2,2,06,28,43,287,47,33,59,304,47,,,,,,,,*66
###2023-11-09 13:08:23.547177$GNVTG,222.01,T,,M,3.42,N,6.34,K,A*24
###2023-11-09 13:08:23.630492$GNGGA,130823.80,3611.0347496,N,07545.0162582,W,1,24,0.6,0.765,M,-39.962,M,0.0,*64
###2023-11-09 13:08:23.633086$GPGSV,2,1,07,05,20,090,43,10,19,293,44,13,24,045,41,15,62,037,46*73
###2023-11-09 13:08:23.635342$GPGSV,2,2,07,18,77,281,46,23,50,315,46,24,49,136,46,,,,*42
###2023-11-09 13:08:23.637940$GLGSV,2,1,05,70,50,017,37,71,48,290,48,80,18,090,45,85,57,203,48*65
###2023-11-09 13:08:23.639554$GLGSV,2,2,05,86,53,308,48,,,,,,,,,,,,*5F
###2023-11-09 13:08:23.642122$GAGSV,1,1,04,07,72,258,44,08,48,043,46,13,64,160,45,26,57,310,45*63
###2023-11-09 13:08:23.644710$GBGSV,2,1,06,11,23,180,41,14,65,008,45,24,20,132,44,26,23,081,44*64
###2023-11-09 13:08:23.646653$GBGSV,2,2,06,28,43,287,47,33,59,304,47,,,,,,,,*66
###2023-11-09 13:08:23.648141$GNVTG,218.64,T,,M,3.62,N,6.70,K,A*2C
###2023-11-09 13:08:23.729245$GNGGA,130823.90,3611.0346710,N,07545.0163371,W,1,24,0.6,0.749,M,-39.962,M,0.0,*6C
###2023-11-09 13:08:23.731828$GPGSV,2,1,07,05,20,090,43,10,19,293,44,13,24,045,41,15,62,037,46*73
###2023-11-09 13:08:23.734072$GPGSV,2,2,07,18,77,281,46,23,50,315,46,24,49,136,46,,,,*42
###2023-11-09 13:08:23.736951$GLGSV,2,1,05,70,50,017,37,71,48,290,47,80,18,090,45,85,57,203,48*6A
###2023-11-09 13:08:23.738565$GLGSV,2,2,05,86,53,308,48,,,,,,,,,,,,*5F
###2023-11-09 13:08:23.741120$GAGSV,1,1,04,07,72,258,44,08,48,043,45,13,64,160,45,26,57,310,45*60
###2023-11-09 13:08:23.743696$GBGSV,2,1,06,11,23,180,41,14,65,008,45,24,20,132,45,26,23,081,44*65
###2023-11-09 13:08:23.745626$GBGSV,2,2,06,28,43,287,47,33,59,304,47,,,,,,,,*66
###2023-11-09 13:08:23.747098$GNVTG,219.48,T,,M,3.67,N,6.80,K,A*29
###2023-11-09 13:08:23.836777$GNGGA,130824.00,3611.0345932,N,07545.0164194,W,1,24,0.6,0.722,M,-39.962,M,0.0,*6C
###2023-11-09 13:08:23.839422$GPGSV,2,1,07,05,20,090,44,10,19,293,45,13,24,045,41,15,62,037,46*75
###2023-11-09 13:08:23.841693$GPGSV,2,2,07,18,77,281,46,23,50,315,46,24,49,136,46,,,,*42
###2023-11-09 13:08:23.844269$GLGSV,2,1,05,70,50,017,36,71,48,290,47,80,18,090,45,85,57,203,48*6B
