###2023-11-09 13:10:17.629540$GNGGA,131017.80,3611.0500942,N,07544.8777923,W,1,24,0.6,0.555,M,-39.961,M,0.0,*65
###2023-11-09 13:10:17.632168$GPGSV,2,1,07,05,20,091,40,10,19,293,45,13,24,045,42,15,61,037,45*73
###2023-11-09 13:10:17.634428$GPGSV,2,2,07,18,78,277,47,23,50,316,45,24,50,134,45,,,,*4C
###2023-11-09 13:10:17.637022$GLGSV,2,1,05,70,49,019,36,71,48,291,49,80,19,089,43,85,56,202,47*62
###2023-11-09 13:10:17.638639$GLGSV,2,2,05,86,54,306,48,,,,,,,,,,,,*56
###2023-11-09 13:10:17.641216$GAGSV,1,1,04,07,73,259,45,08,48,043,45,13,63,161,45,26,57,310,45*67
###2023-11-09 13:10:17.643803$GBGSV,2,1,06,11,22,180,39,14,65,009,45,24,21,132,42,26,23,080,42*6B
###2023-11-09 13:10:17.645747$GBGSV,2,2,06,28,43,286,48,33,59,305,48,,,,,,,,*66
###2023-11-09 13:10:17.647205$GNVTG,83.60,T,,M,4.32,N,7.99,K,A*1C
###2023-11-09 13:10:17.729484$GNGGA,131017.90,3611.0501006,N,07544.8776442,W,1,24,0.6,0.547,M,-39.961,M,0.0,*64
###2023-11-09 13:10:17.732069$GPGSV,2,1,07,05,20,091,40,10,19,293,45,13,24,045,42,15,61,037,45*73
###2023-11-09 13:10:17.734308$GPGSV,2,2,07,18,78,277,47,23,50,316,45,24,50,134,45,,,,*4C
###2023-11-09 13:10:17.736875$GLGSV,2,1,05,70,49,019,36,71,48,291,49,80,19,089,43,85,56,202,47*62
###2023-11-09 13:10:17.738489$GLGSV,2,2,05,86,54,306,48,,,,,,,,,,,,*56
###2023-11-09 13:10:17.741049$GAGSV,1,1,04,07,73,259,45,08,48,043,45,13,63,161,44,26,57,310,45*66
###2023-11-09 13:10:17.743608$GBGSV,2,1,06,11,22,180,39,14,65,009,45,24,21,132,42,26,23,080,42*6B
###2023-11-09 13:10:17.745531$GBGSV,2,2,06,28,43,286,48,33,59,305,48,,,,,,,,*66
###2023-11-09 13:10:17.746963$GNVTG,89.03,T,,M,4.39,N,8.14,K,A*12
###2023-11-09 13:10:17.832378$GNGGA,131018.00,3611.0501002,N,07544.8774927,W,1,24,0.6,0.531,M,-39.961,M,0.0,*6B
###2023-11-09 13:10:17.834991$GPGSV,2,1,07,05,20,091,40,10,19,293,45,13,24,045,40,15,61,037,45*71
###2023-11-09 13:10:17.837269$GPGSV,2,2,07,18,78,277,47,23,50,316,44,24,50,134,45,,,,*4D
###2023-11-09 13:10:17.839843$GLGSV,2,1,05,70,49,019,36,71,48,291,49,80,19,089,43,85,56,202,48*6D
###2023-11-09 13:10:17.841448$GLGSV,2,2,05,86,54,306,48,,,,,,,,,,,,*56
###2023-11-09 13:10:17.844010$GAGSV,1,1,04,07,73,259,45,08,48,043,45,13,63,161,44,26,57,310,45*66
###2023-11-09 13:10:17.846579$GBGSV,2,1,06,11,22,180,40,14,65,009,45,24,21,132,42,26,23,080,42*65
###2023-11-09 13:10:17.848527$GBGSV,2,2,06,28,43,286,47,33,59,305,48,,,,,,,,*69
###2023-11-09 13:10:17.849957$GNVTG,90.14,T,,M,4.47,N,8.28,K,A*1A
###2023-11-09 13:10:17.934977$GNGGA,131018.10,3611.0501026,N,07544.8773397,W,1,24,0.6,0.493,M,-39.961,M,0.0,*63
###2023-11-09 13:10:17.937575$GPGSV,2,1,07,05,20,091,41,10,19,293,44,13,24,045,39,15,61,037,45*7F
###2023-11-09 13:10:17.939827$GPGSV,2,2,07,18,78,277,47,23,50,316,44,24,50,134,45,,,,*4D
###2023-11-09 13:10:17.942389$GLGSV,2,1,05,70,49,019,35,71,48,291,48,80,19,089,43,85,56,202,48*6F
###2023-11-09 13:10:17.943993$GLGSV,2,2,05,86,54,306,48,,,,,,,,,,,,*56
###2023-11-09 13:10:17.946564$GAGSV,1,1,04,07,73,259,45,08,48,043,45,13,63,161,45,26,57,310,44*66
###2023-11-09 13:10:17.949146$GBGSV,2,1,06,11,22,180,41,14,65,009,45,24,21,132,42,26,23,080,42*64
###2023-11-09 13:10:17.951076$GBGSV,2,2,06,28,43,286,47,33,59,305,47,,,,,,,,*66
###2023-11-09 13:10:17.952502$GNVTG,87.24,T,,M,4.45,N,8.24,K,A*11
###2023-11-09 13:10:18.030955$GNGGA,131018.20,3611.0501129,N,07544.8771898,W,1,24,0.6,0.456,M,-39.961,M,0.0,*61
###2023-11-09 13:10:18.033530$GPGSV,2,1,07,05,20,091,41,10,19,293,43,13,24,045,39,15,61,037,45*78
###2023-11-09 13:10:18.035764$GPGSV,2,2,07,18,78,277,47,23,50,316,44,24,50,134,45,,,,*4D
###2023-11-09 13:10:18.038331$GLGSV,2,1,05,70,49,019,35,71,48,291,48,80,19,089,43,85,56,202,49*6E
###2023-11-09 13:10:18.039925$GLGSV,2,2,05,86,54,306,47,,,,,,,,,,,,*59
###2023-11-09 13:10:18.042473$GAGSV,1,1,04,07,73,259,45,08,48,043,44,13,63,161,45,26,57,310,44*67
###2023-11-09 13:10:18.045031$GBGSV,2,1,06,11,22,180,42,14,65,009,44,24,21,132,44,26,23,080,42*60
###2023-11-09 13:10:18.046960$GBGSV,2,2,06,28,43,286,46,33,59,305,46,,,,,,,,*66
###2023-11-09 13:10:18.048376$GNVTG,82.51,T,,M,4.32,N,7.99,K,A*1F
###2023-11-09 13:10:18.129629$GNGGA,131018.30,3611.0501326,N,07544.8770437,W,1,24,0.6,0.425,M,-39.961,M,0.0,*61
###2023-11-09 13:10:18.132220$GPGSV,2,1,07,05,20,091,41,10,19,293,43,13,24,045,39,15,61,037,45*78
###2023-11-09 13:10:18.134472$GPGSV,2,2,07,18,78,277,47,23,50,316,44,24,50,134,45,,,,*4D
###2023-11-09 13:10:18.137045$GLGSV,2,1,05,70,49,019,35,71,48,291,48,80,19,089,43,85,56,202,49*6E
###2023-11-09 13:10:18.138649$GLGSV,2,2,05,86,54,306,46,,,,,,,,,,,,*58
###2023-11-09 13:10:18.141205$GAGSV,1,1,04,07,73,259,45,08,48,043,44,13,63,161,45,26,57,310,43*60
###2023-11-09 13:10:18.143769$GBGSV,2,1,06,11,22,180,43,14,65,009,44,24,21,132,45,26,23,080,42*60
###2023-11-09 13:10:18.145694$GBGSV,2,2,06,28,43,286,46,33,59,305,46,,,,,,,,*66
###2023-11-09 13:10:18.147126$GNVTG,78.82,T,,M,4.33,N,8.03,K,A*19
###2023-11-09 13:10:18.230485$GNGGA,131018.40,3611.0501561,N,07544.8768984,W,1,24,0.6,0.412,M,-39.961,M,0.0,*6B
###2023-11-09 13:10:18.233064$GPGSV,2,1,07,05,20,091,41,10,19,293,44,13,24,045,39,15,61,037,45*7F
###2023-11-09 13:10:18.235301$GPGSV,2,2,07,18,78,277,46,23,50,316,44,24,50,134,46,,,,*4F
###2023-11-09 13:10:18.237886$GLGSV,2,1,05,70,49,019,35,71,48,291,48,80,19,089,43,85,56,202,48*6F
###2023-11-09 13:10:18.239497$GLGSV,2,2,05,86,54,306,46,,,,,,,,,,,,*58
###2023-11-09 13:10:18.242050$GAGSV,1,1,04,07,73,259,45,08,48,043,44,13,63,161,45,26,57,310,44*67
###2023-11-09 13:10:18.244614$GBGSV,2,1,06,11,22,180,43,14,65,009,44,24,21,132,45,26,23,080,42*60
###2023-11-09 13:10:18.246542$GBGSV,2,2,06,28,43,286,46,33,59,305,46,,,,,,,,*66
###2023-11-09 13:10:18.247987$GNVTG,78.74,T,,M,4.32,N,7.99,K,A*1D
###2023-11-09 13:10:18.329500$GNGGA,131018.50,3611.0501780,N,07544.8767517,W,1,24,0.6,0.411,M,-39.961,M,0.0,*6D
###2023-11-09 13:10:18.332083$GPGSV,2,1,07,05,20,091,41,10,19,293,45,13,24,045,40,15,61,037,45*70
###2023-11-09 13:10:18.334322$GPGSV,2,2,07,18,78,277,46,23,50,316,44,24,50,134,46,,,,*4F
###2023-11-09 13:10:18.336869$GLGSV,2,1,05,70,49,019,35,71,48,291,48,80,19,089,43,85,56,202,48*6F
###2023-11-09 13:10:18.338473$GLGSV,2,2,05,86,54,306,47,,,,,,,,,,,,*59
###2023-11-09 13:10:18.341017$GAGSV,1,1,04,07,73,259,45,08,48,043,45,13,63,161,44,26,57,310,44*67
###2023-11-09 13:10:18.343569$GBGSV,2,1,06,11,22,180,41,14,65,009,44,24,21,132,44,26,23,080,42*63
###2023-11-09 13:10:18.345483$GBGSV,2,2,06,28,43,286,46,33,59,305,47,,,,,,,,*67
###2023-11-09 13:10:18.346896$GNVTG,79.75,T,,M,4.43,N,8.21,K,A*17
###2023-11-09 13:10:18.429134$GNGGA,131018.60,3611.0501955,N,07544.8766045,W,1,24,0.6,0.422,M,-39.961,M,0.0,*6B
###2023-11-09 13:10:18.431725$GPGSV,2,1,07,05,20,091,41,10,19,293,46,13,24,045,40,15,61,037,45*73
###2023-11-09 13:10:18.433979$GPGSV,2,2,07,18,78,277,47,23,50,316,45,24,50,134,45,,,,*4C
###2023-11-09 13:10:18.436544$GLGSV,2,1,05,70,49,019,35,71,48,291,48,80,19,089,43,85,56,202,48*6F
###2023-11-09 13:10:18.438166$GLGSV,2,2,05,86,54,306,48,,,,,,,,,,,,*56
###2023-11-09 13:10:18.440728$GAGSV,1,1,04,07,73,259,45,08,48,043,45,13,63,161,44,26,57,310,45*66
###2023-11-09 13:10:18.443296$GBGSV,2,1,06,11,22,180,41,14,65,009,45,24,21,132,43,26,23,080,42*65
###2023-11-09 13:10:18.445225$GBGSV,2,2,06,28,43,286,47,33,59,305,48,,,,,,,,*69
###2023-11-09 13:10:18.446649$GNVTG,82.69,T,,M,4.30,N,7.96,K,A*19
###2023-11-09 13:10:18.529623$GNGGA,131018.70,3611.0502065,N,07544.8764572,W,1,24,0.6,0.448,M,-39.961,M,0.0,*6C
###2023-11-09 13:10:18.532204$GPGSV,2,1,07,05,20,091,41,10,19,293,46,13,24,045,41,15,61,037,45*72
###2023-11-09 13:10:18.534449$GPGSV,2,2,07,18,78,277,47,23,50,316,45,24,50,134,45,,,,*4C
###2023-11-09 13:10:18.537151$GLGSV,2,1,05,70,49,019,35,71,48,291,49,80,19,089,43,85,56,202,48*6E
###2023-11-09 13:10:18.538757$GLGSV,2,2,05,86,54,306,48,,,,,,,,,,,,*56
###2023-11-09 13:10:18.541323$GAGSV,1,1,04,07,73,259,45,08,48,043,46,13,63,161,44,26,57,310,45*65
###2023-11-09 13:10:18.543890$GBGSV,2,1,06,11,22,180,40,14,65,009,45,24,21,132,43,26,23,080,42*64
###2023-11-09 13:10:18.545823$GBGSV,2,2,06,28,43,286,47,33,59,305,48,,,,,,,,*69
###2023-11-09 13:10:18.547263$GNVTG,85.91,T,,M,4.37,N,8.10,K,A*1F
###2023-11-09 13:10:18.629619$GNGGA,131018.80,3611.0502130,N,07544.8763078,W,1,24,0.6,0.486,M,-39.961,M,0.0,*68
###2023-11-09 13:10:18.632505$GPGSV,2,1,07,05,20,091,42,10,19,293,45,13,24,045,40,15,61,037,45*73
###2023-11-09 13:10:18.634750$GPGSV,2,2,07,18,78,277,47,23,50,316,45,24,50,134,45,,,,*4C
###2023-11-09 13:10:18.637322$GLGSV,2,1,05,70,49,019,35,71,48,291,49,80,19,089,44,85,56,202,48*69
###2023-11-09 13:10:18.638926$GLGSV,2,2,05,86,54,306,48,,,,,,,,,,,,*56
###2023-11-09 13:10:18.641477$GAGSV,1,1,04,07,73,259,45,08,48,043,46,13,63,161,44,26,57,310,45*65
###2023-11-09 13:10:18.644042$GBGSV,2,1,06,11,22,180,40,14,65,009,45,24,21,132,43,26,23,080,42*64
###2023-11-09 13:10:18.645962$GBGSV,2,2,06,28,43,286,47,33,59,305,48,,,,,,,,*69
###2023-11-09 13:10:18.647393$GNVTG,87.10,T,,M,4.39,N,8.14,K,A*1E
###2023-11-09 13:10:18.729512$GNGGA,131018.90,3611.0502203,N,07544.8761585,W,1,24,0.6,0.523,M,-39.961,M,0.0,*61
