###2023-11-09 13:08:02.736695$GLGSV,2,1,05,70,50,017,36,71,48,290,49,80,17,091,44,85,58,203,47*6A
###2023-11-09 13:08:02.738344$GLGSV,2,2,05,86,52,309,49,,,,,,,,,,,,*5E
###2023-11-09 13:08:02.740917$GAGSV,1,1,04,07,72,258,44,08,49,042,45,13,64,160,45,26,56,310,45*61
###2023-11-09 13:08:02.743491$GBGSV,2,1,06,11,23,180,41,14,65,008,45,24,20,132,42,26,23,081,43*65
###2023-11-09 13:08:02.745423$GBGSV,2,2,06,28,43,287,46,33,59,304,48,,,,,,,,*68
###2023-11-09 13:08:02.746886$GNVTG,266.46,T,,M,4.43,N,8.21,K,A*2B
###2023-11-09 13:08:02.833504$GNGGA,130803.00,3611.0452858,N,07544.9864824,W,1,24,0.6,1.057,M,-39.961,M,0.0,*61
###2023-11-09 13:08:02.836131$GPGSV,2,1,07,05,21,090,42,10,18,292,44,13,24,045,42,15,62,037,46*70
###2023-11-09 13:08:02.838430$GPGSV,2,2,07,18,77,281,46,23,50,315,46,24,49,136,44,,,,*40
###2023-11-09 13:08:02.841017$GLGSV,2,1,05,70,50,017,36,71,48,290,49,80,17,091,44,85,58,203,47*6A
###2023-11-09 13:08:02.842640$GLGSV,2,2,05,86,52,309,48,,,,,,,,,,,,*5F
###2023-11-09 13:08:02.845215$GAGSV,1,1,04,07,72,258,44,08,49,042,45,13,64,160,45,26,56,310,45*61
###2023-11-09 13:08:02.847820$GBGSV,2,1,06,11,23,180,41,14,65,008,45,24,20,132,42,26,23,081,43*65
###2023-11-09 13:08:02.849769$GBGSV,2,2,06,28,43,287,46,33,59,304,47,,,,,,,,*67
###2023-11-09 13:08:02.851240$GNVTG,264.68,T,,M,4.59,N,8.50,K,A*28
###2023-11-09 13:08:02.931009$GNGGA,130803.10,3611.0452771,N,07544.9866391,W,1,24,0.6,1.044,M,-39.961,M,0.0,*61
###2023-11-09 13:08:02.933610$GPGSV,2,1,07,05,21,090,42,10,18,292,44,13,24,045,42,15,62,037,46*70
###2023-11-09 13:08:02.935868$GPGSV,2,2,07,18,77,281,46,23,50,315,46,24,49,136,44,,,,*40
###2023-11-09 13:08:02.938478$GLGSV,2,1,05,70,50,017,36,71,48,290,49,80,17,091,44,85,58,203,47*6A
###2023-11-09 13:08:02.940101$GLGSV,2,2,05,86,52,309,48,,,,,,,,,,,,*5F
###2023-11-09 13:08:02.942674$GAGSV,1,1,04,07,72,258,44,08,49,042,45,13,64,160,45,26,56,310,45*61
###2023-11-09 13:08:02.945260$GBGSV,2,1,06,11,23,180,41,14,65,008,45,24,20,132,42,26,23,081,43*65
###2023-11-09 13:08:02.947215$GBGSV,2,2,06,28,43,287,46,33,59,304,47,,,,,,,,*67
###2023-11-09 13:08:02.948692$GNVTG,267.58,T,,M,4.63,N,8.57,K,A*26
###2023-11-09 13:08:03.031982$GNGGA,130803.20,3611.0452730,N,07544.9867940,W,1,24,0.6,1.027,M,-39.961,M,0.0,*65
###2023-11-09 13:08:03.034568$GPGSV,2,1,07,05,21,090,42,10,18,292,44,13,24,045,41,15,62,037,46*73
###2023-11-09 13:08:03.036818$GPGSV,2,2,07,18,77,281,46,23,50,315,46,24,49,136,45,,,,*41
###2023-11-09 13:08:03.039412$GLGSV,2,1,05,70,50,017,36,71,48,290,49,80,17,091,44,85,58,203,47*6A
###2023-11-09 13:08:03.041021$GLGSV,2,2,05,86,52,309,48,,,,,,,,,,,,*5F
###2023-11-09 13:08:03.043594$GAGSV,1,1,04,07,72,258,44,08,49,042,45,13,64,160,45,26,56,310,45*61
###2023-11-09 13:08:03.046169$GBGSV,2,1,06,11,23,180,41,14,65,008,45,24,20,132,42,26,23,081,43*65
###2023-11-09 13:08:03.048113$GBGSV,2,2,06,28,43,287,46,33,59,304,47,,,,,,,,*67
###2023-11-09 13:08:03.049571$GNVTG,268.87,T,,M,4.47,N,8.28,K,A*25
###2023-11-09 13:08:03.129988$GNGGA,130803.30,3611.0452717,N,07544.9869465,W,1,24,0.6,1.023,M,-39.961,M,0.0,*61
###2023-11-09 13:08:03.132581$GPGSV,2,1,07,05,21,090,43,10,18,292,44,13,24,045,41,15,62,037,46*72
###2023-11-09 13:08:03.134832$GPGSV,2,2,07,18,77,281,46,23,50,315,46,24,49,136,45,,,,*41
###2023-11-09 13:08:03.137424$GLGSV,2,1,05,70,50,017,36,71,48,290,48,80,17,091,44,85,58,203,48*64
###2023-11-09 13:08:03.139032$GLGSV,2,2,05,86,52,309,48,,,,,,,,,,,,*5F
###2023-11-09 13:08:03.141593$GAGSV,1,1,04,07,72,258,44,08,49,042,45,13,64,160,45,26,56,310,45*61
###2023-11-09 13:08:03.144163$GBGSV,2,1,06,11,23,180,41,14,65,008,45,24,20,132,42,26,23,081,43*65
###2023-11-09 13:08:03.146086$GBGSV,2,2,06,28,43,287,46,33,59,304,47,,,,,,,,*67
###2023-11-09 13:08:03.147559$GNVTG,270.08,T,,M,4.49,N,8.32,K,A*2E
###2023-11-09 13:08:03.230010$GNGGA,130803.40,3611.0452711,N,07544.9871001,W,1,24,0.6,1.033,M,-39.961,M,0.0,*6E
###2023-11-09 13:08:03.232597$GPGSV,2,1,07,05,21,090,43,10,18,292,44,13,24,045,41,15,62,037,46*72
###2023-11-09 13:08:03.234853$GPGSV,2,2,07,18,77,281,46,23,50,315,46,24,49,136,45,,,,*41
###2023-11-09 13:08:03.237446$GLGSV,2,1,05,70,50,017,36,71,48,290,48,80,17,091,45,85,58,203,48*65
###2023-11-09 13:08:03.239056$GLGSV,2,2,05,86,52,309,48,,,,,,,,,,,,*5F
###2023-11-09 13:08:03.241619$GAGSV,1,1,04,07,72,258,44,08,49,042,45,13,64,160,45,26,56,310,45*61
###2023-11-09 13:08:03.244183$GBGSV,2,1,06,11,23,180,41,14,65,008,45,24,20,132,43,26,23,081,43*64
###2023-11-09 13:08:03.246117$GBGSV,2,2,06,28,43,287,46,33,59,304,48,,,,,,,,*68
###2023-11-09 13:08:03.247592$GNVTG,269.54,T,,M,4.51,N,8.35,K,A*21
###2023-11-09 13:08:03.328478$GNGGA,130803.50,3611.0452685,N,07544.9872561,W,1,24,0.6,1.055,M,-39.961,M,0.0,*63
###2023-11-09 13:08:03.331049$GPGSV,2,1,07,05,21,090,43,10,18,292,44,13,24,045,42,15,62,037,46*71
###2023-11-09 13:08:03.333282$GPGSV,2,2,07,18,77,281,46,23,50,315,46,24,49,136,45,,,,*41
###2023-11-09 13:08:03.335837$GLGSV,2,1,05,70,50,017,36,71,48,290,49,80,17,091,45,85,58,203,47*6B
###2023-11-09 13:08:03.337575$GLGSV,2,2,05,86,52,309,48,,,,,,,,,,,,*5F
###2023-11-09 13:08:03.340145$GAGSV,1,1,04,07,72,258,44,08,49,042,45,13,64,160,45,26,56,310,45*61
###2023-11-09 13:08:03.342720$GBGSV,2,1,06,11,23,180,41,14,65,008,45,24,20,132,43,26,23,081,43*64
###2023-11-09 13:08:03.344647$GBGSV,2,2,06,28,43,287,46,33,59,304,48,,,,,,,,*68
###2023-11-09 13:08:03.346105$GNVTG,268.28,T,,M,4.63,N,8.57,K,A*2E
###2023-11-09 13:08:03.428925$GNGGA,130803.60,3611.0452645,N,07544.9874160,W,1,24,0.6,1.068,M,-39.961,M,0.0,*61
###2023-11-09 13:08:03.431535$GPGSV,2,1,07,05,21,090,43,10,18,292,44,13,24,045,42,15,62,037,46*71
###2023-11-09 13:08:03.433793$GPGSV,2,2,07,18,77,281,46,23,50,315,46,24,49,136,45,,,,*41
###2023-11-09 13:08:03.436382$GLGSV,2,1,05,70,50,017,36,71,48,290,49,80,17,091,44,85,58,203,46*6B
###2023-11-09 13:08:03.438012$GLGSV,2,2,05,86,52,309,48,,,,,,,,,,,,*5F
###2023-11-09 13:08:03.440588$GAGSV,1,1,04,07,72,258,44,08,49,042,45,13,64,160,45,26,56,310,45*61
###2023-11-09 13:08:03.443171$GBGSV,2,1,06,11,23,180,41,14,65,008,45,24,20,132,43,26,23,081,43*64
###2023-11-09 13:08:03.445101$GBGSV,2,2,06,28,43,287,46,33,59,304,47,,,,,,,,*67
###2023-11-09 13:08:03.446566$GNVTG,268.18,T,,M,4.74,N,8.78,K,A*26
###2023-11-09 13:08:03.530230$GNGGA,130803.70,3611.0452601,N,07544.9875778,W,1,24,0.6,1.063,M,-39.961,M,0.0,*65
###2023-11-09 13:08:03.532826$GPGSV,2,1,07,05,21,090,43,10,18,292,44,13,24,045,42,15,62,037,46*71
###2023-11-09 13:08:03.535083$GPGSV,2,2,07,18,77,281,46,23,50,315,46,24,49,136,45,,,,*41
###2023-11-09 13:08:03.537683$GLGSV,2,1,05,70,50,017,36,71,48,290,49,80,17,091,44,85,58,203,47*6A
###2023-11-09 13:08:03.539296$GLGSV,2,2,05,86,52,309,48,,,,,,,,,,,,*5F
###2023-11-09 13:08:03.541866$GAGSV,1,1,04,07,72,258,44,08,49,042,45,13,64,160,45,26,56,310,45*61
###2023-11-09 13:08:03.544443$GBGSV,2,1,06,11,23,180,41,14,65,008,45,24,20,132,43,26,23,081,43*64
###2023-11-09 13:08:03.546379$GBGSV,2,2,06,28,43,287,46,33,59,304,47,,,,,,,,*67
###2023-11-09 13:08:03.547858$GNVTG,268.14,T,,M,4.74,N,8.78,K,A*2A
###2023-11-09 13:08:03.628880$GNGGA,130803.80,3611.0452542,N,07544.9877370,W,1,24,0.6,1.054,M,-39.961,M,0.0,*64
###2023-11-09 13:08:03.631472$GPGSV,2,1,07,05,21,090,43,10,18,292,44,13,24,045,42,15,62,037,46*71
###2023-11-09 13:08:03.633719$GPGSV,2,2,07,18,77,281,46,23,50,315,46,24,49,136,45,,,,*41
###2023-11-09 13:08:03.636287$GLGSV,2,1,05,70,50,017,36,71,48,290,49,80,17,091,44,85,58,203,47*6A
###2023-11-09 13:08:03.637897$GLGSV,2,2,05,86,52,309,48,,,,,,,,,,,,*5F
###2023-11-09 13:08:03.640456$GAGSV,1,1,04,07,72,258,44,08,49,042,45,13,64,160,45,26,56,310,45*61
###2023-11-09 13:08:03.643024$GBGSV,2,1,06,11,23,180,41,14,65,008,45,24,20,132,43,26,23,081,43*64
###2023-11-09 13:08:03.644951$GBGSV,2,2,06,28,43,287,46,33,59,304,47,,,,,,,,*67
###2023-11-09 13:08:03.646408$GNVTG,266.63,T,,M,4.59,N,8.50,K,A*21
###2023-11-09 13:08:03.729034$GNGGA,130803.90,3611.0452444,N,07544.9878933,W,1,24,0.6,1.064,M,-39.961,M,0.0,*63
###2023-11-09 13:08:03.731643$GPGSV,2,1,07,05,21,090,43,10,18,292,44,13,24,045,43,15,62,037,46*70
###2023-11-09 13:08:03.733905$GPGSV,2,2,07,18,77,281,46,23,50,315,46,24,49,136,45,,,,*41
###2023-11-09 13:08:03.736776$GLGSV,2,1,05,70,50,017,36,71,48,290,49,80,17,091,44,85,58,203,47*6A
###2023-11-09 13:08:03.738415$GLGSV,2,2,05,86,52,309,48,,,,,,,,,,,,*5F
###2023-11-09 13:08:03.740998$GAGSV,1,1,04,07,72,258,44,08,49,042,45,13,64,160,45,26,56,310,45*61
###2023-11-09 13:08:03.743593$GBGSV,2,1,06,11,23,180,41,14,65,008,45,24,20,132,43,26,23,081,44*63
###2023-11-09 13:08:03.745530$GBGSV,2,2,06,28,43,287,46,33,59,304,47,,,,,,,,*67
###2023-11-09 13:08:03.747012$GNVTG,264.76,T,,M,4.63,N,8.57,K,A*29
###2023-11-09 13:08:03.831861$GNGGA,130804.00,3611.0452321,N,07544.9880521,W,1,24,0.6,1.082,M,-39.961,M,0.0,*69
###2023-11-09 13:08:03.834451$GPGSV,2,1,07,05,21,090,43,10,18,292,44,13,24,045,43,15,62,037,46*70
###2023-11-09 13:08:03.836700$GPGSV,2,2,07,18,77,281,46,23,50,315,46,24,49,136,45,,,,*41
###2023-11-09 13:08:03.839299$GLGSV,2,1,05,70,50,017,36,71,48,290,49,80,17,091,44,85,58,203,47*6A
