###2023-11-09 13:06:40.235419$GPGSV,2,2,07,18,77,281,47,23,50,315,45,24,49,136,46,,,,*40
###2023-11-09 13:06:40.238026$GLGSV,2,1,05,70,50,016,36,71,48,288,47,80,17,091,44,85,58,203,48*63
###2023-11-09 13:06:40.239632$GLGSV,2,2,05,86,52,309,47,,,,,,,,,,,,*50
###2023-11-09 13:06:40.242188$GAGSV,1,1,04,07,72,255,45,08,49,042,44,13,64,160,44,26,56,311,45*6C
###2023-11-09 13:06:40.244760$GBGSV,2,1,06,11,24,180,42,14,65,006,46,24,19,133,43,26,23,082,42*64
###2023-11-09 13:06:40.246683$GBGSV,2,2,06,28,43,289,47,33,58,302,47,,,,,,,,*6F
###2023-11-09 13:06:40.248157$GNVTG,357.38,T,,M,0.58,N,1.08,K,A*2D
###2023-11-09 13:06:40.329640$GNGGA,130640.50,3611.0440811,N,07544.9793528,W,1,24,0.6,0.916,M,-39.961,M,0.0,*68
###2023-11-09 13:06:40.332247$GPGSV,2,1,07,05,21,090,41,10,18,292,44,13,24,045,41,15,62,037,46*70
###2023-11-09 13:06:40.334503$GPGSV,2,2,07,18,77,281,47,23,50,315,45,24,49,136,46,,,,*40
###2023-11-09 13:06:40.337087$GLGSV,2,1,05,70,50,016,36,71,48,288,48,80,17,091,44,85,58,203,48*6C
###2023-11-09 13:06:40.338697$GLGSV,2,2,05,86,52,309,47,,,,,,,,,,,,*50
###2023-11-09 13:06:40.341258$GAGSV,1,1,04,07,72,255,45,08,49,042,44,13,64,160,44,26,56,311,45*6C
###2023-11-09 13:06:40.343827$GBGSV,2,1,06,11,24,180,42,14,65,006,46,24,19,133,43,26,23,082,42*64
###2023-11-09 13:06:40.345748$GBGSV,2,2,06,28,43,289,47,33,58,302,47,,,,,,,,*6F
###2023-11-09 13:06:40.347225$GNVTG,357.38,T,,M,0.49,N,0.90,K,A*2D
###2023-11-09 13:06:40.431615$GNGGA,130640.60,3611.0440913,N,07544.9793396,W,1,24,0.6,0.906,M,-39.961,M,0.0,*6A
###2023-11-09 13:06:40.434210$GPGSV,2,1,07,05,21,090,42,10,18,292,44,13,24,045,41,15,62,037,46*73
###2023-11-09 13:06:40.436463$GPGSV,2,2,07,18,77,281,47,23,50,315,45,24,49,136,45,,,,*43
###2023-11-09 13:06:40.439086$GLGSV,2,1,05,70,50,016,36,71,48,288,48,80,17,091,44,85,58,203,48*6C
###2023-11-09 13:06:40.440697$GLGSV,2,2,05,86,52,309,47,,,,,,,,,,,,*50
###2023-11-09 13:06:40.443253$GAGSV,1,1,04,07,72,255,45,08,49,042,44,13,64,160,44,26,56,311,45*6C
###2023-11-09 13:06:40.445817$GBGSV,2,1,06,11,24,180,42,14,65,006,46,24,19,133,43,26,23,082,42*64
###2023-11-09 13:06:40.447762$GBGSV,2,2,06,28,43,289,47,33,58,302,47,,,,,,,,*6F
###2023-11-09 13:06:40.449230$GNVTG,357.38,T,,M,0.58,N,1.08,K,A*2D
###2023-11-09 13:06:40.529601$GNGGA,130640.70,3611.0441027,N,07544.9793245,W,1,24,0.6,0.899,M,-39.961,M,0.0,*6C
###2023-11-09 13:06:40.532177$GPGSV,2,1,07,05,21,090,42,10,18,292,44,13,24,045,41,15,62,037,46*73
###2023-11-09 13:06:40.534410$GPGSV,2,2,07,18,77,281,47,23,50,315,45,24,49,136,45,,,,*43
###2023-11-09 13:06:40.536971$GLGSV,2,1,05,70,50,016,36,71,48,288,48,80,17,091,44,85,58,203,48*6C
###2023-11-09 13:06:40.538575$GLGSV,2,2,05,86,52,309,47,,,,,,,,,,,,*50
###2023-11-09 13:06:40.541128$GAGSV,1,1,04,07,72,255,45,08,49,042,44,13,64,160,44,26,56,311,45*6C
###2023-11-09 13:06:40.543682$GBGSV,2,1,06,11,24,180,42,14,65,006,46,24,19,133,43,26,23,082,42*64
###2023-11-09 13:06:40.545592$GBGSV,2,2,06,28,43,289,47,33,58,302,47,,,,,,,,*6F
###2023-11-09 13:06:40.547057$GNVTG,357.38,T,,M,0.62,N,1.15,K,A*28
###2023-11-09 13:06:40.629136$GNGGA,130640.80,3611.0441144,N,07544.9793104,W,1,24,0.6,0.902,M,-39.961,M,0.0,*62
###2023-11-09 13:06:40.631736$GPGSV,2,1,07,05,21,090,42,10,18,292,44,13,24,045,41,15,62,037,46*73
###2023-11-09 13:06:40.634001$GPGSV,2,2,07,18,77,281,47,23,50,315,45,24,49,136,46,,,,*40
###2023-11-09 13:06:40.636580$GLGSV,2,1,05,70,50,016,36,71,48,288,48,80,17,091,44,85,58,203,48*6C
###2023-11-09 13:06:40.638202$GLGSV,2,2,05,86,52,309,48,,,,,,,,,,,,*5F
###2023-11-09 13:06:40.640769$GAGSV,1,1,04,07,72,255,45,08,49,042,44,13,64,160,44,26,56,311,45*6C
###2023-11-09 13:06:40.643337$GBGSV,2,1,06,11,24,180,42,14,65,006,46,24,19,133,43,26,23,082,42*64
###2023-11-09 13:06:40.645268$GBGSV,2,2,06,28,43,289,47,33,58,302,48,,,,,,,,*60
###2023-11-09 13:06:40.646726$GNVTG,357.38,T,,M,0.56,N,1.04,K,A*2F
###2023-11-09 13:06:40.732341$GNGGA,130640.90,3611.0441257,N,07544.9792993,W,1,24,0.6,0.905,M,-39.961,M,0.0,*62
###2023-11-09 13:06:40.734919$GPGSV,2,1,07,05,21,090,42,10,18,292,44,13,24,045,41,15,62,037,46*73
###2023-11-09 13:06:40.737193$GPGSV,2,2,07,18,77,281,47,23,50,315,45,24,49,136,46,,,,*40
###2023-11-09 13:06:40.739763$GLGSV,2,1,05,70,50,016,36,71,48,288,48,80,17,091,44,85,58,203,48*6C
###2023-11-09 13:06:40.741375$GLGSV,2,2,05,86,52,309,48,,,,,,,,,,,,*5F
###2023-11-09 13:06:40.743950$GAGSV,1,1,04,07,72,255,45,08,49,042,44,13,64,160,44,26,56,311,45*6C
###2023-11-09 13:06:40.746539$GBGSV,2,1,06,11,24,180,42,14,65,006,46,24,19,133,43,26,23,082,42*64
###2023-11-09 13:06:40.748484$GBGSV,2,2,06,28,43,289,47,33,58,302,48,,,,,,,,*60
###2023-11-09 13:06:40.749944$GNVTG,357.38,T,,M,0.49,N,0.90,K,A*2D
###2023-11-09 13:06:40.831977$GNGGA,130641.00,3611.0441372,N,07544.9792880,W,1,24,0.6,0.918,M,-39.961,M,0.0,*63
###2023-11-09 13:06:40.834564$GPGSV,2,1,07,05,21,090,42,10,18,292,44,13,24,045,41,15,62,037,46*73
###2023-11-09 13:06:40.836814$GPGSV,2,2,07,18,77,281,47,23,50,315,45,24,49,136,46,,,,*40
###2023-11-09 13:06:40.839389$GLGSV,2,1,05,70,50,016,35,71,48,288,48,80,17,091,44,85,58,203,48*6F
###2023-11-09 13:06:40.840985$GLGSV,2,2,05,86,52,309,48,,,,,,,,,,,,*5F
###2023-11-09 13:06:40.843540$GAGSV,1,1,04,07,72,255,45,08,49,042,44,13,64,160,44,26,56,311,45*6C
###2023-11-09 13:06:40.846104$GBGSV,2,1,06,11,24,180,42,14,65,006,45,24,19,133,43,26,23,082,43*66
###2023-11-09 13:06:40.848048$GBGSV,2,2,06,28,43,289,48,33,58,302,48,,,,,,,,*6F
###2023-11-09 13:06:40.849510$GNVTG,357.38,T,,M,0.58,N,1.08,K,A*2D
###2023-11-09 13:06:40.931999$GNGGA,130641.10,3611.0441523,N,07544.9792769,W,1,24,0.6,0.936,M,-39.961,M,0.0,*64
###2023-11-09 13:06:40.934595$GPGSV,2,1,07,05,21,090,42,10,18,292,44,13,24,045,41,15,62,037,46*73
###2023-11-09 13:06:40.936855$GPGSV,2,2,07,18,77,281,47,23,50,315,45,24,49,136,46,,,,*40
###2023-11-09 13:06:40.939449$GLGSV,2,1,05,70,50,016,36,71,48,288,48,80,17,091,44,85,58,203,48*6C
###2023-11-09 13:06:40.941057$GLGSV,2,2,05,86,52,309,48,,,,,,,,,,,,*5F
###2023-11-09 13:06:40.943639$GAGSV,1,1,04,07,72,255,45,08,49,042,45,13,64,160,44,26,56,311,45*6D
###2023-11-09 13:06:40.946214$GBGSV,2,1,06,11,24,180,42,14,65,006,45,24,19,133,43,26,23,082,43*66
###2023-11-09 13:06:40.948162$GBGSV,2,2,06,28,43,289,47,33,58,302,48,,,,,,,,*60
###2023-11-09 13:06:40.949632$GNVTG,357.38,T,,M,0.68,N,1.26,K,A*22
###2023-11-09 13:06:41.033094$GNGGA,130641.20,3611.0441714,N,07544.9792669,W,1,24,0.6,0.959,M,-39.961,M,0.0,*69
###2023-11-09 13:06:41.035673$GPGSV,2,1,07,05,21,090,42,10,18,292,43,13,24,045,41,15,62,037,46*74
###2023-11-09 13:06:41.037947$GPGSV,2,2,07,18,77,281,47,23,50,315,45,24,49,136,46,,,,*40
###2023-11-09 13:06:41.040520$GLGSV,2,1,05,70,50,016,36,71,48,288,48,80,17,091,44,85,58,203,48*6C
###2023-11-09 13:06:41.042135$GLGSV,2,2,05,86,52,309,48,,,,,,,,,,,,*5F
###2023-11-09 13:06:41.044704$GAGSV,1,1,04,07,72,255,45,08,49,042,45,13,64,160,44,26,56,311,45*6D
###2023-11-09 13:06:41.047283$GBGSV,2,1,06,11,24,180,42,14,65,006,45,24,19,133,43,26,23,082,43*66
###2023-11-09 13:06:41.049215$GBGSV,2,2,06,28,43,289,47,33,58,302,48,,,,,,,,*60
###2023-11-09 13:06:41.050678$GNVTG,357.38,T,,M,0.82,N,1.51,K,A*26
###2023-11-09 13:06:41.129955$GNGGA,130641.30,3611.0441942,N,07544.9792573,W,1,24,0.6,0.982,M,-39.961,M,0.0,*6B
###2023-11-09 13:06:41.132529$GPGSV,2,1,07,05,21,090,42,10,18,292,43,13,24,045,41,15,62,037,46*74
###2023-11-09 13:06:41.134768$GPGSV,2,2,07,18,77,281,47,23,50,315,45,24,49,136,46,,,,*40
###2023-11-09 13:06:41.137339$GLGSV,2,1,05,70,50,016,35,71,48,288,48,80,17,091,44,85,58,203,48*6F
###2023-11-09 13:06:41.138942$GLGSV,2,2,05,86,52,309,47,,,,,,,,,,,,*50
###2023-11-09 13:06:41.141496$GAGSV,1,1,04,07,72,255,45,08,49,042,45,13,64,160,44,26,56,311,45*6D
###2023-11-09 13:06:41.144045$GBGSV,2,1,06,11,24,180,42,14,65,006,45,24,19,133,43,26,23,082,43*66
###2023-11-09 13:06:41.145966$GBGSV,2,2,06,28,43,289,47,33,58,302,48,,,,,,,,*60
###2023-11-09 13:06:41.147427$GNVTG,357.38,T,,M,0.91,N,1.69,K,A*2F
###2023-11-09 13:06:41.230228$GNGGA,130641.40,3611.0442206,N,07544.9792487,W,1,24,0.6,1.006,M,-39.961,M,0.0,*6A
###2023-11-09 13:06:41.232822$GPGSV,2,1,07,05,21,090,42,10,18,292,43,13,24,045,41,15,62,037,46*74
###2023-11-09 13:06:41.235366$GPGSV,2,2,07,18,77,281,47,23,50,315,45,24,49,136,46,,,,*40
###2023-11-09 13:06:41.237969$GLGSV,2,1,05,70,50,016,36,71,48,288,47,80,17,091,44,85,58,203,48*63
###2023-11-09 13:06:41.239590$GLGSV,2,2,05,86,52,309,47,,,,,,,,,,,,*50
###2023-11-09 13:06:41.242149$GAGSV,1,1,04,07,72,255,45,08,49,042,45,13,64,160,44,26,56,311,45*6D
###2023-11-09 13:06:41.244712$GBGSV,2,1,06,11,24,180,42,14,65,006,45,24,19,133,43,26,23,082,43*66
###2023-11-09 13:06:41.246655$GBGSV,2,2,06,28,43,289,47,33,58,302,47,,,,,,,,*6F
###2023-11-09 13:06:41.248095$GNVTG,13.10,T,,M,1.03,N,1.91,K,A*1B
###2023-11-09 13:06:41.336090$GNGGA,130641.50,3611.0442485,N,07544.9792405,W,1,24,0.6,1.023,M,-39.961,M,0.0,*6B
###2023-11-09 13:06:41.338700$GPGSV,2,1,07,05,21,090,42,10,18,292,43,13,24,045,41,15,62,037,46*74
###2023-11-09 13:06:41.340959$GPGSV,2,2,07,18,77,281,47,23,50,315,45,24,49,136,46,,,,*40
