###2023-11-09 13:08:10.531171$GPGSV,2,1,07,05,21,090,43,10,18,292,43,13,24,045,42,15,62,037,46*76
###2023-11-09 13:08:10.533449$GPGSV,2,2,07,18,77,281,46,23,50,315,44,24,49,136,46,,,,*40
###2023-11-09 13:08:10.536023$GLGSV,2,1,05,70,50,017,37,71,48,290,48,80,18,090,44,85,57,203,48*64
###2023-11-09 13:08:10.537651$GLGSV,2,2,05,86,52,309,47,,,,,,,,,,,,*50
###2023-11-09 13:08:10.540220$GAGSV,1,1,04,07,72,258,44,08,49,042,45,13,64,160,45,26,56,310,44*60
###2023-11-09 13:08:10.542786$GBGSV,2,1,06,11,23,180,40,14,65,008,46,24,20,132,44,26,23,081,44*66
###2023-11-09 13:08:10.544712$GBGSV,2,2,06,28,43,287,45,33,59,304,47,,,,,,,,*64
###2023-11-09 13:08:10.546176$GNVTG,246.06,T,,M,4.59,N,8.50,K,A*20
###2023-11-09 13:08:10.626627$GNGGA,130810.80,3611.0416179,N,07544.9985795,W,1,24,0.6,1.044,M,-39.962,M,0.0,*6B
###2023-11-09 13:08:10.629257$GPGSV,2,1,07,05,21,090,43,10,18,292,42,13,24,045,42,15,62,037,46*77
###2023-11-09 13:08:10.631525$GPGSV,2,2,07,18,77,281,46,23,50,315,44,24,49,136,46,,,,*40
###2023-11-09 13:08:10.634103$GLGSV,2,1,05,70,50,017,37,71,48,290,48,80,18,090,45,85,57,203,48*65
###2023-11-09 13:08:10.635712$GLGSV,2,2,05,86,52,309,47,,,,,,,,,,,,*50
###2023-11-09 13:08:10.638297$GAGSV,1,1,04,07,72,258,44,08,49,042,45,13,64,160,45,26,56,310,44*60
###2023-11-09 13:08:10.640892$GBGSV,2,1,06,11,23,180,41,14,65,008,46,24,20,132,44,26,23,081,44*67
###2023-11-09 13:08:10.642832$GBGSV,2,2,06,28,43,287,45,33,59,304,47,,,,,,,,*64
###2023-11-09 13:08:10.644303$GNVTG,245.91,T,,M,4.45,N,8.24,K,A*23
###2023-11-09 13:08:10.728888$GNGGA,130810.90,3611.0415665,N,07544.9987174,W,1,24,0.6,1.042,M,-39.962,M,0.0,*6E
###2023-11-09 13:08:10.731491$GPGSV,2,1,07,05,21,090,43,10,18,292,42,13,24,045,42,15,62,037,46*77
###2023-11-09 13:08:10.733759$GPGSV,2,2,07,18,77,281,46,23,50,315,44,24,49,136,46,,,,*40
###2023-11-09 13:08:10.736336$GLGSV,2,1,05,70,50,017,36,71,48,290,48,80,18,090,45,85,57,203,48*64
###2023-11-09 13:08:10.737969$GLGSV,2,2,05,86,52,309,47,,,,,,,,,,,,*50
###2023-11-09 13:08:10.740554$GAGSV,1,1,04,07,72,258,44,08,49,042,45,13,64,160,45,26,56,310,44*60
###2023-11-09 13:08:10.743142$GBGSV,2,1,06,11,23,180,41,14,65,008,46,24,20,132,44,26,23,081,44*67
###2023-11-09 13:08:10.745084$GBGSV,2,2,06,28,43,287,45,33,59,304,47,,,,,,,,*64
###2023-11-09 13:08:10.746554$GNVTG,244.63,T,,M,4.43,N,8.21,K,A*2C
###2023-11-09 13:08:10.830847$GNGGA,130811.00,3611.0415140,N,07544.9988541,W,1,24,0.6,1.047,M,-39.962,M,0.0,*6E
###2023-11-09 13:08:10.833430$GPGSV,2,1,07,05,21,090,43,10,18,292,42,13,24,045,42,15,62,037,46*77
###2023-11-09 13:08:10.835672$GPGSV,2,2,07,18,77,281,46,23,50,315,44,24,49,136,47,,,,*41
###2023-11-09 13:08:10.838267$GLGSV,2,1,05,70,50,017,36,71,48,290,48,80,18,090,45,85,57,203,48*64
###2023-11-09 13:08:10.839874$GLGSV,2,2,05,86,52,309,47,,,,,,,,,,,,*50
###2023-11-09 13:08:10.842438$GAGSV,1,1,04,07,72,258,44,08,49,042,45,13,64,160,45,26,56,310,44*60
###2023-11-09 13:08:10.845010$GBGSV,2,1,06,11,23,180,41,14,65,008,46,24,20,132,44,26,23,081,44*67
###2023-11-09 13:08:10.846948$GBGSV,2,2,06,28,43,287,46,33,59,304,47,,,,,,,,*67
###2023-11-09 13:08:10.848410$GNVTG,244.76,T,,M,4.43,N,8.21,K,A*28
###2023-11-09 13:08:10.929516$GNGGA,130811.10,3611.0414600,N,07544.9989901,W,1,24,0.6,1.047,M,-39.962,M,0.0,*64
###2023-11-09 13:08:10.932125$GPGSV,2,1,07,05,21,090,43,10,18,292,43,13,24,045,42,15,62,037,46*76
###2023-11-09 13:08:10.934401$GPGSV,2,2,07,18,77,281,46,23,50,315,45,24,49,136,46,,,,*41
###2023-11-09 13:08:10.937002$GLGSV,2,1,05,70,50,017,37,71,48,290,48,80,18,090,45,85,57,203,48*65
###2023-11-09 13:08:10.938614$GLGSV,2,2,05,86,53,308,48,,,,,,,,,,,,*5F
###2023-11-09 13:08:10.941184$GAGSV,1,1,04,07,72,258,44,08,49,042,45,13,64,160,45,26,56,310,44*60
###2023-11-09 13:08:10.943765$GBGSV,2,1,06,11,23,180,41,14,65,008,46,24,20,132,44,26,23,081,44*67
###2023-11-09 13:08:10.945699$GBGSV,2,2,06,28,43,287,46,33,59,304,47,,,,,,,,*67
###2023-11-09 13:08:10.947181$GNVTG,243.19,T,,M,4.43,N,8.21,K,A*26
###2023-11-09 13:08:11.033367$GNGGA,130811.20,3611.0414021,N,07544.9991217,W,1,24,0.6,1.035,M,-39.962,M,0.0,*62
###2023-11-09 13:08:11.035950$GPGSV,2,1,07,05,21,090,42,10,18,292,43,13,24,045,42,15,62,037,46*77
###2023-11-09 13:08:11.038223$GPGSV,2,2,07,18,77,281,46,23,50,315,45,24,49,136,46,,,,*41
###2023-11-09 13:08:11.040795$GLGSV,2,1,05,70,50,017,37,71,48,290,48,80,18,090,44,85,57,203,48*64
###2023-11-09 13:08:11.042396$GLGSV,2,2,05,86,53,308,48,,,,,,,,,,,,*5F
###2023-11-09 13:08:11.044959$GAGSV,1,1,04,07,72,258,44,08,49,042,45,13,64,160,45,26,56,310,44*60
###2023-11-09 13:08:11.047553$GBGSV,2,1,06,11,23,180,40,14,65,008,46,24,20,132,43,26,23,081,44*61
###2023-11-09 13:08:11.049487$GBGSV,2,2,06,28,43,287,46,33,59,304,47,,,,,,,,*67
###2023-11-09 13:08:11.050949$GNVTG,239.78,T,,M,4.35,N,8.06,K,A*28
###2023-11-09 13:08:11.129610$GNGGA,130811.30,3611.0413397,N,07544.9992467,W,1,24,0.6,1.016,M,-39.962,M,0.0,*69
###2023-11-09 13:08:11.132190$GPGSV,2,1,07,05,21,090,42,10,18,292,44,13,24,045,42,15,62,037,46*70
###2023-11-09 13:08:11.134429$GPGSV,2,2,07,18,77,281,46,23,50,315,45,24,49,136,46,,,,*41
###2023-11-09 13:08:11.136993$GLGSV,2,1,05,70,50,017,37,71,48,290,49,80,18,090,44,85,57,203,48*65
###2023-11-09 13:08:11.138589$GLGSV,2,2,05,86,53,308,48,,,,,,,,,,,,*5F
###2023-11-09 13:08:11.141136$GAGSV,1,1,04,07,72,258,44,08,49,042,45,13,64,160,45,26,56,310,44*60
###2023-11-09 13:08:11.143700$GBGSV,2,1,06,11,23,180,40,14,65,008,46,24,20,132,43,26,23,081,44*61
###2023-11-09 13:08:11.145622$GBGSV,2,2,06,28,43,287,46,33,59,304,47,,,,,,,,*67
###2023-11-09 13:08:11.147082$GNVTG,237.03,T,,M,4.28,N,7.92,K,A*24
###2023-11-09 13:08:11.227667$GNGGA,130811.40,3611.0412756,N,07544.9993671,W,1,24,0.6,0.997,M,-39.962,M,0.0,*63
###2023-11-09 13:08:11.230277$GPGSV,2,1,07,05,21,090,42,10,18,292,43,13,24,045,42,15,62,037,46*77
###2023-11-09 13:08:11.232525$GPGSV,2,2,07,18,77,281,46,23,50,315,45,24,49,136,46,,,,*41
###2023-11-09 13:08:11.235094$GLGSV,2,1,05,70,50,017,37,71,48,290,49,80,18,090,44,85,57,203,48*65
###2023-11-09 13:08:11.236697$GLGSV,2,2,05,86,53,308,48,,,,,,,,,,,,*5F
###2023-11-09 13:08:11.239277$GAGSV,1,1,04,07,72,258,44,08,49,042,45,13,64,160,45,26,56,310,44*60
###2023-11-09 13:08:11.241855$GBGSV,2,1,06,11,23,180,40,14,65,008,46,24,20,132,43,26,23,081,44*61
###2023-11-09 13:08:11.243790$GBGSV,2,2,06,28,43,287,46,33,59,304,47,,,,,,,,*67
###2023-11-09 13:08:11.245250$GNVTG,236.44,T,,M,4.18,N,7.74,K,A*2D
###2023-11-09 13:08:11.328624$GNGGA,130811.50,3611.0412129,N,07544.9994851,W,1,24,0.6,0.982,M,-39.962,M,0.0,*63
###2023-11-09 13:08:11.331201$GPGSV,2,1,07,05,21,090,43,10,18,292,43,13,24,045,42,15,62,037,46*76
###2023-11-09 13:08:11.333453$GPGSV,2,2,07,18,77,281,46,23,50,315,45,24,49,136,46,,,,*41
###2023-11-09 13:08:11.336022$GLGSV,2,1,05,70,50,017,37,71,48,290,49,80,18,090,44,85,57,203,48*65
###2023-11-09 13:08:11.337640$GLGSV,2,2,05,86,53,308,48,,,,,,,,,,,,*5F
###2023-11-09 13:08:11.340223$GAGSV,1,1,04,07,72,258,44,08,49,042,45,13,64,160,45,26,56,310,44*60
###2023-11-09 13:08:11.342807$GBGSV,2,1,06,11,23,180,41,14,65,008,46,24,20,132,43,26,23,081,44*60
###2023-11-09 13:08:11.344745$GBGSV,2,2,06,28,43,287,46,33,59,304,47,,,,,,,,*67
###2023-11-09 13:08:11.346212$GNVTG,237.06,T,,M,4.08,N,7.56,K,A*2B
###2023-11-09 13:08:11.427788$GNGGA,130811.60,3611.0411527,N,07544.9996012,W,1,24,0.6,0.979,M,-39.962,M,0.0,*60
###2023-11-09 13:08:11.430382$GPGSV,2,1,07,05,21,090,43,10,18,292,43,13,24,045,42,15,62,037,46*76
###2023-11-09 13:08:11.432629$GPGSV,2,2,07,18,77,281,46,23,50,315,45,24,49,136,46,,,,*41
###2023-11-09 13:08:11.435204$GLGSV,2,1,05,70,50,017,37,71,48,290,49,80,18,090,45,85,57,203,48*64
###2023-11-09 13:08:11.436806$GLGSV,2,2,05,86,53,308,48,,,,,,,,,,,,*5F
###2023-11-09 13:08:11.439377$GAGSV,1,1,04,07,72,258,44,08,49,042,45,13,64,160,44,26,56,310,44*61
###2023-11-09 13:08:11.441951$GBGSV,2,1,06,11,23,180,41,14,65,008,46,24,20,132,44,26,23,081,44*67
###2023-11-09 13:08:11.443888$GBGSV,2,2,06,28,43,287,46,33,59,304,47,,,,,,,,*67
###2023-11-09 13:08:11.445349$GNVTG,237.73,T,,M,4.00,N,7.42,K,A*24
###2023-11-09 13:08:11.526877$GNGGA,130811.70,3611.0410947,N,07544.9997156,W,1,24,0.6,0.978,M,-39.962,M,0.0,*6B
###2023-11-09 13:08:11.529800$GPGSV,2,1,07,05,21,090,43,10,18,292,43,13,24,045,42,15,62,037,46*76
###2023-11-09 13:08:11.532073$GPGSV,2,2,07,18,77,281,46,23,50,315,45,24,49,136,46,,,,*41
###2023-11-09 13:08:11.534660$GLGSV,2,1,05,70,50,017,37,71,48,290,49,80,18,090,45,85,57,203,48*64
###2023-11-09 13:08:11.536283$GLGSV,2,2,05,86,53,308,48,,,,,,,,,,,,*5F
###2023-11-09 13:08:11.538873$GAGSV,1,1,04,07,72,258,44,08,49,042,45,13,64,160,44,26,56,310,44*61
###2023-11-09 13:08:11.541456$GBGSV,2,1,06,11,23,180,41,14,65,008,46,24,20,132,44,26,23,081,44*67
###2023-11-09 13:08:11.543394$GBGSV,2,2,06,28,43,287,46,33,59,304,47,,,,,,,,*67
###2023-11-09 13:08:11.544862$GNVTG,238.27,T,,M,3.93,N,7.27,K,A*24
###2023-11-09 13:08:11.627632$GNGGA,130811.80,3611.0410381,N,07544.9998294,W,1,24,0.6,0.979,M,-39.962,M,0.0,*67
###2023-11-09 13:08:11.630217$GPGSV,2,1,07,05,21,090,43,10,18,292,43,13,24,045,42,15,62,037,46*76
