###2023-11-09 13:07:41.436073$GLGSV,2,1,05,70,50,016,35,71,48,288,49,80,17,091,42,85,58,203,48*68
###2023-11-09 13:07:41.437724$GLGSV,2,2,05,86,52,309,48,,,,,,,,,,,,*5F
###2023-11-09 13:07:41.440300$GAGSV,1,1,04,07,72,257,45,08,49,042,44,13,64,160,45,26,56,310,45*6E
###2023-11-09 13:07:41.442877$GBGSV,2,1,06,11,23,180,41,14,65,008,45,24,20,132,41,26,23,082,41*67
###2023-11-09 13:07:41.444801$GBGSV,2,2,06,28,43,289,48,33,58,302,47,,,,,,,,*60
###2023-11-09 13:07:41.446258$GNVTG,130.25,T,,M,3.91,N,7.24,K,A*2C
###2023-11-09 13:07:41.528531$GNGGA,130741.70,3611.0552141,N,07544.9729521,W,1,24,0.6,1.100,M,-39.961,M,0.0,*62
###2023-11-09 13:07:41.531130$GPGSV,2,1,07,05,21,090,41,10,18,292,44,13,24,045,42,15,62,037,46*73
###2023-11-09 13:07:41.533394$GPGSV,2,2,07,18,77,281,46,23,50,315,46,24,49,136,45,,,,*41
###2023-11-09 13:07:41.535987$GLGSV,2,1,05,70,50,016,35,71,48,288,49,80,17,091,43,85,58,203,48*69
###2023-11-09 13:07:41.537618$GLGSV,2,2,05,86,52,309,48,,,,,,,,,,,,*5F
###2023-11-09 13:07:41.540190$GAGSV,1,1,04,07,72,257,45,08,49,042,45,13,64,160,45,26,56,310,45*6F
###2023-11-09 13:07:41.542766$GBGSV,2,1,06,11,23,180,41,14,65,008,46,24,20,132,41,26,23,082,43*66
###2023-11-09 13:07:41.544709$GBGSV,2,2,06,28,43,289,47,33,58,302,47,,,,,,,,*6F
###2023-11-09 13:07:41.546181$GNVTG,132.63,T,,M,3.91,N,7.24,K,A*2C
###2023-11-09 13:07:41.630743$GNGGA,130741.80,3611.0551369,N,07544.9728605,W,1,24,0.6,1.075,M,-39.961,M,0.0,*61
###2023-11-09 13:07:41.633351$GPGSV,2,1,07,05,21,090,41,10,18,292,44,13,24,045,43,15,62,037,46*72
###2023-11-09 13:07:41.635621$GPGSV,2,2,07,18,77,281,46,23,50,315,46,24,49,136,45,,,,*41
###2023-11-09 13:07:41.638229$GLGSV,2,1,05,70,50,016,35,71,48,288,49,80,17,091,43,85,58,203,47*66
###2023-11-09 13:07:41.639863$GLGSV,2,2,05,86,52,309,48,,,,,,,,,,,,*5F
###2023-11-09 13:07:41.642481$GAGSV,1,1,04,07,72,257,45,08,49,042,45,13,64,160,45,26,56,310,45*6F
###2023-11-09 13:07:41.645071$GBGSV,2,1,06,11,23,180,41,14,65,008,46,24,20,132,41,26,23,082,43*66
###2023-11-09 13:07:41.647032$GBGSV,2,2,06,28,43,289,47,33,58,302,47,,,,,,,,*6F
###2023-11-09 13:07:41.648514$GNVTG,139.03,T,,M,3.81,N,7.06,K,A*20
###2023-11-09 13:07:41.728387$GNGGA,130741.90,3611.0550532,N,07544.9727793,W,1,24,0.6,1.060,M,-39.961,M,0.0,*6C
###2023-11-09 13:07:41.730976$GPGSV,2,1,07,05,21,090,41,10,18,292,44,13,24,045,43,15,62,037,46*72
###2023-11-09 13:07:41.733234$GPGSV,2,2,07,18,77,281,46,23,50,315,46,24,49,136,45,,,,*41
###2023-11-09 13:07:41.735809$GLGSV,2,1,05,70,50,016,35,71,48,288,49,80,17,091,43,85,58,203,48*69
###2023-11-09 13:07:41.737422$GLGSV,2,2,05,86,52,309,48,,,,,,,,,,,,*5F
###2023-11-09 13:07:41.739993$GAGSV,1,1,04,07,72,257,45,08,49,042,44,13,64,160,45,26,56,310,45*6E
###2023-11-09 13:07:41.742567$GBGSV,2,1,06,11,23,180,41,14,65,008,46,24,20,132,41,26,23,082,43*66
###2023-11-09 13:07:41.744500$GBGSV,2,2,06,28,43,289,47,33,58,302,47,,,,,,,,*6F
###2023-11-09 13:07:41.745957$GNVTG,144.04,T,,M,3.85,N,7.13,K,A*2D
###2023-11-09 13:07:41.830491$GNGGA,130742.00,3611.0549686,N,07544.9726984,W,1,24,0.6,1.057,M,-39.961,M,0.0,*6F
###2023-11-09 13:07:41.833098$GPGSV,2,1,07,05,21,090,40,10,18,292,44,13,24,045,43,15,62,037,46*73
###2023-11-09 13:07:41.835363$GPGSV,2,2,07,18,77,281,46,23,50,315,46,24,49,136,45,,,,*41
###2023-11-09 13:07:41.837972$GLGSV,2,1,05,70,50,016,35,71,48,288,49,80,17,091,42,85,58,203,48*68
###2023-11-09 13:07:41.839589$GLGSV,2,2,05,86,52,309,48,,,,,,,,,,,,*5F
###2023-11-09 13:07:41.842165$GAGSV,1,1,04,07,72,257,45,08,49,042,44,13,64,160,45,26,56,310,45*6E
###2023-11-09 13:07:41.844752$GBGSV,2,1,06,11,23,180,41,14,65,008,45,24,20,132,41,26,23,082,43*65
###2023-11-09 13:07:41.846686$GBGSV,2,2,06,28,43,289,47,33,58,302,47,,,,,,,,*6F
###2023-11-09 13:07:41.848163$GNVTG,139.94,T,,M,3.85,N,7.13,K,A*2E
###2023-11-09 13:07:41.931500$GNGGA,130742.10,3611.0548901,N,07544.9726074,W,1,24,0.6,1.055,M,-39.961,M,0.0,*6B
###2023-11-09 13:07:41.934112$GPGSV,2,1,07,05,21,090,40,10,18,292,44,13,24,045,42,15,62,037,46*72
###2023-11-09 13:07:41.936375$GPGSV,2,2,07,18,77,281,46,23,50,315,46,24,49,136,45,,,,*41
###2023-11-09 13:07:41.938978$GLGSV,2,1,05,70,50,016,35,71,48,288,49,80,17,091,42,85,58,203,49*69
###2023-11-09 13:07:41.940586$GLGSV,2,2,05,86,52,309,48,,,,,,,,,,,,*5F
###2023-11-09 13:07:41.943161$GAGSV,1,1,04,07,72,257,45,08,49,042,44,13,64,160,45,26,56,310,45*6E
###2023-11-09 13:07:41.945741$GBGSV,2,1,06,11,23,180,41,14,65,008,45,24,20,132,41,26,23,082,42*64
###2023-11-09 13:07:41.947697$GBGSV,2,2,06,28,43,289,47,33,58,302,47,,,,,,,,*6F
###2023-11-09 13:07:41.949165$GNVTG,133.26,T,,M,3.91,N,7.24,K,A*2C
###2023-11-09 13:07:42.035078$GNGGA,130742.20,3611.0548199,N,07544.9725113,W,1,24,0.6,1.039,M,-39.961,M,0.0,*68
###2023-11-09 13:07:42.037667$GPGSV,2,1,07,05,21,090,40,10,18,292,44,13,24,045,42,15,62,037,46*72
###2023-11-09 13:07:42.039900$GPGSV,2,2,07,18,77,281,46,23,50,315,46,24,49,136,45,,,,*41
###2023-11-09 13:07:42.042448$GLGSV,2,1,05,70,50,016,35,71,48,288,49,80,17,091,41,85,58,203,48*6B
###2023-11-09 13:07:42.044044$GLGSV,2,2,05,86,52,309,48,,,,,,,,,,,,*5F
###2023-11-09 13:07:42.046602$GAGSV,1,1,04,07,72,257,45,08,49,042,43,13,64,160,45,26,56,310,45*69
###2023-11-09 13:07:42.049191$GBGSV,2,1,06,11,23,180,41,14,65,008,45,24,20,132,41,26,23,082,41*67
###2023-11-09 13:07:42.051117$GBGSV,2,2,06,28,43,289,48,33,58,302,47,,,,,,,,*60
###2023-11-09 13:07:42.052591$GNVTG,130.13,T,,M,3.62,N,6.70,K,A*25
###2023-11-09 13:07:42.128493$GNGGA,130742.30,3611.0547591,N,07544.9724172,W,1,24,0.6,1.011,M,-39.961,M,0.0,*66
###2023-11-09 13:07:42.131065$GPGSV,2,1,07,05,21,090,40,10,18,292,44,13,24,045,42,15,62,037,46*72
###2023-11-09 13:07:42.133319$GPGSV,2,2,07,18,77,281,46,23,50,315,46,24,49,136,45,,,,*41
###2023-11-09 13:07:42.135886$GLGSV,2,1,05,70,50,016,35,71,48,288,49,80,17,091,42,85,58,203,48*68
###2023-11-09 13:07:42.137504$GLGSV,2,2,05,86,52,309,48,,,,,,,,,,,,*5F
###2023-11-09 13:07:42.140080$GAGSV,1,1,04,07,72,257,45,08,49,042,43,13,64,160,45,26,56,310,45*69
###2023-11-09 13:07:42.142658$GBGSV,2,1,06,11,23,180,41,14,65,008,46,24,20,132,41,26,23,082,41*64
###2023-11-09 13:07:42.144593$GBGSV,2,2,06,28,43,289,47,33,58,302,47,,,,,,,,*6F
###2023-11-09 13:07:42.146055$GNVTG,126.60,T,,M,3.44,N,6.37,K,A*21
###2023-11-09 13:07:42.235489$GNGGA,130742.40,3611.0547032,N,07544.9723207,W,1,24,0.6,0.994,M,-39.961,M,0.0,*6E
###2023-11-09 13:07:42.238103$GPGSV,2,1,07,05,21,090,40,10,18,292,44,13,24,045,42,15,62,037,46*72
###2023-11-09 13:07:42.240354$GPGSV,2,2,07,18,77,281,46,23,50,315,46,24,49,136,45,,,,*41
###2023-11-09 13:07:42.242913$GLGSV,2,1,05,70,50,016,35,71,48,288,49,80,17,091,43,85,58,203,48*69
###2023-11-09 13:07:42.244507$GLGSV,2,2,05,86,52,309,48,,,,,,,,,,,,*5F
###2023-11-09 13:07:42.247083$GAGSV,1,1,04,07,72,257,45,08,49,042,43,13,64,160,45,26,56,310,45*69
###2023-11-09 13:07:42.249664$GBGSV,2,1,06,11,23,180,41,14,65,008,46,24,20,132,41,26,23,082,41*64
###2023-11-09 13:07:42.251586$GBGSV,2,2,06,28,43,289,47,33,58,302,47,,,,,,,,*6F
###2023-11-09 13:07:42.253048$GNVTG,124.31,T,,M,3.50,N,6.48,K,A*2A
###2023-11-09 13:07:42.329472$GNGGA,130742.50,3611.0546489,N,07544.9722181,W,1,24,0.6,0.989,M,-39.961,M,0.0,*6A
###2023-11-09 13:07:42.332042$GPGSV,2,1,07,05,21,090,41,10,18,292,44,13,24,045,42,15,62,037,46*73
###2023-11-09 13:07:42.334288$GPGSV,2,2,07,18,77,281,46,23,50,315,46,24,49,136,45,,,,*41
###2023-11-09 13:07:42.336843$GLGSV,2,1,05,70,50,016,35,71,48,288,49,80,17,091,43,85,58,203,48*69
###2023-11-09 13:07:42.338450$GLGSV,2,2,05,86,52,309,48,,,,,,,,,,,,*5F
###2023-11-09 13:07:42.341001$GAGSV,1,1,04,07,72,257,45,08,49,042,44,13,64,160,45,26,56,310,45*6E
###2023-11-09 13:07:42.343571$GBGSV,2,1,06,11,23,180,41,14,65,008,46,24,20,132,41,26,23,082,42*67
###2023-11-09 13:07:42.345488$GBGSV,2,2,06,28,43,289,47,33,58,302,47,,,,,,,,*6F
###2023-11-09 13:07:42.346956$GNVTG,121.71,T,,M,3.67,N,6.80,K,A*2B
###2023-11-09 13:07:42.428398$GNGGA,130742.60,3611.0545912,N,07544.9721101,W,1,24,0.6,0.971,M,-39.961,M,0.0,*69
###2023-11-09 13:07:42.430996$GPGSV,2,1,07,05,21,090,41,10,18,292,44,13,24,045,43,15,62,037,46*72
###2023-11-09 13:07:42.433245$GPGSV,2,2,07,18,77,281,46,23,50,315,46,24,49,136,45,,,,*41
###2023-11-09 13:07:42.436118$GLGSV,2,1,05,70,50,016,35,71,48,288,49,80,17,091,43,85,58,203,47*66
###2023-11-09 13:07:42.437757$GLGSV,2,2,05,86,52,309,48,,,,,,,,,,,,*5F
###2023-11-09 13:07:42.440339$GAGSV,1,1,04,07,72,257,45,08,49,042,44,13,64,160,45,26,56,310,45*6E
###2023-11-09 13:07:42.442927$GBGSV,2,1,06,11,23,180,40,14,65,008,46,24,20,132,41,26,23,082,42*66
###2023-11-09 13:07:42.444865$GBGSV,2,2,06,28,43,289,47,33,58,302,47,,,,,,,,*6F
###2023-11-09 13:07:42.446331$GNVTG,124.90,T,,M,3.91,N,7.24,K,A*27
###2023-11-09 13:07:42.531498$GNGGA,130742.70,3611.0545265,N,07544.9720051,W,1,24,0.6,0.918,M,-39.961,M,0.0,*69
###2023-11-09 13:07:42.534103$GPGSV,2,1,07,05,21,090,41,10,18,292,44,13,24,045,43,15,62,037,46*72
###2023-11-09 13:07:42.536369$GPGSV,2,2,07,18,77,281,46,23,50,315,46,24,49,136,45,,,,*41
###2023-11-09 13:07:42.539087$GLGSV,2,1,05,70,50,016,35,71,48,288,48,80,17,091,43,85,58,203,47*67
