###2023-11-09 13:08:31.634628$GPGSV,2,2,07,18,78,277,46,23,50,315,46,24,49,136,46,,,,*44
###2023-11-09 13:08:31.637249$GLGSV,2,1,05,70,50,017,36,71,48,290,48,80,18,090,44,85,57,203,49*64
###2023-11-09 13:08:31.638877$GLGSV,2,2,05,86,53,308,48,,,,,,,,,,,,*5F
###2023-11-09 13:08:31.641466$GAGSV,1,1,04,07,72,258,45,08,48,043,45,13,64,160,44,26,57,310,45*60
###2023-11-09 13:08:31.644049$GBGSV,2,1,06,11,23,180,39,14,65,008,45,24,20,132,43,26,23,081,44*6C
###2023-11-09 13:08:31.645987$GBGSV,2,2,06,28,43,287,47,33,59,304,47,,,,,,,,*66
###2023-11-09 13:08:31.647473$GNVTG,185.10,T,,M,5.13,N,9.50,K,A*25
###2023-11-09 13:08:31.730153$GNGGA,130831.90,3611.0252204,N,07545.0211265,W,1,24,0.6,0.768,M,-39.962,M,0.0,*6A
###2023-11-09 13:08:31.732764$GPGSV,2,1,07,05,20,090,43,10,19,293,44,13,24,045,43,15,61,037,46*72
###2023-11-09 13:08:31.735019$GPGSV,2,2,07,18,78,277,46,23,50,315,46,24,49,136,46,,,,*44
###2023-11-09 13:08:31.737628$GLGSV,2,1,05,70,50,017,36,71,48,290,48,80,18,090,44,85,57,203,49*64
###2023-11-09 13:08:31.739242$GLGSV,2,2,05,86,53,308,48,,,,,,,,,,,,*5F
###2023-11-09 13:08:31.741818$GAGSV,1,1,04,07,72,258,45,08,48,043,45,13,64,160,44,26,57,310,45*60
###2023-11-09 13:08:31.744398$GBGSV,2,1,06,11,23,180,39,14,65,008,45,24,20,132,43,26,23,081,44*6C
###2023-11-09 13:08:31.746330$GBGSV,2,2,06,28,43,287,47,33,59,304,48,,,,,,,,*69
###2023-11-09 13:08:31.747813$GNVTG,184.77,T,,M,5.25,N,9.72,K,A*20
###2023-11-09 13:08:31.830850$GNGGA,130832.00,3611.0250759,N,07545.0211415,W,1,24,0.6,0.777,M,-39.962,M,0.0,*60
###2023-11-09 13:08:31.833438$GPGSV,2,1,07,05,20,090,43,10,19,293,44,13,24,045,43,15,61,037,46*72
###2023-11-09 13:08:31.835684$GPGSV,2,2,07,18,78,277,46,23,50,315,46,24,49,136,46,,,,*44
###2023-11-09 13:08:31.838260$GLGSV,2,1,05,70,50,017,36,71,48,290,49,80,18,090,44,85,57,203,49*65
###2023-11-09 13:08:31.839863$GLGSV,2,2,05,86,53,308,48,,,,,,,,,,,,*5F
###2023-11-09 13:08:31.842414$GAGSV,1,1,04,07,72,258,45,08,48,043,45,13,64,160,45,26,57,310,45*61
###2023-11-09 13:08:31.844986$GBGSV,2,1,06,11,23,180,39,14,65,008,45,24,20,132,42,26,23,081,44*6D
###2023-11-09 13:08:31.846926$GBGSV,2,2,06,28,43,287,47,33,59,304,48,,,,,,,,*69
###2023-11-09 13:08:31.848392$GNVTG,184.43,T,,M,5.19,N,9.61,K,A*2A
###2023-11-09 13:08:31.940760$GNGGA,130832.10,3611.0249327,N,07545.0211552,W,1,24,0.6,0.791,M,-39.962,M,0.0,*6E
###2023-11-09 13:08:31.943373$GPGSV,2,1,07,05,20,090,43,10,19,293,44,13,24,045,43,15,61,037,46*72
###2023-11-09 13:08:31.945636$GPGSV,2,2,07,18,78,277,46,23,50,315,46,24,49,136,46,,,,*44
###2023-11-09 13:08:31.948231$GLGSV,2,1,05,70,50,017,36,71,48,290,49,80,18,090,44,85,57,203,49*65
###2023-11-09 13:08:31.949856$GLGSV,2,2,05,86,53,308,48,,,,,,,,,,,,*5F
###2023-11-09 13:08:31.952445$GAGSV,1,1,04,07,72,258,45,08,48,043,45,13,64,160,45,26,57,310,45*61
###2023-11-09 13:08:31.955028$GBGSV,2,1,06,11,23,180,39,14,65,008,45,24,20,132,42,26,23,081,44*6D
###2023-11-09 13:08:31.956990$GBGSV,2,2,06,28,43,287,47,33,59,304,48,,,,,,,,*69
###2023-11-09 13:08:31.958462$GNVTG,184.06,T,,M,5.15,N,9.54,K,A*21
###2023-11-09 13:08:32.032625$GNGGA,130832.20,3611.0247893,N,07545.0211673,W,1,24,0.6,0.804,M,-39.962,M,0.0,*64
###2023-11-09 13:08:32.035220$GPGSV,2,1,07,05,20,090,43,10,19,293,45,13,24,045,42,15,61,037,46*72
###2023-11-09 13:08:32.037499$GPGSV,2,2,07,18,78,277,46,23,50,315,46,24,49,136,46,,,,*44
###2023-11-09 13:08:32.040087$GLGSV,2,1,05,70,50,017,36,71,48,290,49,80,18,090,44,85,57,203,49*65
###2023-11-09 13:08:32.041708$GLGSV,2,2,05,86,53,308,48,,,,,,,,,,,,*5F
###2023-11-09 13:08:32.044285$GAGSV,1,1,04,07,72,258,45,08,48,043,45,13,64,160,45,26,57,310,45*61
###2023-11-09 13:08:32.046874$GBGSV,2,1,06,11,23,180,39,14,65,008,45,24,20,132,42,26,23,081,43*6A
###2023-11-09 13:08:32.048840$GBGSV,2,2,06,28,43,287,47,33,59,304,48,,,,,,,,*69
###2023-11-09 13:08:32.050311$GNVTG,183.23,T,,M,5.19,N,9.61,K,A*2B
###2023-11-09 13:08:32.133995$GNGGA,130832.30,3611.0246449,N,07545.0211742,W,1,24,0.6,0.820,M,-39.962,M,0.0,*6A
###2023-11-09 13:08:32.136584$GPGSV,2,1,07,05,20,090,43,10,19,293,45,13,24,045,42,15,61,037,46*72
###2023-11-09 13:08:32.138855$GPGSV,2,2,07,18,78,277,46,23,50,315,47,24,49,136,46,,,,*45
###2023-11-09 13:08:32.141427$GLGSV,2,1,05,70,50,017,36,71,48,290,48,80,18,090,44,85,57,203,49*64
###2023-11-09 13:08:32.143028$GLGSV,2,2,05,86,53,308,49,,,,,,,,,,,,*5E
###2023-11-09 13:08:32.145600$GAGSV,1,1,04,07,72,258,45,08,48,043,45,13,64,160,44,26,57,310,45*60
###2023-11-09 13:08:32.148192$GBGSV,2,1,06,11,23,180,39,14,65,008,45,24,20,132,42,26,23,081,43*6A
###2023-11-09 13:08:32.150126$GBGSV,2,2,06,28,43,287,47,33,59,304,48,,,,,,,,*69
###2023-11-09 13:08:32.151594$GNVTG,180.83,T,,M,5.21,N,9.65,K,A*2D
###2023-11-09 13:08:32.230131$GNGGA,130832.40,3611.0245002,N,07545.0211766,W,1,24,0.6,0.834,M,-39.962,M,0.0,*66
###2023-11-09 13:08:32.232725$GPGSV,2,1,07,05,20,090,43,10,19,293,45,13,24,045,42,15,61,037,46*72
###2023-11-09 13:08:32.234990$GPGSV,2,2,07,18,78,277,46,23,50,315,47,24,49,136,46,,,,*45
###2023-11-09 13:08:32.237588$GLGSV,2,1,05,70,50,017,36,71,48,290,48,80,18,090,44,85,57,203,49*64
###2023-11-09 13:08:32.239209$GLGSV,2,2,05,86,53,308,49,,,,,,,,,,,,*5E
###2023-11-09 13:08:32.241793$GAGSV,1,1,04,07,72,258,45,08,48,043,45,13,64,160,44,26,57,310,45*60
###2023-11-09 13:08:32.244390$GBGSV,2,1,06,11,23,180,39,14,65,008,45,24,20,132,42,26,23,081,43*6A
###2023-11-09 13:08:32.246337$GBGSV,2,2,06,28,43,287,47,33,59,304,48,,,,,,,,*69
###2023-11-09 13:08:32.247824$GNVTG,180.38,T,,M,5.19,N,9.61,K,A*22
###2023-11-09 13:08:32.329753$GNGGA,130832.50,3611.0243578,N,07545.0211776,W,1,24,0.6,0.834,M,-39.962,M,0.0,*68
###2023-11-09 13:08:32.332349$GPGSV,2,1,07,05,20,090,44,10,19,293,45,13,24,045,42,15,61,037,46*75
###2023-11-09 13:08:32.334603$GPGSV,2,2,07,18,78,277,46,23,50,315,47,24,49,136,46,,,,*45
###2023-11-09 13:08:32.337195$GLGSV,2,1,05,70,50,017,36,71,48,290,48,80,18,090,44,85,57,203,49*64
###2023-11-09 13:08:32.338813$GLGSV,2,2,05,86,53,308,49,,,,,,,,,,,,*5E
###2023-11-09 13:08:32.341399$GAGSV,1,1,04,07,72,258,45,08,48,043,45,13,64,160,44,26,57,310,45*60
###2023-11-09 13:08:32.343985$GBGSV,2,1,06,11,23,180,39,14,65,008,45,24,20,132,42,26,23,081,43*6A
###2023-11-09 13:08:32.345922$GBGSV,2,2,06,28,43,287,47,33,59,304,48,,,,,,,,*69
###2023-11-09 13:08:32.347404$GNVTG,179.75,T,,M,5.05,N,9.36,K,A*22
###2023-11-09 13:08:32.430480$GNGGA,130832.60,3611.0242182,N,07545.0211745,W,1,24,0.6,0.839,M,-39.962,M,0.0,*66
###2023-11-09 13:08:32.433065$GPGSV,2,1,07,05,20,090,43,10,19,293,44,13,24,045,42,15,61,037,46*73
###2023-11-09 13:08:32.435303$GPGSV,2,2,07,18,78,277,46,23,50,315,47,24,49,136,46,,,,*45
###2023-11-09 13:08:32.437893$GLGSV,2,1,05,70,50,017,36,71,48,290,48,80,18,090,44,85,57,203,49*64
###2023-11-09 13:08:32.439502$GLGSV,2,2,05,86,53,308,49,,,,,,,,,,,,*5E
###2023-11-09 13:08:32.442059$GAGSV,1,1,04,07,72,258,45,08,48,043,45,13,64,160,45,26,57,310,45*61
###2023-11-09 13:08:32.444623$GBGSV,2,1,06,11,23,180,40,14,65,008,45,24,20,132,42,26,23,081,43*64
###2023-11-09 13:08:32.446547$GBGSV,2,2,06,28,43,287,47,33,59,304,48,,,,,,,,*69
###2023-11-09 13:08:32.448031$GNVTG,177.82,T,,M,5.02,N,9.29,K,A*2D
###2023-11-09 13:08:32.530496$GNGGA,130832.70,3611.0240787,N,07545.0211669,W,1,24,0.6,0.847,M,-39.962,M,0.0,*60
###2023-11-09 13:08:32.533094$GPGSV,2,1,07,05,20,090,44,10,19,293,44,13,24,045,42,15,61,037,46*74
###2023-11-09 13:08:32.535344$GPGSV,2,2,07,18,78,277,46,23,50,315,46,24,49,136,46,,,,*44
###2023-11-09 13:08:32.537949$GLGSV,2,1,05,70,50,017,36,71,48,290,48,80,18,090,44,85,57,203,49*64
###2023-11-09 13:08:32.539582$GLGSV,2,2,05,86,53,308,49,,,,,,,,,,,,*5E
###2023-11-09 13:08:32.542153$GAGSV,1,1,04,07,72,258,45,08,48,043,45,13,64,160,45,26,57,310,45*61
###2023-11-09 13:08:32.544739$GBGSV,2,1,06,11,23,180,40,14,65,008,45,24,20,132,42,26,23,081,43*64
###2023-11-09 13:08:32.546689$GBGSV,2,2,06,28,43,287,47,33,59,304,48,,,,,,,,*69
###2023-11-09 13:08:32.548168$GNVTG,176.70,T,,M,5.05,N,9.36,K,A*28
###2023-11-09 13:08:32.631123$GNGGA,130832.80,3611.0239361,N,07545.0211573,W,1,24,0.6,0.852,M,-39.962,M,0.0,*61
###2023-11-09 13:08:32.633714$GPGSV,2,1,07,05,20,090,43,10,19,293,44,13,24,045,43,15,61,037,46*72
###2023-11-09 13:08:32.636256$GPGSV,2,2,07,18,78,277,46,23,50,315,46,24,49,136,46,,,,*44
###2023-11-09 13:08:32.638874$GLGSV,2,1,05,70,50,017,36,71,48,290,47,80,18,090,44,85,57,203,48*6A
###2023-11-09 13:08:32.640499$GLGSV,2,2,05,86,53,308,49,,,,,,,,,,,,*5E
###2023-11-09 13:08:32.643076$GAGSV,1,1,04,07,72,258,45,08,48,043,44,13,64,160,45,26,57,310,45*60
###2023-11-09 13:08:32.645669$GBGSV,2,1,06,11,23,180,40,14,65,008,45,24,20,132,42,26,23,081,43*64
###2023-11-09 13:08:32.647619$GBGSV,2,2,06,28,43,287,47,33,59,304,48,,,,,,,,*69
###2023-11-09 13:08:32.649097$GNVTG,176.73,T,,M,5.23,N,9.68,K,A*24
###2023-11-09 13:08:32.729156$GNGGA,130832.90,3611.0237923,N,07545.0211455,W,1,24,0.6,0.841,M,-39.962,M,0.0,*65
###2023-11-09 13:08:32.731756$GPGSV,2,1,07,05,20,090,42,10,19,293,44,13,24,045,43,15,61,037,46*73
###2023-11-09 13:08:32.734011$GPGSV,2,2,07,18,78,277,46,23,50,315,46,24,49,136,46,,,,*44
