###2023-11-09 13:10:30.939884$GLGSV,2,1,05,70,49,019,35,71,48,291,49,80,19,089,45,85,56,202,49*69
###2023-11-09 13:10:30.941510$GLGSV,2,2,05,86,54,306,48,,,,,,,,,,,,*56
###2023-11-09 13:10:30.944073$GAGSV,1,1,04,07,73,259,45,08,48,043,45,13,63,161,45,26,57,310,45*67
###2023-11-09 13:10:30.946634$GBGSV,2,1,06,11,22,180,42,14,65,009,44,24,21,132,44,26,23,080,44*66
###2023-11-09 13:10:30.948608$GBGSV,2,2,06,28,43,286,46,33,59,305,47,,,,,,,,*67
###2023-11-09 13:10:30.950110$GNVTG,326.52,T,,M,5.52,N,10.22,K,A*10
###2023-11-09 13:10:31.033264$GNGGA,131031.20,3611.0603782,N,07544.8718547,W,1,24,0.6,0.689,M,-39.960,M,0.0,*6D
###2023-11-09 13:10:31.035888$GPGSV,2,1,07,05,20,091,44,10,19,294,42,13,23,045,43,15,60,038,46*7C
###2023-11-09 13:10:31.038189$GPGSV,2,2,07,18,78,272,46,23,50,316,46,24,50,134,46,,,,*48
###2023-11-09 13:10:31.040795$GLGSV,2,1,05,70,49,019,35,71,48,291,49,80,19,089,46,85,56,202,48*6B
###2023-11-09 13:10:31.042415$GLGSV,2,2,05,86,54,306,48,,,,,,,,,,,,*56
###2023-11-09 13:10:31.044987$GAGSV,1,1,04,07,73,259,45,08,48,043,45,13,63,161,46,26,57,310,45*64
###2023-11-09 13:10:31.047582$GBGSV,2,1,06,11,22,180,41,14,65,009,45,24,21,132,44,26,23,080,44*64
###2023-11-09 13:10:31.049534$GBGSV,2,2,06,28,43,286,46,33,59,305,47,,,,,,,,*67
###2023-11-09 13:10:31.051042$GNVTG,322.73,T,,M,5.46,N,10.12,K,A*11
###2023-11-09 13:10:31.133366$GNGGA,131031.30,3611.0604955,N,07544.8719717,W,1,24,0.6,0.684,M,-39.960,M,0.0,*64
###2023-11-09 13:10:31.135959$GPGSV,2,1,07,05,20,091,45,10,19,294,42,13,23,045,44,15,60,038,46*7A
###2023-11-09 13:10:31.138232$GPGSV,2,2,07,18,78,272,46,23,50,316,46,24,50,134,46,,,,*48
###2023-11-09 13:10:31.140801$GLGSV,2,1,05,70,49,019,35,71,48,291,49,80,19,089,47,85,56,202,48*6A
###2023-11-09 13:10:31.142406$GLGSV,2,2,05,86,54,306,48,,,,,,,,,,,,*56
###2023-11-09 13:10:31.144970$GAGSV,1,1,04,07,73,259,45,08,48,043,45,13,63,161,45,26,57,310,45*67
###2023-11-09 13:10:31.147561$GBGSV,2,1,06,11,22,180,40,14,65,009,45,24,21,132,44,26,23,080,45*64
###2023-11-09 13:10:31.149503$GBGSV,2,2,06,28,43,286,46,33,59,305,47,,,,,,,,*67
###2023-11-09 13:10:31.150970$GNVTG,318.82,T,,M,5.37,N,9.94,K,A*26
###2023-11-09 13:10:31.231223$GNGGA,131031.40,3611.0606045,N,07544.8720964,W,1,24,0.6,0.687,M,-39.960,M,0.0,*6A
###2023-11-09 13:10:31.233800$GPGSV,2,1,07,05,20,091,44,10,19,294,41,13,23,045,44,15,60,038,46*78
###2023-11-09 13:10:31.236046$GPGSV,2,2,07,18,78,272,46,23,50,316,46,24,50,134,46,,,,*48
###2023-11-09 13:10:31.238630$GLGSV,2,1,05,70,49,019,35,71,48,291,49,80,19,089,46,85,56,202,48*6B
###2023-11-09 13:10:31.240234$GLGSV,2,2,05,86,54,306,48,,,,,,,,,,,,*56
###2023-11-09 13:10:31.242795$GAGSV,1,1,04,07,73,259,45,08,48,043,45,13,63,161,45,26,57,310,45*67
###2023-11-09 13:10:31.245364$GBGSV,2,1,06,11,22,180,40,14,65,009,45,24,21,132,44,26,23,080,45*64
###2023-11-09 13:10:31.247303$GBGSV,2,2,06,28,43,286,46,33,59,305,47,,,,,,,,*67
###2023-11-09 13:10:31.248764$GNVTG,314.90,T,,M,5.33,N,9.86,K,A*2E
###2023-11-09 13:10:31.331260$GNGGA,131031.50,3611.0607066,N,07544.8722293,W,1,24,0.6,0.695,M,-39.960,M,0.0,*69
###2023-11-09 13:10:31.333857$GPGSV,2,1,07,05,20,091,44,10,19,294,41,13,23,045,43,15,60,038,46*7F
###2023-11-09 13:10:31.336111$GPGSV,2,2,07,18,78,272,46,23,50,316,46,24,50,134,46,,,,*48
###2023-11-09 13:10:31.338703$GLGSV,2,1,05,70,49,019,35,71,48,291,49,80,19,089,45,85,56,202,49*69
###2023-11-09 13:10:31.340313$GLGSV,2,2,05,86,54,306,48,,,,,,,,,,,,*56
###2023-11-09 13:10:31.342885$GAGSV,1,1,04,07,73,259,44,08,48,043,45,13,63,161,45,26,57,310,45*66
###2023-11-09 13:10:31.345469$GBGSV,2,1,06,11,22,180,40,14,65,009,46,24,21,132,44,26,23,080,45*67
###2023-11-09 13:10:31.347421$GBGSV,2,2,06,28,43,286,46,33,59,305,47,,,,,,,,*67
###2023-11-09 13:10:31.348896$GNVTG,311.58,T,,M,5.33,N,9.86,K,A*2F
###2023-11-09 13:10:31.431756$GNGGA,131031.60,3611.0608060,N,07544.8723667,W,1,24,0.6,0.705,M,-39.960,M,0.0,*65
###2023-11-09 13:10:31.434356$GPGSV,2,1,07,05,20,091,44,10,19,294,42,13,23,045,43,15,60,038,46*7C
###2023-11-09 13:10:31.436624$GPGSV,2,2,07,18,78,272,46,23,50,316,46,24,50,134,46,,,,*48
###2023-11-09 13:10:31.439215$GLGSV,2,1,05,70,49,019,35,71,48,291,49,80,19,089,45,85,56,202,49*69
###2023-11-09 13:10:31.440834$GLGSV,2,2,05,86,54,306,48,,,,,,,,,,,,*56
###2023-11-09 13:10:31.443408$GAGSV,1,1,04,07,73,259,44,08,48,043,45,13,63,161,45,26,57,310,45*66
###2023-11-09 13:10:31.445991$GBGSV,2,1,06,11,22,180,41,14,65,009,46,24,21,132,44,26,23,080,45*66
###2023-11-09 13:10:31.447942$GBGSV,2,2,06,28,43,286,46,33,59,305,47,,,,,,,,*67
###2023-11-09 13:10:31.449409$GNVTG,311.40,T,,M,5.38,N,9.97,K,A*2D
###2023-11-09 13:10:31.531120$GNGGA,131031.70,3611.0609099,N,07544.8725032,W,1,24,0.6,0.715,M,-39.960,M,0.0,*62
###2023-11-09 13:10:31.533695$GPGSV,2,1,07,05,20,091,43,10,19,294,42,13,23,045,42,15,60,038,46*7A
###2023-11-09 13:10:31.535944$GPGSV,2,2,07,18,78,272,46,23,50,316,46,24,50,134,46,,,,*48
###2023-11-09 13:10:31.538528$GLGSV,2,1,05,70,49,019,35,71,48,291,49,80,19,089,45,85,56,202,49*69
###2023-11-09 13:10:31.540132$GLGSV,2,2,05,86,54,306,48,,,,,,,,,,,,*56
###2023-11-09 13:10:31.542702$GAGSV,1,1,04,07,73,259,45,08,48,043,45,13,63,161,46,26,57,310,45*64
###2023-11-09 13:10:31.545271$GBGSV,2,1,06,11,22,180,41,14,65,009,45,24,21,132,44,26,23,080,44*64
###2023-11-09 13:10:31.547215$GBGSV,2,2,06,28,43,286,46,33,59,305,47,,,,,,,,*67
###2023-11-09 13:10:31.548716$GNVTG,314.29,T,,M,5.52,N,10.22,K,A*1D
###2023-11-09 13:10:31.631125$GNGGA,131031.80,3611.0610213,N,07544.8726348,W,1,24,0.6,0.725,M,-39.960,M,0.0,*6B
###2023-11-09 13:10:31.633723$GPGSV,2,1,07,05,20,091,43,10,19,294,43,13,23,045,42,15,60,038,45*78
###2023-11-09 13:10:31.635987$GPGSV,2,2,07,18,78,272,46,23,50,316,46,24,50,134,45,,,,*4B
###2023-11-09 13:10:31.638587$GLGSV,2,1,05,70,49,019,35,71,48,291,49,80,19,089,45,85,56,202,49*69
###2023-11-09 13:10:31.640206$GLGSV,2,2,05,86,54,306,48,,,,,,,,,,,,*56
###2023-11-09 13:10:31.642784$GAGSV,1,1,04,07,73,259,45,08,48,043,45,13,63,161,46,26,57,310,45*64
###2023-11-09 13:10:31.645365$GBGSV,2,1,06,11,22,180,41,14,65,009,45,24,21,132,43,26,23,080,44*63
###2023-11-09 13:10:31.647310$GBGSV,2,2,06,28,43,286,46,33,59,305,47,,,,,,,,*67
###2023-11-09 13:10:31.648806$GNVTG,317.39,T,,M,5.58,N,10.33,K,A*15
###2023-11-09 13:10:31.732133$GNGGA,131031.90,3611.0611377,N,07544.8727626,W,1,24,0.6,0.722,M,-39.960,M,0.0,*63
###2023-11-09 13:10:31.734735$GPGSV,2,1,07,05,20,091,43,10,19,294,43,13,23,045,42,15,60,038,45*78
###2023-11-09 13:10:31.737018$GPGSV,2,2,07,18,78,272,46,23,50,316,45,24,50,134,45,,,,*48
###2023-11-09 13:10:31.739589$GLGSV,2,1,05,70,49,019,35,71,48,291,49,80,19,089,45,85,56,202,49*69
###2023-11-09 13:10:31.741198$GLGSV,2,2,05,86,54,306,48,,,,,,,,,,,,*56
###2023-11-09 13:10:31.743773$GAGSV,1,1,04,07,73,259,45,08,48,043,45,13,63,161,46,26,57,310,45*64
###2023-11-09 13:10:31.746354$GBGSV,2,1,06,11,22,180,41,14,65,009,45,24,21,132,43,26,23,080,44*63
###2023-11-09 13:10:31.748331$GBGSV,2,2,06,28,43,286,46,33,59,305,47,,,,,,,,*67
###2023-11-09 13:10:31.749833$GNVTG,318.73,T,,M,5.60,N,10.37,K,A*1B
###2023-11-09 13:10:31.833228$GNGGA,131032.00,3611.0612549,N,07544.8728884,W,1,24,0.6,0.715,M,-39.960,M,0.0,*6C
###2023-11-09 13:10:31.835806$GPGSV,2,1,07,05,20,091,43,10,19,294,43,13,23,045,43,15,60,038,45*79
###2023-11-09 13:10:31.838064$GPGSV,2,2,07,18,78,272,46,23,50,316,45,24,50,134,45,,,,*48
###2023-11-09 13:10:31.840632$GLGSV,2,1,05,70,49,019,35,71,48,291,49,80,19,089,45,85,56,202,49*69
###2023-11-09 13:10:31.842227$GLGSV,2,2,05,86,54,306,48,,,,,,,,,,,,*56
###2023-11-09 13:10:31.844784$GAGSV,1,1,04,07,73,259,45,08,48,043,45,13,63,161,45,26,57,310,45*67
###2023-11-09 13:10:31.847367$GBGSV,2,1,06,11,22,180,41,14,65,009,45,24,21,132,43,26,23,080,45*62
###2023-11-09 13:10:31.849297$GBGSV,2,2,06,28,43,286,46,33,59,305,47,,,,,,,,*67
###2023-11-09 13:10:31.850796$GNVTG,318.71,T,,M,5.56,N,10.30,K,A*1B
###2023-11-09 13:10:31.938641$GNGGA,131032.10,3611.0613687,N,07544.8730148,W,1,24,0.6,0.714,M,-39.960,M,0.0,*6C
###2023-11-09 13:10:31.941244$GPGSV,2,1,07,05,20,091,44,10,19,294,42,13,23,045,43,15,60,038,45*7F
###2023-11-09 13:10:31.943503$GPGSV,2,2,07,18,78,272,46,23,50,316,45,24,50,134,46,,,,*4B
###2023-11-09 13:10:31.946398$GLGSV,2,1,05,70,49,019,35,71,48,291,49,80,19,089,46,85,56,202,49*6A
###2023-11-09 13:10:31.948043$GLGSV,2,2,05,86,54,306,48,,,,,,,,,,,,*56
###2023-11-09 13:10:31.950630$GAGSV,1,1,04,07,73,259,45,08,48,043,45,13,63,161,45,26,57,310,45*67
###2023-11-09 13:10:31.953215$GBGSV,2,1,06,11,22,180,41,14,65,009,45,24,21,132,43,26,23,080,46*61
###2023-11-09 13:10:31.955149$GBGSV,2,2,06,28,43,286,46,33,59,305,47,,,,,,,,*67
###2023-11-09 13:10:31.956645$GNVTG,316.66,T,,M,5.44,N,10.08,K,A*1B
###2023-11-09 13:10:32.034077$GNGGA,131032.20,3611.0614767,N,07544.8731439,W,1,24,0.6,0.728,M,-39.960,M,0.0,*6A
###2023-11-09 13:10:32.036651$GPGSV,2,1,07,05,20,091,44,10,19,294,41,13,23,045,44,15,60,038,46*78
###2023-11-09 13:10:32.038919$GPGSV,2,2,07,18,78,272,46,23,50,316,45,24,50,134,46,,,,*4B
###2023-11-09 13:10:32.041476$GLGSV,2,1,05,70,49,019,35,71,48,291,48,80,19,089,46,85,56,202,49*6B
