###2023-11-09 13:08:21.634945$GPGSV,2,2,07,18,77,281,46,23,50,315,45,24,49,136,45,,,,*42
###2023-11-09 13:08:21.637551$GLGSV,2,1,05,70,50,017,37,71,48,290,48,80,18,090,46,85,57,203,48*66
###2023-11-09 13:08:21.639164$GLGSV,2,2,05,86,53,308,48,,,,,,,,,,,,*5F
###2023-11-09 13:08:21.641735$GAGSV,1,1,04,07,72,258,44,08,49,042,46,13,64,160,44,26,57,310,45*62
###2023-11-09 13:08:21.644312$GBGSV,2,1,06,11,23,180,40,14,65,008,46,24,20,132,42,26,23,081,44*60
###2023-11-09 13:08:21.646243$GBGSV,2,2,06,28,43,287,47,33,59,304,48,,,,,,,,*69
###2023-11-09 13:08:21.647757$GNVTG,238.37,T,,M,5.54,N,10.26,K,A*1F
###2023-11-09 13:08:21.729399$GNGGA,130821.90,3611.0360385,N,07545.0140561,W,1,24,0.6,1.119,M,-39.962,M,0.0,*66
###2023-11-09 13:08:21.732027$GPGSV,2,1,07,05,20,090,44,10,18,292,44,13,24,045,41,15,62,037,46*74
###2023-11-09 13:08:21.734307$GPGSV,2,2,07,18,77,281,46,23,50,315,46,24,49,136,44,,,,*40
###2023-11-09 13:08:21.736895$GLGSV,2,1,05,70,50,017,37,71,48,290,49,80,18,090,46,85,57,203,48*67
###2023-11-09 13:08:21.738528$GLGSV,2,2,05,86,53,308,48,,,,,,,,,,,,*5F
###2023-11-09 13:08:21.741098$GAGSV,1,1,04,07,72,258,44,08,49,042,46,13,64,160,44,26,57,310,45*62
###2023-11-09 13:08:21.743690$GBGSV,2,1,06,11,23,180,40,14,65,008,46,24,20,132,42,26,23,081,44*60
###2023-11-09 13:08:21.745629$GBGSV,2,2,06,28,43,287,47,33,59,304,48,,,,,,,,*69
###2023-11-09 13:08:21.747116$GNVTG,237.68,T,,M,5.25,N,9.72,K,A*25
###2023-11-09 13:08:21.832619$GNGGA,130822.00,3611.0359607,N,07545.0142087,W,1,24,0.6,1.133,M,-39.962,M,0.0,*6E
###2023-11-09 13:08:21.835211$GPGSV,2,1,07,05,20,090,44,10,18,292,44,13,24,045,41,15,62,037,46*74
###2023-11-09 13:08:21.837488$GPGSV,2,2,07,18,77,281,46,23,50,315,46,24,49,136,44,,,,*40
###2023-11-09 13:08:21.840068$GLGSV,2,1,05,70,50,017,37,71,48,290,49,80,18,090,46,85,57,203,48*67
###2023-11-09 13:08:21.841680$GLGSV,2,2,05,86,53,308,48,,,,,,,,,,,,*5F
###2023-11-09 13:08:21.844250$GAGSV,1,1,04,07,72,258,44,08,49,042,46,13,64,160,44,26,57,310,45*62
###2023-11-09 13:08:21.846831$GBGSV,2,1,06,11,23,180,40,14,65,008,46,24,20,132,42,26,23,081,44*60
###2023-11-09 13:08:21.848779$GBGSV,2,2,06,28,43,287,47,33,59,304,48,,,,,,,,*69
###2023-11-09 13:08:21.850247$GNVTG,237.88,T,,M,5.19,N,9.61,K,A*26
###2023-11-09 13:08:21.931360$GNGGA,130822.10,3611.0358857,N,07545.0143614,W,1,24,0.6,1.145,M,-39.962,M,0.0,*69
###2023-11-09 13:08:21.933947$GPGSV,2,1,07,05,20,090,44,10,18,292,44,13,24,045,42,15,62,037,46*77
###2023-11-09 13:08:21.936189$GPGSV,2,2,07,18,77,281,46,23,50,315,46,24,49,136,45,,,,*41
###2023-11-09 13:08:21.938772$GLGSV,2,1,05,70,50,017,37,71,48,290,48,80,18,090,46,85,57,203,48*66
###2023-11-09 13:08:21.940386$GLGSV,2,2,05,86,53,308,48,,,,,,,,,,,,*5F
###2023-11-09 13:08:21.942953$GAGSV,1,1,04,07,72,258,44,08,48,043,46,13,64,160,44,26,57,310,45*62
###2023-11-09 13:08:21.945530$GBGSV,2,1,06,11,23,180,40,14,65,008,46,24,20,132,42,26,23,081,44*60
###2023-11-09 13:08:21.947494$GBGSV,2,2,06,28,43,287,47,33,59,304,47,,,,,,,,*66
###2023-11-09 13:08:21.948961$GNVTG,239.35,T,,M,5.13,N,9.50,K,A*26
###2023-11-09 13:08:22.032491$GNGGA,130822.20,3611.0358146,N,07545.0145134,W,1,24,0.6,1.161,M,-39.962,M,0.0,*66
###2023-11-09 13:08:22.035091$GPGSV,2,1,07,05,20,090,44,10,18,292,44,13,24,045,43,15,62,037,46*76
###2023-11-09 13:08:22.037377$GPGSV,2,2,07,18,77,281,46,23,50,315,46,24,49,136,45,,,,*41
###2023-11-09 13:08:22.039956$GLGSV,2,1,05,70,50,017,37,71,48,290,48,80,18,090,46,85,57,203,48*66
###2023-11-09 13:08:22.041569$GLGSV,2,2,05,86,53,308,48,,,,,,,,,,,,*5F
###2023-11-09 13:08:22.044129$GAGSV,1,1,04,07,72,258,44,08,48,043,46,13,64,160,44,26,57,310,45*62
###2023-11-09 13:08:22.046696$GBGSV,2,1,06,11,23,180,40,14,65,008,46,24,20,132,42,26,23,081,44*60
###2023-11-09 13:08:22.048644$GBGSV,2,2,06,28,43,287,47,33,59,304,47,,,,,,,,*66
###2023-11-09 13:08:22.050106$GNVTG,240.64,T,,M,5.05,N,9.36,K,A*2B
###2023-11-09 13:08:22.130471$GNGGA,130822.30,3611.0357480,N,07545.0146657,W,1,24,0.6,1.149,M,-39.962,M,0.0,*6C
###2023-11-09 13:08:22.133062$GPGSV,2,1,07,05,20,090,43,10,18,292,44,13,24,045,43,15,62,037,46*71
###2023-11-09 13:08:22.135316$GPGSV,2,2,07,18,77,281,46,23,50,315,46,24,49,136,45,,,,*41
###2023-11-09 13:08:22.137912$GLGSV,2,1,05,70,50,017,37,71,48,290,48,80,18,090,46,85,57,203,48*66
###2023-11-09 13:08:22.139520$GLGSV,2,2,05,86,53,308,48,,,,,,,,,,,,*5F
###2023-11-09 13:08:22.142084$GAGSV,1,1,04,07,72,258,44,08,48,043,45,13,64,160,44,26,57,310,45*61
###2023-11-09 13:08:22.144660$GBGSV,2,1,06,11,23,180,40,14,65,008,46,24,20,132,43,26,23,081,44*61
###2023-11-09 13:08:22.146590$GBGSV,2,2,06,28,43,287,47,33,59,304,47,,,,,,,,*66
###2023-11-09 13:08:22.148069$GNVTG,242.60,T,,M,5.00,N,9.25,K,A*2A
###2023-11-09 13:08:22.229356$GNGGA,130822.40,3611.0356847,N,07545.0148144,W,1,24,0.6,1.130,M,-39.962,M,0.0,*68
###2023-11-09 13:08:22.231924$GPGSV,2,1,07,05,20,090,43,10,18,292,43,13,24,045,43,15,62,037,46*76
###2023-11-09 13:08:22.234156$GPGSV,2,2,07,18,77,281,46,23,50,315,46,24,49,136,46,,,,*42
###2023-11-09 13:08:22.236713$GLGSV,2,1,05,70,50,017,37,71,48,290,47,80,18,090,46,85,57,203,48*69
###2023-11-09 13:08:22.238317$GLGSV,2,2,05,86,53,308,48,,,,,,,,,,,,*5F
###2023-11-09 13:08:22.240866$GAGSV,1,1,04,07,72,258,44,08,48,043,45,13,64,160,44,26,57,310,45*61
###2023-11-09 13:08:22.243424$GBGSV,2,1,06,11,23,180,40,14,65,008,46,24,20,132,43,26,23,081,44*61
###2023-11-09 13:08:22.245342$GBGSV,2,2,06,28,43,287,46,33,59,304,47,,,,,,,,*67
###2023-11-09 13:08:22.246791$GNVTG,241.85,T,,M,4.76,N,8.82,K,A*2E
###2023-11-09 13:08:22.329367$GNGGA,130822.50,3611.0356226,N,07545.0149561,W,1,24,0.6,1.115,M,-39.962,M,0.0,*61
###2023-11-09 13:08:22.331963$GPGSV,2,1,07,05,20,090,43,10,18,292,42,13,24,045,43,15,62,037,46*77
###2023-11-09 13:08:22.334216$GPGSV,2,2,07,18,77,281,46,23,50,315,46,24,49,136,46,,,,*42
###2023-11-09 13:08:22.336786$GLGSV,2,1,05,70,50,017,37,71,48,290,48,80,18,090,45,85,57,203,48*65
###2023-11-09 13:08:22.338411$GLGSV,2,2,05,86,53,308,47,,,,,,,,,,,,*50
###2023-11-09 13:08:22.340982$GAGSV,1,1,04,07,72,258,44,08,48,043,45,13,64,160,44,26,57,310,45*61
###2023-11-09 13:08:22.343555$GBGSV,2,1,06,11,23,180,40,14,65,008,46,24,20,132,44,26,23,081,45*67
###2023-11-09 13:08:22.345487$GBGSV,2,2,06,28,43,287,46,33,59,304,47,,,,,,,,*67
###2023-11-09 13:08:22.346966$GNVTG,241.54,T,,M,4.63,N,8.57,K,A*2E
###2023-11-09 13:08:22.431000$GNGGA,130822.60,3611.0355616,N,07545.0150944,W,1,24,0.6,1.094,M,-39.962,M,0.0,*6D
###2023-11-09 13:08:22.433591$GPGSV,2,1,07,05,20,090,43,10,18,292,42,13,24,045,42,15,62,037,46*76
###2023-11-09 13:08:22.435848$GPGSV,2,2,07,18,77,281,46,23,50,315,45,24,49,136,46,,,,*41
###2023-11-09 13:08:22.438443$GLGSV,2,1,05,70,50,017,37,71,48,290,47,80,18,090,45,85,57,203,48*6A
###2023-11-09 13:08:22.440052$GLGSV,2,2,05,86,53,308,47,,,,,,,,,,,,*50
###2023-11-09 13:08:22.442627$GAGSV,1,1,04,07,72,258,44,08,48,043,45,13,64,160,44,26,57,310,44*60
###2023-11-09 13:08:22.445198$GBGSV,2,1,06,11,23,180,40,14,65,008,46,24,20,132,44,26,23,081,45*67
###2023-11-09 13:08:22.447156$GBGSV,2,2,06,28,43,287,46,33,59,304,47,,,,,,,,*67
###2023-11-09 13:08:22.448638$GNVTG,241.33,T,,M,4.55,N,8.42,K,A*2E
###2023-11-09 13:08:22.530357$GNGGA,130822.70,3611.0354994,N,07545.0152266,W,1,24,0.6,1.065,M,-39.962,M,0.0,*6F
###2023-11-09 13:08:22.532937$GPGSV,2,1,07,05,20,090,43,10,18,292,42,13,24,045,42,15,62,037,46*76
###2023-11-09 13:08:22.535176$GPGSV,2,2,07,18,77,281,46,23,50,315,45,24,49,136,46,,,,*41
###2023-11-09 13:08:22.537765$GLGSV,2,1,05,70,50,017,37,71,48,290,47,80,18,090,44,85,57,203,48*6B
###2023-11-09 13:08:22.539367$GLGSV,2,2,05,86,53,308,47,,,,,,,,,,,,*50
###2023-11-09 13:08:22.541931$GAGSV,1,1,04,07,72,258,44,08,48,043,45,13,64,160,44,26,57,310,44*60
###2023-11-09 13:08:22.544501$GBGSV,2,1,06,11,23,180,40,14,65,008,46,24,20,132,43,26,23,081,45*60
###2023-11-09 13:08:22.546426$GBGSV,2,2,06,28,43,287,46,33,59,304,47,,,,,,,,*67
###2023-11-09 13:08:22.547895$GNVTG,238.06,T,,M,4.33,N,8.03,K,A*23
###2023-11-09 13:08:22.629397$GNGGA,130822.80,3611.0354323,N,07545.0153463,W,1,24,0.6,1.028,M,-39.962,M,0.0,*6D
###2023-11-09 13:08:22.631996$GPGSV,2,1,07,05,20,090,42,10,18,292,42,13,24,045,42,15,62,037,46*77
###2023-11-09 13:08:22.634558$GPGSV,2,2,07,18,77,281,46,23,50,315,45,24,49,136,46,,,,*41
###2023-11-09 13:08:22.637160$GLGSV,2,1,05,70,50,017,37,71,48,290,47,80,18,090,44,85,57,203,48*6B
###2023-11-09 13:08:22.638774$GLGSV,2,2,05,86,53,308,47,,,,,,,,,,,,*50
###2023-11-09 13:08:22.641345$GAGSV,1,1,04,07,72,258,44,08,48,043,45,13,64,160,44,26,57,310,44*60
###2023-11-09 13:08:22.643921$GBGSV,2,1,06,11,23,180,40,14,65,008,46,24,20,132,43,26,23,081,45*60
###2023-11-09 13:08:22.645852$GBGSV,2,2,06,28,43,287,46,33,59,304,47,,,,,,,,*67
###2023-11-09 13:08:22.647332$GNVTG,232.44,T,,M,4.14,N,7.67,K,A*27
###2023-11-09 13:08:22.730481$GNGGA,130822.90,3611.0353612,N,07545.0154562,W,1,24,0.6,0.983,M,-39.962,M,0.0,*62
###2023-11-09 13:08:22.733074$GPGSV,2,1,07,05,20,090,42,10,18,292,42,13,24,045,42,15,62,037,46*77
###2023-11-09 13:08:22.735331$GPGSV,2,2,07,18,77,281,46,23,50,315,45,24,49,136,46,,,,*41
