###2023-11-09 13:07:59.427655$GNGGA,130759.60,3611.0460329,N,07544.9821331,W,1,24,0.6,0.925,M,-39.961,M,0.0,*68
###2023-11-09 13:07:59.430255$GPGSV,2,1,07,05,21,090,43,10,18,292,45,13,24,045,42,15,62,037,46*70
###2023-11-09 13:07:59.432505$GPGSV,2,2,07,18,77,281,46,23,50,315,46,24,49,136,45,,,,*41
###2023-11-09 13:07:59.435056$GLGSV,2,1,05,70,50,017,36,71,48,290,49,80,17,091,45,85,58,203,48*64
###2023-11-09 13:07:59.436649$GLGSV,2,2,05,86,52,309,48,,,,,,,,,,,,*5F
###2023-11-09 13:07:59.439236$GAGSV,1,1,04,07,72,258,44,08,49,042,45,13,64,160,44,26,56,310,44*61
###2023-11-09 13:07:59.441818$GBGSV,2,1,06,11,23,180,39,14,65,008,46,24,20,132,43,26,23,081,43*68
###2023-11-09 13:07:59.443748$GBGSV,2,2,06,28,43,287,47,33,59,304,47,,,,,,,,*66
###2023-11-09 13:07:59.445213$GNVTG,237.89,T,,M,3.63,N,6.73,K,A*20
###2023-11-09 13:07:59.528004$GNGGA,130759.70,3611.0459807,N,07544.9822366,W,1,24,0.6,0.934,M,-39.961,M,0.0,*65
###2023-11-09 13:07:59.530597$GPGSV,2,1,07,05,21,090,43,10,18,292,45,13,24,045,42,15,62,037,46*70
###2023-11-09 13:07:59.532839$GPGSV,2,2,07,18,77,281,46,23,50,315,46,24,49,136,45,,,,*41
###2023-11-09 13:07:59.535416$GLGSV,2,1,05,70,50,017,36,71,48,290,49,80,17,091,45,85,58,203,48*64
###2023-11-09 13:07:59.537033$GLGSV,2,2,05,86,52,309,48,,,,,,,,,,,,*5F
###2023-11-09 13:07:59.539602$GAGSV,1,1,04,07,72,258,44,08,49,042,45,13,64,160,44,26,56,310,44*61
###2023-11-09 13:07:59.542173$GBGSV,2,1,06,11,23,180,39,14,65,008,46,24,20,132,43,26,23,081,43*68
###2023-11-09 13:07:59.544104$GBGSV,2,2,06,28,43,287,47,33,59,304,47,,,,,,,,*66
###2023-11-09 13:07:59.545568$GNVTG,238.20,T,,M,3.52,N,6.52,K,A*2D
###2023-11-09 13:07:59.627994$GNGGA,130759.80,3611.0459307,N,07544.9823413,W,1,24,0.6,0.944,M,-39.961,M,0.0,*62
###2023-11-09 13:07:59.630571$GPGSV,2,1,07,05,21,090,43,10,18,292,45,13,24,045,42,15,62,037,46*70
###2023-11-09 13:07:59.632827$GPGSV,2,2,07,18,77,281,46,23,50,315,46,24,49,136,45,,,,*41
###2023-11-09 13:07:59.635403$GLGSV,2,1,05,70,50,017,36,71,48,290,49,80,17,091,45,85,58,203,48*64
###2023-11-09 13:07:59.637025$GLGSV,2,2,05,86,52,309,48,,,,,,,,,,,,*5F
###2023-11-09 13:07:59.639585$GAGSV,1,1,04,07,72,258,44,08,49,042,45,13,64,160,44,26,56,310,44*61
###2023-11-09 13:07:59.642155$GBGSV,2,1,06,11,23,180,39,14,65,008,46,24,20,132,43,26,23,081,44*6F
###2023-11-09 13:07:59.644081$GBGSV,2,2,06,28,43,287,47,33,59,304,47,,,,,,,,*66
###2023-11-09 13:07:59.645541$GNVTG,240.55,T,,M,3.58,N,6.62,K,A*29
###2023-11-09 13:07:59.728097$GNGGA,130759.90,3611.0458829,N,07544.9824496,W,1,24,0.6,0.959,M,-39.961,M,0.0,*63
###2023-11-09 13:07:59.730673$GPGSV,2,1,07,05,21,090,43,10,18,292,45,13,24,045,41,15,62,037,46*73
###2023-11-09 13:07:59.732913$GPGSV,2,2,07,18,77,281,46,23,50,315,46,24,49,136,46,,,,*42
###2023-11-09 13:07:59.735474$GLGSV,2,1,05,70,50,017,36,71,48,290,49,80,17,091,46,85,58,203,48*67
###2023-11-09 13:07:59.737093$GLGSV,2,2,05,86,52,309,48,,,,,,,,,,,,*5F
###2023-11-09 13:07:59.739706$GAGSV,1,1,04,07,72,258,44,08,49,042,45,13,64,160,44,26,56,310,44*61
###2023-11-09 13:07:59.742314$GBGSV,2,1,06,11,23,180,40,14,65,008,46,24,20,132,44,26,23,081,44*66
###2023-11-09 13:07:59.744263$GBGSV,2,2,06,28,43,287,47,33,59,304,46,,,,,,,,*67
###2023-11-09 13:07:59.745725$GNVTG,242.04,T,,M,3.63,N,6.73,K,A*27
###2023-11-09 13:07:59.830020$GNGGA,130800.00,3611.0458389,N,07544.9825627,W,1,24,0.6,0.968,M,-39.961,M,0.0,*63
###2023-11-09 13:07:59.832641$GPGSV,2,1,07,05,21,090,43,10,18,292,44,13,24,045,41,15,62,037,46*72
###2023-11-09 13:07:59.834914$GPGSV,2,2,07,18,77,281,46,23,50,315,46,24,49,136,46,,,,*42
###2023-11-09 13:07:59.837518$GLGSV,2,1,05,70,50,017,36,71,48,290,49,80,17,091,46,85,58,203,48*67
###2023-11-09 13:07:59.839133$GLGSV,2,2,05,86,52,309,47,,,,,,,,,,,,*50
###2023-11-09 13:07:59.841708$GAGSV,1,1,04,07,72,258,45,08,49,042,45,13,64,160,44,26,56,310,44*60
###2023-11-09 13:07:59.844289$GBGSV,2,1,06,11,23,180,40,14,65,008,46,24,20,132,44,26,23,081,44*66
###2023-11-09 13:07:59.846226$GBGSV,2,2,06,28,43,287,47,33,59,304,46,,,,,,,,*67
###2023-11-09 13:07:59.847711$GNVTG,246.44,T,,M,3.71,N,6.88,K,A*20
###2023-11-09 13:07:59.931756$GNGGA,130800.10,3611.0458011,N,07544.9826805,W,1,24,0.6,0.967,M,-39.961,M,0.0,*62
###2023-11-09 13:07:59.934340$GPGSV,2,1,07,05,21,090,43,10,18,292,44,13,24,045,41,15,62,037,46*72
###2023-11-09 13:07:59.936610$GPGSV,2,2,07,18,77,281,46,23,50,315,46,24,49,136,46,,,,*42
###2023-11-09 13:07:59.939219$GLGSV,2,1,05,70,50,017,36,71,48,290,49,80,17,091,45,85,58,203,48*64
###2023-11-09 13:07:59.940831$GLGSV,2,2,05,86,52,309,47,,,,,,,,,,,,*50
###2023-11-09 13:07:59.943405$GAGSV,1,1,04,07,72,258,44,08,49,042,45,13,64,160,44,26,56,310,44*61
###2023-11-09 13:07:59.945997$GBGSV,2,1,06,11,23,180,40,14,65,008,46,24,20,132,44,26,23,081,44*66
###2023-11-09 13:07:59.947954$GBGSV,2,2,06,28,43,287,47,33,59,304,46,,,,,,,,*67
###2023-11-09 13:07:59.949417$GNVTG,250.01,T,,M,3.69,N,6.84,K,A*23
###2023-11-09 13:08:00.031224$GNGGA,130800.20,3611.0457677,N,07544.9827982,W,1,24,0.6,0.962,M,-39.961,M,0.0,*62
###2023-11-09 13:08:00.033802$GPGSV,2,1,07,05,21,090,42,10,18,292,44,13,24,045,41,15,62,037,46*73
###2023-11-09 13:08:00.036042$GPGSV,2,2,07,18,77,281,46,23,50,315,46,24,49,136,45,,,,*41
###2023-11-09 13:08:00.038623$GLGSV,2,1,05,70,50,017,36,71,48,290,49,80,17,091,45,85,58,203,48*64
###2023-11-09 13:08:00.040227$GLGSV,2,2,05,86,52,309,48,,,,,,,,,,,,*5F
###2023-11-09 13:08:00.042779$GAGSV,1,1,04,07,72,258,44,08,49,042,45,13,64,160,44,26,56,310,44*61
###2023-11-09 13:08:00.045354$GBGSV,2,1,06,11,23,180,40,14,65,008,46,24,20,132,43,26,23,081,44*61
###2023-11-09 13:08:00.047292$GBGSV,2,2,06,28,43,287,47,33,59,304,47,,,,,,,,*66
###2023-11-09 13:08:00.048753$GNVTG,251.09,T,,M,3.60,N,6.66,K,A*2F
###2023-11-09 13:08:00.127891$GNGGA,130800.30,3611.0457331,N,07544.9829097,W,1,24,0.6,0.971,M,-39.961,M,0.0,*65
###2023-11-09 13:08:00.130481$GPGSV,2,1,07,05,21,090,42,10,18,292,44,13,24,045,42,15,62,037,46*70
###2023-11-09 13:08:00.132741$GPGSV,2,2,07,18,77,281,46,23,50,315,46,24,49,136,45,,,,*41
###2023-11-09 13:08:00.135314$GLGSV,2,1,05,70,50,017,36,71,48,290,49,80,17,091,45,85,58,203,48*64
###2023-11-09 13:08:00.136931$GLGSV,2,2,05,86,52,309,48,,,,,,,,,,,,*5F
###2023-11-09 13:08:00.139500$GAGSV,1,1,04,07,72,258,44,08,49,042,45,13,64,160,44,26,56,310,45*60
###2023-11-09 13:08:00.142078$GBGSV,2,1,06,11,23,180,40,14,65,008,46,24,20,132,43,26,23,081,44*61
###2023-11-09 13:08:00.144012$GBGSV,2,2,06,28,43,287,47,33,59,304,47,,,,,,,,*66
###2023-11-09 13:08:00.145477$GNVTG,247.66,T,,M,3.42,N,6.34,K,A*26
###2023-11-09 13:08:00.229002$GNGGA,130800.40,3611.0456926,N,07544.9830166,W,1,24,0.6,0.982,M,-39.961,M,0.0,*64
###2023-11-09 13:08:00.231583$GPGSV,2,1,07,05,21,090,42,10,18,292,44,13,24,045,42,15,62,037,46*70
###2023-11-09 13:08:00.233844$GPGSV,2,2,07,18,77,281,45,23,50,315,46,24,49,136,45,,,,*42
###2023-11-09 13:08:00.236419$GLGSV,2,1,05,70,50,017,37,71,48,290,49,80,17,091,45,85,58,203,48*65
###2023-11-09 13:08:00.238048$GLGSV,2,2,05,86,52,309,48,,,,,,,,,,,,*5F
###2023-11-09 13:08:00.240619$GAGSV,1,1,04,07,72,258,44,08,49,042,45,13,64,160,44,26,56,310,45*60
###2023-11-09 13:08:00.243192$GBGSV,2,1,06,11,23,180,40,14,65,008,46,24,20,132,43,26,23,081,43*66
###2023-11-09 13:08:00.245132$GBGSV,2,2,06,28,43,287,47,33,59,304,47,,,,,,,,*66
###2023-11-09 13:08:00.246603$GNVTG,242.93,T,,M,3.50,N,6.48,K,A*21
###2023-11-09 13:08:00.328293$GNGGA,130800.50,3611.0456465,N,07544.9831224,W,1,24,0.6,0.993,M,-39.961,M,0.0,*6B
###2023-11-09 13:08:00.330904$GPGSV,2,1,07,05,21,090,42,10,18,292,44,13,24,045,42,15,62,037,46*70
###2023-11-09 13:08:00.333165$GPGSV,2,2,07,18,77,281,45,23,50,315,46,24,49,136,45,,,,*42
###2023-11-09 13:08:00.335733$GLGSV,2,1,05,70,50,017,37,71,48,290,49,80,17,091,44,85,58,203,48*64
###2023-11-09 13:08:00.337361$GLGSV,2,2,05,86,52,309,47,,,,,,,,,,,,*50
###2023-11-09 13:08:00.339928$GAGSV,1,1,04,07,72,258,44,08,49,042,45,13,64,160,44,26,56,310,44*61
###2023-11-09 13:08:00.342504$GBGSV,2,1,06,11,23,180,40,14,65,008,46,24,20,132,43,26,23,081,43*66
###2023-11-09 13:08:00.344427$GBGSV,2,2,06,28,43,287,47,33,59,304,46,,,,,,,,*67
###2023-11-09 13:08:00.345881$GNVTG,241.45,T,,M,3.54,N,6.55,K,A*21
###2023-11-09 13:08:00.428029$GNGGA,130800.60,3611.0456027,N,07544.9832308,W,1,24,0.6,0.986,M,-39.961,M,0.0,*62
###2023-11-09 13:08:00.430644$GPGSV,2,1,07,05,21,090,42,10,18,292,43,13,24,045,42,15,62,037,46*77
###2023-11-09 13:08:00.432920$GPGSV,2,2,07,18,77,281,46,23,50,315,46,24,49,136,45,,,,*41
###2023-11-09 13:08:00.435510$GLGSV,2,1,05,70,50,017,36,71,48,290,49,80,17,091,45,85,58,203,48*64
###2023-11-09 13:08:00.437142$GLGSV,2,2,05,86,52,309,47,,,,,,,,,,,,*50
###2023-11-09 13:08:00.439719$GAGSV,1,1,04,07,72,258,44,08,49,042,45,13,64,160,44,26,56,310,44*61
###2023-11-09 13:08:00.442317$GBGSV,2,1,06,11,23,180,40,14,65,008,46,24,20,132,43,26,23,081,43*66
###2023-11-09 13:08:00.444261$GBGSV,2,2,06,28,43,287,47,33,59,304,46,,,,,,,,*67
###2023-11-09 13:08:00.445729$GNVTG,246.28,T,,M,3.56,N,6.59,K,A*23
###2023-11-09 13:08:00.528020$GNGGA,130800.70,3611.0455679,N,07544.9833453,W,1,24,0.6,0.969,M,-39.961,M,0.0,*64
