###2023-11-09 13:07:19.148201$GNVTG,13.02,T,,M,1.32,N,2.45,K,A*10
###2023-11-09 13:07:19.229110$GNGGA,130719.40,3611.0524892,N,07544.9776123,W,1,23,0.6,1.027,M,-39.961,M,0.0,*65
###2023-11-09 13:07:19.231698$GPGSV,2,1,07,05,21,090,41,10,18,292,43,13,24,045,40,15,62,037,45*75
###2023-11-09 13:07:19.233931$GPGSV,2,2,07,18,77,281,47,23,50,315,45,24,49,136,46,,,,*40
###2023-11-09 13:07:19.236482$GLGSV,1,1,04,71,48,288,48,80,17,091,43,85,58,203,49,86,52,309,47*68
###2023-11-09 13:07:19.239057$GAGSV,1,1,04,07,72,257,45,08,49,042,44,13,64,160,45,26,56,310,44*6F
###2023-11-09 13:07:19.241624$GBGSV,2,1,06,11,24,180,42,14,65,006,44,24,19,133,45,26,23,082,42*60
###2023-11-09 13:07:19.243546$GBGSV,2,2,06,28,43,289,47,33,58,302,47,,,,,,,,*6F
###2023-11-09 13:07:19.244968$GNVTG,11.20,T,,M,1.73,N,3.20,K,A*15
###2023-11-09 13:07:19.328126$GNGGA,130719.50,3611.0525377,N,07544.9776008,W,1,23,0.6,1.038,M,-39.961,M,0.0,*63
###2023-11-09 13:07:19.330707$GPGSV,2,1,07,05,21,090,41,10,18,292,43,13,24,045,41,15,62,037,45*74
###2023-11-09 13:07:19.332955$GPGSV,2,2,07,18,77,281,47,23,50,315,45,24,49,136,46,,,,*40
###2023-11-09 13:07:19.335528$GLGSV,1,1,04,71,48,288,48,80,17,091,43,85,58,203,49,86,52,309,47*68
###2023-11-09 13:07:19.338109$GAGSV,1,1,04,07,72,257,45,08,49,042,45,13,64,160,45,26,56,310,44*6E
###2023-11-09 13:07:19.340700$GBGSV,2,1,06,11,24,180,42,14,65,006,44,24,19,133,43,26,23,082,43*67
###2023-11-09 13:07:19.342635$GBGSV,2,2,06,28,43,289,47,33,58,302,47,,,,,,,,*6F
###2023-11-09 13:07:19.344064$GNVTG,11.03,T,,M,1.79,N,3.31,K,A*1E
###2023-11-09 13:07:19.430123$GNGGA,130719.60,3611.0525822,N,07544.9775886,W,1,24,0.6,1.040,M,-39.961,M,0.0,*6E
###2023-11-09 13:07:19.432720$GPGSV,2,1,07,05,21,090,42,10,18,292,43,13,24,045,43,15,62,037,46*76
###2023-11-09 13:07:19.434978$GPGSV,2,2,07,18,77,281,47,23,50,315,45,24,49,136,45,,,,*43
###2023-11-09 13:07:19.437571$GLGSV,2,1,05,70,50,016,36,71,48,288,48,80,17,091,43,85,58,203,48*6B
###2023-11-09 13:07:19.439180$GLGSV,2,2,05,86,52,309,48,,,,,,,,,,,,*5F
###2023-11-09 13:07:19.441747$GAGSV,1,1,04,07,72,257,45,08,49,042,45,13,64,160,44,26,56,310,45*6E
###2023-11-09 13:07:19.444327$GBGSV,2,1,06,11,24,180,41,14,65,006,44,24,19,133,43,26,23,082,43*64
###2023-11-09 13:07:19.446268$GBGSV,2,2,06,28,43,289,47,33,58,302,47,,,,,,,,*6F
###2023-11-09 13:07:19.447716$GNVTG,15.20,T,,M,1.46,N,2.70,K,A*13
###2023-11-09 13:07:19.529118$GNGGA,130719.70,3611.0526140,N,07544.9775767,W,1,24,0.6,1.043,M,-39.961,M,0.0,*62
###2023-11-09 13:07:19.531680$GPGSV,2,1,07,05,21,090,42,10,18,292,43,13,24,045,43,15,62,037,46*76
###2023-11-09 13:07:19.533930$GPGSV,2,2,07,18,77,281,47,23,50,315,46,24,49,136,45,,,,*40
###2023-11-09 13:07:19.536490$GLGSV,2,1,05,70,50,016,36,71,48,288,48,80,17,091,43,85,58,203,47*64
###2023-11-09 13:07:19.538104$GLGSV,2,2,05,86,52,309,48,,,,,,,,,,,,*5F
###2023-11-09 13:07:19.540669$GAGSV,1,1,04,07,72,257,45,08,49,042,45,13,64,160,44,26,56,310,45*6E
###2023-11-09 13:07:19.543248$GBGSV,2,1,06,11,24,180,39,14,65,006,44,24,19,133,43,26,23,082,44*6C
###2023-11-09 13:07:19.545192$GBGSV,2,2,06,28,43,289,47,33,58,302,47,,,,,,,,*6F
###2023-11-09 13:07:19.546617$GNVTG,15.20,T,,M,0.89,N,1.66,K,A*15
###2023-11-09 13:07:19.629155$GNGGA,130719.80,3611.0526317,N,07544.9775663,W,1,24,0.6,1.053,M,-39.961,M,0.0,*69
###2023-11-09 13:07:19.631754$GPGSV,2,1,07,05,21,090,42,10,18,292,44,13,24,045,43,15,62,037,46*71
###2023-11-09 13:07:19.634006$GPGSV,2,2,07,18,77,281,47,23,50,315,46,24,49,136,45,,,,*40
###2023-11-09 13:07:19.636580$GLGSV,2,1,05,70,50,016,36,71,48,288,48,80,17,091,43,85,58,203,47*64
###2023-11-09 13:07:19.638206$GLGSV,2,2,05,86,52,309,48,,,,,,,,,,,,*5F
###2023-11-09 13:07:19.640787$GAGSV,1,1,04,07,72,257,45,08,49,042,45,13,64,160,44,26,56,310,45*6E
###2023-11-09 13:07:19.643380$GBGSV,2,1,06,11,24,180,39,14,65,006,44,24,19,133,43,26,23,082,44*6C
###2023-11-09 13:07:19.645314$GBGSV,2,2,06,28,43,289,47,33,58,302,47,,,,,,,,*6F
###2023-11-09 13:07:19.646745$GNVTG,15.20,T,,M,0.51,N,0.94,K,A*1C
###2023-11-09 13:07:19.730120$GNGGA,130719.90,3611.0526421,N,07544.9775565,W,1,24,0.6,1.058,M,-39.961,M,0.0,*64
###2023-11-09 13:07:19.732712$GPGSV,2,1,07,05,21,090,42,10,18,292,44,13,24,045,41,15,62,037,46*73
###2023-11-09 13:07:19.734965$GPGSV,2,2,07,18,77,281,47,23,50,315,46,24,49,136,45,,,,*40
###2023-11-09 13:07:19.737564$GLGSV,2,1,05,70,50,016,36,71,48,288,48,80,17,091,43,85,58,203,47*64
###2023-11-09 13:07:19.739174$GLGSV,2,2,05,86,52,309,47,,,,,,,,,,,,*50
###2023-11-09 13:07:19.741765$GAGSV,1,1,04,07,72,257,45,08,49,042,45,13,64,160,44,26,56,310,45*6E
###2023-11-09 13:07:19.744353$GBGSV,2,1,06,11,24,180,41,14,65,006,45,24,19,133,43,26,23,082,43*65
###2023-11-09 13:07:19.746286$GBGSV,2,2,06,28,43,289,47,33,58,302,47,,,,,,,,*6F
###2023-11-09 13:07:19.747734$GNVTG,15.20,T,,M,0.43,N,0.79,K,A*1C
###2023-11-09 13:07:19.831102$GNGGA,130720.00,3611.0526544,N,07544.9775463,W,1,24,0.6,1.053,M,-39.961,M,0.0,*69
###2023-11-09 13:07:19.833680$GPGSV,2,1,07,05,21,090,41,10,18,292,44,13,24,045,41,15,62,037,45*73
###2023-11-09 13:07:19.835918$GPGSV,2,2,07,18,77,281,47,23,50,315,45,24,49,136,46,,,,*40
###2023-11-09 13:07:19.838498$GLGSV,2,1,05,70,50,016,36,71,48,288,48,80,17,091,42,85,58,203,49*6B
###2023-11-09 13:07:19.840102$GLGSV,2,2,05,86,52,309,47,,,,,,,,,,,,*50
###2023-11-09 13:07:19.842674$GAGSV,1,1,04,07,72,257,45,08,49,042,44,13,64,160,45,26,56,310,45*6E
###2023-11-09 13:07:19.845247$GBGSV,2,1,06,11,24,180,42,14,65,006,45,24,19,133,44,26,23,082,43*61
###2023-11-09 13:07:19.847195$GBGSV,2,2,06,28,43,289,47,33,58,302,47,,,,,,,,*6F
###2023-11-09 13:07:19.848626$GNVTG,15.20,T,,M,0.62,N,1.15,K,A*14
###2023-11-09 13:07:19.944501$GNGGA,130720.10,3611.0526750,N,07544.9775355,W,1,24,0.6,1.045,M,-39.961,M,0.0,*6A
###2023-11-09 13:07:19.947132$GPGSV,2,1,07,05,21,090,40,10,18,292,43,13,24,045,40,15,62,037,45*74
###2023-11-09 13:07:19.949387$GPGSV,2,2,07,18,77,281,47,23,50,315,45,24,49,136,46,,,,*40
###2023-11-09 13:07:19.951966$GLGSV,2,1,05,70,50,016,35,71,48,288,48,80,17,091,42,85,58,203,49*68
###2023-11-09 13:07:19.953576$GLGSV,2,2,05,86,52,309,47,,,,,,,,,,,,*50
###2023-11-09 13:07:19.956150$GAGSV,1,1,04,07,72,257,45,08,49,042,44,13,64,160,45,26,56,310,45*6E
###2023-11-09 13:07:19.958763$GBGSV,2,1,06,11,24,180,42,14,65,006,45,24,19,133,44,26,23,082,43*61
###2023-11-09 13:07:19.960705$GBGSV,2,2,06,28,43,289,47,33,58,302,47,,,,,,,,*6F
###2023-11-09 13:07:19.962136$GNVTG,15.20,T,,M,0.97,N,1.80,K,A*12
###2023-11-09 13:07:20.033113$GNGGA,130720.20,3611.0527067,N,07544.9775220,W,1,24,0.6,1.048,M,-39.961,M,0.0,*65
###2023-11-09 13:07:20.035710$GPGSV,2,1,07,05,21,090,40,10,18,292,43,13,24,045,40,15,62,037,45*74
###2023-11-09 13:07:20.037980$GPGSV,2,2,07,18,77,281,47,23,50,315,45,24,49,136,46,,,,*40
###2023-11-09 13:07:20.040557$GLGSV,2,1,05,70,50,016,35,71,48,288,48,80,17,091,42,85,58,203,49*68
###2023-11-09 13:07:20.042160$GLGSV,2,2,05,86,52,309,47,,,,,,,,,,,,*50
###2023-11-09 13:07:20.044733$GAGSV,1,1,04,07,72,257,45,08,49,042,44,13,64,160,45,26,56,310,45*6E
###2023-11-09 13:07:20.047352$GBGSV,2,1,06,11,24,180,42,14,65,006,45,24,19,133,44,26,23,082,42*60
###2023-11-09 13:07:20.049297$GBGSV,2,2,06,28,43,289,47,33,58,302,47,,,,,,,,*6F
###2023-11-09 13:07:20.050728$GNVTG,18.43,T,,M,1.42,N,2.63,K,A*1D
###2023-11-09 13:07:20.134230$GNGGA,130720.30,3611.0527464,N,07544.9775066,W,1,24,0.6,1.054,M,-39.961,M,0.0,*6E
###2023-11-09 13:07:20.136817$GPGSV,2,1,07,05,21,090,40,10,18,292,42,13,24,045,40,15,62,037,45*75
###2023-11-09 13:07:20.139080$GPGSV,2,2,07,18,77,281,47,23,50,315,45,24,49,136,46,,,,*40
###2023-11-09 13:07:20.141640$GLGSV,2,1,05,70,50,016,35,71,48,288,48,80,17,091,42,85,58,203,48*69
###2023-11-09 13:07:20.143233$GLGSV,2,2,05,86,52,309,47,,,,,,,,,,,,*50
###2023-11-09 13:07:20.145785$GAGSV,1,1,04,07,72,257,45,08,49,042,44,13,64,160,45,26,56,310,44*6F
###2023-11-09 13:07:20.148370$GBGSV,2,1,06,11,24,180,42,14,65,006,45,24,19,133,44,26,23,082,42*60
###2023-11-09 13:07:20.150300$GBGSV,2,2,06,28,43,289,47,33,58,302,47,,,,,,,,*6F
###2023-11-09 13:07:20.151743$GNVTG,17.12,T,,M,1.56,N,2.88,K,A*16
###2023-11-09 13:07:20.229516$GNGGA,130720.40,3611.0527853,N,07544.9774917,W,1,24,0.6,1.055,M,-39.961,M,0.0,*6E
###2023-11-09 13:07:20.232404$GPGSV,2,1,07,05,21,090,41,10,18,292,42,13,24,045,42,15,62,037,45*76
###2023-11-09 13:07:20.234677$GPGSV,2,2,07,18,77,281,47,23,50,315,45,24,49,136,46,,,,*40
###2023-11-09 13:07:20.237276$GLGSV,2,1,05,70,50,016,35,71,48,288,47,80,17,091,43,85,58,203,48*67
###2023-11-09 13:07:20.238892$GLGSV,2,2,05,86,52,309,47,,,,,,,,,,,,*50
###2023-11-09 13:07:20.241468$GAGSV,1,1,04,07,72,257,45,08,49,042,44,13,64,160,45,26,56,310,45*6E
###2023-11-09 13:07:20.244046$GBGSV,2,1,06,11,24,180,42,14,65,006,45,24,19,133,44,26,23,082,42*60
###2023-11-09 13:07:20.245995$GBGSV,2,2,06,28,43,289,47,33,58,302,47,,,,,,,,*6F
###2023-11-09 13:07:20.247438$GNVTG,17.93,T,,M,1.34,N,2.48,K,A*17
###2023-11-09 13:07:20.330987$GNGGA,130720.50,3611.0528166,N,07544.9774785,W,1,24,0.6,1.053,M,-39.961,M,0.0,*6C
###2023-11-09 13:07:20.333575$GPGSV,2,1,07,05,21,090,42,10,18,292,43,13,24,045,43,15,62,037,45*75
