###2023-11-09 13:09:34.048306$GBGSV,2,2,06,28,43,287,47,33,59,304,47,,,,,,,,*66
###2023-11-09 13:09:34.049767$GNVTG,91.55,T,,M,2.86,N,5.29,K,A*19
###2023-11-09 13:09:34.129495$GNGGA,130934.30,3611.0340965,N,07544.9407144,W,1,24,0.6,0.627,M,-39.961,M,0.0,*6A
###2023-11-09 13:09:34.132099$GPGSV,2,1,07,05,20,090,41,10,19,293,42,13,24,045,41,15,61,037,45*77
###2023-11-09 13:09:34.134352$GPGSV,2,2,07,18,78,277,47,23,50,316,45,24,50,134,46,,,,*4F
###2023-11-09 13:09:34.136928$GLGSV,2,1,05,70,50,017,35,71,48,290,47,80,18,090,43,85,57,203,49*6F
###2023-11-09 13:09:34.138547$GLGSV,2,2,05,86,53,308,47,,,,,,,,,,,,*50
###2023-11-09 13:09:34.141104$GAGSV,1,1,04,07,73,259,45,08,48,043,44,13,63,161,45,26,57,310,44*67
###2023-11-09 13:09:34.143683$GBGSV,2,1,06,11,22,180,41,14,65,009,45,24,20,132,43,26,23,081,42*65
###2023-11-09 13:09:34.145617$GBGSV,2,2,06,28,43,287,47,33,59,304,47,,,,,,,,*66
###2023-11-09 13:09:34.147063$GNVTG,91.14,T,,M,2.78,N,5.15,K,A*12
###2023-11-09 13:09:34.229604$GNGGA,130934.40,3611.0341010,N,07544.9406176,W,1,24,0.6,0.609,M,-39.961,M,0.0,*6B
###2023-11-09 13:09:34.232171$GPGSV,2,1,07,05,20,090,41,10,19,293,42,13,24,045,41,15,61,037,45*77
###2023-11-09 13:09:34.234412$GPGSV,2,2,07,18,78,277,47,23,50,316,45,24,50,134,46,,,,*4F
###2023-11-09 13:09:34.236980$GLGSV,2,1,05,70,50,017,35,71,48,290,47,80,18,090,43,85,57,203,49*6F
###2023-11-09 13:09:34.238585$GLGSV,2,2,05,86,53,308,47,,,,,,,,,,,,*50
###2023-11-09 13:09:34.241141$GAGSV,1,1,04,07,73,259,45,08,48,043,44,13,63,161,45,26,57,310,44*67
###2023-11-09 13:09:34.243713$GBGSV,2,1,06,11,22,180,42,14,65,009,45,24,20,132,44,26,23,081,42*61
###2023-11-09 13:09:34.245637$GBGSV,2,2,06,28,43,287,47,33,59,304,47,,,,,,,,*66
###2023-11-09 13:09:34.247066$GNVTG,82.23,T,,M,2.88,N,5.33,K,A*1F
###2023-11-09 13:09:34.329629$GNGGA,130934.50,3611.0341182,N,07544.9405188,W,1,24,0.6,0.597,M,-39.961,M,0.0,*66
###2023-11-09 13:09:34.332227$GPGSV,2,1,07,05,20,090,41,10,19,293,42,13,24,045,41,15,61,037,45*77
###2023-11-09 13:09:34.334486$GPGSV,2,2,07,18,78,277,47,23,50,316,45,24,50,134,46,,,,*4F
###2023-11-09 13:09:34.337072$GLGSV,2,1,05,70,50,017,35,71,48,290,47,80,18,090,43,85,57,203,49*6F
###2023-11-09 13:09:34.338680$GLGSV,2,2,05,86,53,308,47,,,,,,,,,,,,*50
###2023-11-09 13:09:34.341247$GAGSV,1,1,04,07,73,259,45,08,48,043,44,13,63,161,45,26,57,310,44*67
###2023-11-09 13:09:34.343832$GBGSV,2,1,06,11,22,180,42,14,65,009,45,24,20,132,44,26,23,081,42*61
###2023-11-09 13:09:34.345767$GBGSV,2,2,06,28,43,287,47,33,59,304,47,,,,,,,,*66
###2023-11-09 13:09:34.347214$GNVTG,73.79,T,,M,3.03,N,5.62,K,A*18
###2023-11-09 13:09:34.429116$GNGGA,130934.60,3611.0341443,N,07544.9404195,W,1,23,0.6,0.602,M,-39.961,M,0.0,*68
###2023-11-09 13:09:34.431705$GPGSV,2,1,07,05,20,090,41,10,19,293,43,13,24,045,41,15,61,037,45*76
###2023-11-09 13:09:34.433955$GPGSV,2,2,07,18,78,277,47,23,50,316,45,24,50,134,46,,,,*4F
###2023-11-09 13:09:34.436522$GLGSV,1,1,04,71,48,290,47,80,18,090,43,85,57,203,49,86,53,308,47*6F
###2023-11-09 13:09:34.439107$GAGSV,1,1,04,07,73,259,45,08,48,043,44,13,63,161,45,26,57,310,44*67
###2023-11-09 13:09:34.441683$GBGSV,2,1,06,11,22,180,42,14,65,009,45,24,20,132,44,26,23,081,42*61
###2023-11-09 13:09:34.443615$GBGSV,2,2,06,28,43,287,47,33,59,304,47,,,,,,,,*66
###2023-11-09 13:09:34.445050$GNVTG,70.03,T,,M,3.05,N,5.65,K,A*17
###2023-11-09 13:09:34.529628$GNGGA,130934.70,3611.0341702,N,07544.9403206,W,1,24,0.6,0.602,M,-39.961,M,0.0,*66
###2023-11-09 13:09:34.532218$GPGSV,2,1,07,05,20,090,41,10,19,293,44,13,24,045,41,15,61,037,45*71
###2023-11-09 13:09:34.534467$GPGSV,2,2,07,18,78,277,47,23,50,316,45,24,50,134,46,,,,*4F
###2023-11-09 13:09:34.537050$GLGSV,2,1,05,70,50,017,35,71,48,290,47,80,18,090,43,85,57,203,48*6E
###2023-11-09 13:09:34.538658$GLGSV,2,2,05,86,53,308,47,,,,,,,,,,,,*50
###2023-11-09 13:09:34.541229$GAGSV,1,1,04,07,73,259,45,08,48,043,44,13,63,161,45,26,57,310,44*67
###2023-11-09 13:09:34.543808$GBGSV,2,1,06,11,22,180,41,14,65,009,45,24,20,132,43,26,23,081,42*65
###2023-11-09 13:09:34.545748$GBGSV,2,2,06,28,43,287,47,33,59,304,47,,,,,,,,*66
###2023-11-09 13:09:34.547189$GNVTG,74.24,T,,M,3.01,N,5.58,K,A*1C
###2023-11-09 13:09:34.629633$GNGGA,130934.80,3611.0341878,N,07544.9402202,W,1,24,0.6,0.603,M,-39.961,M,0.0,*6F
###2023-11-09 13:09:34.632238$GPGSV,2,1,07,05,20,090,41,10,19,293,44,13,24,045,42,15,61,037,45*72
###2023-11-09 13:09:34.634487$GPGSV,2,2,07,18,78,277,47,23,50,316,45,24,50,134,45,,,,*4C
###2023-11-09 13:09:34.637068$GLGSV,2,1,05,70,50,017,35,71,48,290,48,80,18,090,43,85,57,203,48*61
###2023-11-09 13:09:34.638673$GLGSV,2,2,05,86,53,308,47,,,,,,,,,,,,*50
###2023-11-09 13:09:34.641242$GAGSV,1,1,04,07,73,259,45,08,48,043,44,13,63,161,44,26,57,310,44*66
###2023-11-09 13:09:34.643822$GBGSV,2,1,06,11,22,180,40,14,65,009,45,24,20,132,43,26,23,081,43*65
###2023-11-09 13:09:34.645759$GBGSV,2,2,06,28,43,287,47,33,59,304,47,,,,,,,,*66
###2023-11-09 13:09:34.647198$GNVTG,80.93,T,,M,2.97,N,5.51,K,A*1C
###2023-11-09 13:09:34.729499$GNGGA,130934.90,3611.0341946,N,07544.9401181,W,1,24,0.6,0.602,M,-39.961,M,0.0,*68
###2023-11-09 13:09:34.732077$GPGSV,2,1,07,05,20,090,41,10,19,293,44,13,24,045,42,15,61,037,45*72
###2023-11-09 13:09:34.734324$GPGSV,2,2,07,18,78,277,47,23,50,316,45,24,50,134,45,,,,*4C
###2023-11-09 13:09:34.736892$GLGSV,2,1,05,70,50,017,35,71,48,290,49,80,18,090,43,85,57,203,48*60
###2023-11-09 13:09:34.738514$GLGSV,2,2,05,86,53,308,47,,,,,,,,,,,,*50
###2023-11-09 13:09:34.741077$GAGSV,1,1,04,07,73,259,45,08,48,043,44,13,63,161,44,26,57,310,44*66
###2023-11-09 13:09:34.743646$GBGSV,2,1,06,11,22,180,40,14,65,009,45,24,20,132,43,26,23,081,43*65
###2023-11-09 13:09:34.745572$GBGSV,2,2,06,28,43,287,47,33,59,304,47,,,,,,,,*66
###2023-11-09 13:09:34.747013$GNVTG,89.23,T,,M,3.01,N,5.58,K,A*19
###2023-11-09 13:09:34.833349$GNGGA,130935.00,3611.0341913,N,07544.9400150,W,1,24,0.6,0.601,M,-39.961,M,0.0,*6E
###2023-11-09 13:09:34.835914$GPGSV,2,1,07,05,20,090,41,10,19,293,44,13,24,045,42,15,61,037,45*72
###2023-11-09 13:09:34.838168$GPGSV,2,2,07,18,78,277,47,23,50,316,45,24,50,134,45,,,,*4C
###2023-11-09 13:09:34.840727$GLGSV,2,1,05,70,50,017,35,71,48,290,48,80,18,090,43,85,57,203,49*60
###2023-11-09 13:09:34.842317$GLGSV,2,2,05,86,53,308,47,,,,,,,,,,,,*50
###2023-11-09 13:09:34.844872$GAGSV,1,1,04,07,73,259,45,08,48,043,44,13,63,161,44,26,57,310,44*66
###2023-11-09 13:09:34.847446$GBGSV,2,1,06,11,22,180,40,14,65,009,45,24,20,132,43,26,23,081,43*65
###2023-11-09 13:09:34.849368$GBGSV,2,2,06,28,43,287,47,33,59,304,47,,,,,,,,*66
###2023-11-09 13:09:34.850785$GNVTG,94.92,T,,M,3.01,N,5.58,K,A*1F
###2023-11-09 13:09:34.930871$GNGGA,130935.10,3611.0341855,N,07544.9399117,W,1,24,0.6,0.586,M,-39.961,M,0.0,*64
###2023-11-09 13:09:34.933461$GPGSV,2,1,07,05,20,090,41,10,19,293,42,13,24,045,42,15,61,037,45*74
###2023-11-09 13:09:34.935709$GPGSV,2,2,07,18,78,277,47,23,50,316,45,24,50,134,46,,,,*4F
###2023-11-09 13:09:34.938312$GLGSV,2,1,05,70,50,017,35,71,48,290,48,80,18,090,43,85,57,203,49*60
###2023-11-09 13:09:34.939924$GLGSV,2,2,05,86,53,308,47,,,,,,,,,,,,*50
###2023-11-09 13:09:34.942495$GAGSV,1,1,04,07,73,259,45,08,48,043,44,13,63,161,45,26,57,310,44*67
###2023-11-09 13:09:34.945068$GBGSV,2,1,06,11,22,180,41,14,65,009,45,24,20,132,44,26,23,081,43*63
###2023-11-09 13:09:34.947050$GBGSV,2,2,06,28,43,287,47,33,59,304,47,,,,,,,,*66
###2023-11-09 13:09:34.948494$GNVTG,92.96,T,,M,3.03,N,5.62,K,A*16
###2023-11-09 13:09:35.033611$GNGGA,130935.20,3611.0341864,N,07544.9398067,W,1,24,0.6,0.572,M,-39.961,M,0.0,*69
###2023-11-09 13:09:35.036210$GPGSV,2,1,07,05,20,090,41,10,19,293,42,13,24,045,41,15,61,037,45*77
###2023-11-09 13:09:35.038483$GPGSV,2,2,07,18,78,277,46,23,50,316,45,24,50,134,46,,,,*4E
###2023-11-09 13:09:35.041054$GLGSV,2,1,05,70,50,017,35,71,48,290,47,80,18,090,42,85,57,203,49*6E
###2023-11-09 13:09:35.042656$GLGSV,2,2,05,86,53,308,47,,,,,,,,,,,,*50
###2023-11-09 13:09:35.045228$GAGSV,1,1,04,07,73,259,45,08,48,043,44,13,63,161,45,26,57,310,44*67
###2023-11-09 13:09:35.047817$GBGSV,2,1,06,11,22,180,41,14,65,009,45,24,20,132,44,26,23,081,43*63
###2023-11-09 13:09:35.049743$GBGSV,2,2,06,28,43,287,47,33,59,304,47,,,,,,,,*66
###2023-11-09 13:09:35.051467$GNVTG,85.93,T,,M,3.11,N,5.76,K,A*13
###2023-11-09 13:09:35.129629$GNGGA,130935.30,3611.0341960,N,07544.9397002,W,1,24,0.6,0.564,M,-39.961,M,0.0,*66
###2023-11-09 13:09:35.132210$GPGSV,2,1,07,05,20,090,41,10,19,293,42,13,24,045,41,15,61,037,45*77
###2023-11-09 13:09:35.134457$GPGSV,2,2,07,18,78,277,46,23,50,316,45,24,50,134,46,,,,*4E
###2023-11-09 13:09:35.137028$GLGSV,2,1,05,70,50,017,35,71,48,290,47,80,18,090,43,85,57,203,49*6F
###2023-11-09 13:09:35.138633$GLGSV,2,2,05,86,53,308,47,,,,,,,,,,,,*50
###2023-11-09 13:09:35.141187$GAGSV,1,1,04,07,73,259,45,08,48,043,43,13,63,161,45,26,57,310,44*60
###2023-11-09 13:09:35.143760$GBGSV,2,1,06,11,22,180,43,14,65,009,45,24,20,132,44,26,23,081,42*60
###2023-11-09 13:09:35.145685$GBGSV,2,2,06,28,43,287,47,33,59,304,47,,,,,,,,*66
###2023-11-09 13:09:35.147117$GNVTG,81.27,T,,M,3.17,N,5.87,K,A*10
