###2023-11-09 13:09:16.143501$GAGSV,1,1,04,07,73,259,45,08,48,043,44,13,63,161,46,26,57,310,45*65
###2023-11-09 13:09:16.146112$GBGSV,2,1,06,11,23,180,42,14,65,008,45,24,20,132,45,26,23,081,43*61
###2023-11-09 13:09:16.148089$GBGSV,2,2,06,28,43,287,46,33,59,304,47,,,,,,,,*67
###2023-11-09 13:09:16.149532$GNVTG,50.27,T,,M,3.77,N,6.98,K,A*17
###2023-11-09 13:09:16.229616$GNGGA,130916.40,3611.0310794,N,07544.9564617,W,1,24,0.6,0.520,M,-39.962,M,0.0,*6A
###2023-11-09 13:09:16.232208$GPGSV,2,1,07,05,20,090,43,10,19,293,40,13,24,045,40,15,61,037,46*75
###2023-11-09 13:09:16.234464$GPGSV,2,2,07,18,78,277,47,23,50,316,44,24,50,134,45,,,,*4D
###2023-11-09 13:09:16.237058$GLGSV,2,1,05,70,50,017,36,71,48,290,46,80,18,090,45,85,57,203,50*63
###2023-11-09 13:09:16.238670$GLGSV,2,2,05,86,53,308,47,,,,,,,,,,,,*50
###2023-11-09 13:09:16.241247$GAGSV,1,1,04,07,73,259,45,08,48,043,44,13,63,161,46,26,57,310,45*65
###2023-11-09 13:09:16.243834$GBGSV,2,1,06,11,23,180,42,14,65,008,45,24,20,132,45,26,23,081,43*61
###2023-11-09 13:09:16.245777$GBGSV,2,2,06,28,43,287,46,33,59,304,47,,,,,,,,*67
###2023-11-09 13:09:16.247223$GNVTG,43.69,T,,M,3.77,N,6.98,K,A*1F
###2023-11-09 13:09:16.330131$GNGGA,130916.50,3611.0311550,N,07544.9563729,W,1,24,0.6,0.516,M,-39.962,M,0.0,*6E
###2023-11-09 13:09:16.332738$GPGSV,2,1,07,05,20,090,43,10,19,293,42,13,24,045,40,15,61,037,46*77
###2023-11-09 13:09:16.334996$GPGSV,2,2,07,18,78,277,47,23,50,316,45,24,50,134,45,,,,*4C
###2023-11-09 13:09:16.337603$GLGSV,2,1,05,70,50,017,36,71,48,290,46,80,18,090,45,85,57,203,50*63
###2023-11-09 13:09:16.339235$GLGSV,2,2,05,86,53,308,48,,,,,,,,,,,,*5F
###2023-11-09 13:09:16.341816$GAGSV,1,1,04,07,73,259,45,08,48,043,44,13,63,161,46,26,57,310,45*65
###2023-11-09 13:09:16.344408$GBGSV,2,1,06,11,23,180,42,14,65,008,45,24,20,132,45,26,23,081,43*61
###2023-11-09 13:09:16.346353$GBGSV,2,2,06,28,43,287,46,33,59,304,47,,,,,,,,*67
###2023-11-09 13:09:16.347801$GNVTG,42.92,T,,M,3.77,N,6.98,K,A*1A
###2023-11-09 13:09:16.431140$GNGGA,130916.60,3611.0312302,N,07544.9562830,W,1,24,0.6,0.513,M,-39.962,M,0.0,*6C
###2023-11-09 13:09:16.433742$GPGSV,2,1,07,05,20,090,42,10,19,293,43,13,24,045,40,15,61,037,46*77
###2023-11-09 13:09:16.435997$GPGSV,2,2,07,18,78,277,47,23,50,316,46,24,50,134,45,,,,*4F
###2023-11-09 13:09:16.438594$GLGSV,2,1,05,70,50,017,36,71,48,290,47,80,18,090,44,85,57,203,49*6B
###2023-11-09 13:09:16.440207$GLGSV,2,2,05,86,53,308,49,,,,,,,,,,,,*5E
###2023-11-09 13:09:16.442797$GAGSV,1,1,04,07,73,259,45,08,48,043,44,13,63,161,46,26,57,310,45*65
###2023-11-09 13:09:16.445389$GBGSV,2,1,06,11,23,180,42,14,65,008,45,24,20,132,44,26,23,081,43*60
###2023-11-09 13:09:16.447354$GBGSV,2,2,06,28,43,287,46,33,59,304,48,,,,,,,,*68
###2023-11-09 13:09:16.448786$GNVTG,44.39,T,,M,3.79,N,7.02,K,A*11
###2023-11-09 13:09:16.530113$GNGGA,130916.70,3611.0313005,N,07544.9561877,W,1,24,0.6,0.506,M,-39.962,M,0.0,*6C
###2023-11-09 13:09:16.532701$GPGSV,2,1,07,05,20,090,41,10,19,293,43,13,24,045,40,15,61,037,46*74
###2023-11-09 13:09:16.534954$GPGSV,2,2,07,18,78,277,47,23,50,316,46,24,50,134,45,,,,*4F
###2023-11-09 13:09:16.537541$GLGSV,2,1,05,70,50,017,36,71,48,290,47,80,18,090,44,85,57,203,49*6B
###2023-11-09 13:09:16.539147$GLGSV,2,2,05,86,53,308,49,,,,,,,,,,,,*5E
###2023-11-09 13:09:16.541710$GAGSV,1,1,04,07,73,259,45,08,48,043,44,13,63,161,45,26,57,310,46*65
###2023-11-09 13:09:16.544285$GBGSV,2,1,06,11,23,180,41,14,65,008,45,24,20,132,44,26,23,081,43*63
###2023-11-09 13:09:16.546216$GBGSV,2,2,06,28,43,287,46,33,59,304,48,,,,,,,,*68
###2023-11-09 13:09:16.547652$GNVTG,50.32,T,,M,3.77,N,6.98,K,A*13
###2023-11-09 13:09:16.630011$GNGGA,130916.80,3611.0313617,N,07544.9560830,W,1,24,0.6,0.502,M,-39.962,M,0.0,*60
###2023-11-09 13:09:16.632609$GPGSV,2,1,07,05,20,090,41,10,19,293,44,13,24,045,40,15,61,037,46*73
###2023-11-09 13:09:16.634874$GPGSV,2,2,07,18,78,277,47,23,50,316,46,24,50,134,45,,,,*4F
###2023-11-09 13:09:16.637481$GLGSV,2,1,05,70,50,017,36,71,48,290,48,80,18,090,44,85,57,203,49*64
###2023-11-09 13:09:16.639087$GLGSV,2,2,05,86,53,308,49,,,,,,,,,,,,*5E
###2023-11-09 13:09:16.641660$GAGSV,1,1,04,07,73,259,45,08,48,043,44,13,63,161,45,26,57,310,46*65
###2023-11-09 13:09:16.644235$GBGSV,2,1,06,11,23,180,41,14,65,008,45,24,20,132,44,26,23,081,43*63
###2023-11-09 13:09:16.646172$GBGSV,2,2,06,28,43,287,47,33,59,304,48,,,,,,,,*69
###2023-11-09 13:09:16.647612$GNVTG,57.48,T,,M,3.81,N,7.06,K,A*16
###2023-11-09 13:09:16.730025$GNGGA,130916.90,3611.0314148,N,07544.9559685,W,1,24,0.6,0.504,M,-39.962,M,0.0,*67
###2023-11-09 13:09:16.732639$GPGSV,2,1,07,05,20,090,42,10,19,293,43,13,24,045,40,15,61,037,46*77
###2023-11-09 13:09:16.734905$GPGSV,2,2,07,18,78,277,47,23,50,316,46,24,50,134,45,,,,*4F
###2023-11-09 13:09:16.737520$GLGSV,2,1,05,70,50,017,36,71,48,290,48,80,18,090,44,85,57,203,49*64
###2023-11-09 13:09:16.739147$GLGSV,2,2,05,86,53,308,49,,,,,,,,,,,,*5E
###2023-11-09 13:09:16.741740$GAGSV,1,1,04,07,73,259,45,08,48,043,44,13,63,161,45,26,57,310,46*65
###2023-11-09 13:09:16.744344$GBGSV,2,1,06,11,23,180,41,14,65,008,45,24,20,132,44,26,23,081,42*62
###2023-11-09 13:09:16.746292$GBGSV,2,2,06,28,43,287,47,33,59,304,48,,,,,,,,*69
###2023-11-09 13:09:16.747745$GNVTG,61.75,T,,M,3.93,N,7.27,K,A*1D
###2023-11-09 13:09:16.831749$GNGGA,130917.00,3611.0314635,N,07544.9558506,W,1,24,0.6,0.497,M,-39.962,M,0.0,*60
###2023-11-09 13:09:16.834354$GPGSV,2,1,07,05,20,090,42,10,19,293,40,13,24,045,40,15,61,037,46*74
###2023-11-09 13:09:16.836611$GPGSV,2,2,07,18,78,277,47,23,50,316,46,24,50,134,45,,,,*4F
###2023-11-09 13:09:16.839216$GLGSV,2,1,05,70,50,017,36,71,48,290,48,80,18,090,45,85,57,203,49*65
###2023-11-09 13:09:16.840843$GLGSV,2,2,05,86,53,308,47,,,,,,,,,,,,*50
###2023-11-09 13:09:16.843424$GAGSV,1,1,04,07,73,259,45,08,48,043,44,13,63,161,45,26,57,310,45*66
###2023-11-09 13:09:16.846022$GBGSV,2,1,06,11,23,180,42,14,65,008,45,24,20,132,45,26,23,081,42*60
###2023-11-09 13:09:16.847970$GBGSV,2,2,06,28,43,287,47,33,59,304,48,,,,,,,,*69
###2023-11-09 13:09:16.849402$GNVTG,63.20,T,,M,3.83,N,7.09,K,A*12
###2023-11-09 13:09:16.930759$GNGGA,130917.10,3611.0315143,N,07544.9557360,W,1,24,0.6,0.479,M,-39.962,M,0.0,*6F
###2023-11-09 13:09:16.933371$GPGSV,2,1,07,05,20,090,43,10,19,293,40,13,24,045,40,15,61,037,45*76
###2023-11-09 13:09:16.935640$GPGSV,2,2,07,18,78,277,47,23,50,316,45,24,50,134,46,,,,*4F
###2023-11-09 13:09:16.938251$GLGSV,2,1,05,70,50,017,36,71,48,290,47,80,18,090,45,85,57,203,49*6A
###2023-11-09 13:09:16.939868$GLGSV,2,2,05,86,53,308,47,,,,,,,,,,,,*50
###2023-11-09 13:09:16.942441$GAGSV,1,1,04,07,73,259,45,08,48,043,44,13,63,161,45,26,57,310,45*66
###2023-11-09 13:09:16.945035$GBGSV,2,1,06,11,23,180,43,14,65,008,45,24,20,132,45,26,23,081,43*60
###2023-11-09 13:09:16.946992$GBGSV,2,2,06,28,43,287,46,33,59,304,47,,,,,,,,*67
###2023-11-09 13:09:16.948428$GNVTG,58.85,T,,M,3.83,N,7.09,K,A*15
###2023-11-09 13:09:17.033109$GNGGA,130917.20,3611.0315726,N,07544.9556293,W,1,24,0.6,0.469,M,-39.962,M,0.0,*64
###2023-11-09 13:09:17.035705$GPGSV,2,1,07,05,20,090,43,10,19,293,40,13,24,045,40,15,61,037,45*76
###2023-11-09 13:09:17.037975$GPGSV,2,2,07,18,78,277,46,23,50,316,45,24,50,134,46,,,,*4E
###2023-11-09 13:09:17.040552$GLGSV,2,1,05,70,50,017,35,71,48,290,47,80,18,090,45,85,57,203,49*69
###2023-11-09 13:09:17.042157$GLGSV,2,2,05,86,53,308,47,,,,,,,,,,,,*50
###2023-11-09 13:09:17.044737$GAGSV,1,1,04,07,73,259,45,08,48,043,44,13,63,161,46,26,57,310,45*65
###2023-11-09 13:09:17.047334$GBGSV,2,1,06,11,23,180,43,14,65,008,45,24,20,132,46,26,23,081,44*64
###2023-11-09 13:09:17.049280$GBGSV,2,2,06,28,43,287,46,33,59,304,47,,,,,,,,*67
###2023-11-09 13:09:17.050717$GNVTG,52.14,T,,M,3.71,N,6.88,K,A*12
###2023-11-09 13:09:17.130014$GNGGA,130917.30,3611.0316385,N,07544.9555317,W,1,24,0.6,0.469,M,-39.962,M,0.0,*65
###2023-11-09 13:09:17.132613$GPGSV,2,1,07,05,20,090,43,10,19,293,40,13,24,045,40,15,61,037,45*76
###2023-11-09 13:09:17.134864$GPGSV,2,2,07,18,78,277,46,23,50,316,45,24,50,134,46,,,,*4E
###2023-11-09 13:09:17.137449$GLGSV,2,1,05,70,50,017,35,71,48,290,47,80,18,090,45,85,57,203,49*69
###2023-11-09 13:09:17.139055$GLGSV,2,2,05,86,53,308,47,,,,,,,,,,,,*50
###2023-11-09 13:09:17.141623$GAGSV,1,1,04,07,73,259,45,08,48,043,44,13,63,161,46,26,57,310,45*65
###2023-11-09 13:09:17.144522$GBGSV,2,1,06,11,23,180,43,14,65,008,45,24,20,132,46,26,23,081,44*64
###2023-11-09 13:09:17.146475$GBGSV,2,2,06,28,43,287,46,33,59,304,47,,,,,,,,*67
###2023-11-09 13:09:17.147925$GNVTG,47.41,T,,M,3.71,N,6.88,K,A*16
###2023-11-09 13:09:17.229647$GNGGA,130917.40,3611.0317093,N,07544.9554369,W,1,24,0.6,0.476,M,-39.962,M,0.0,*61
###2023-11-09 13:09:17.232258$GPGSV,2,1,07,05,20,090,43,10,19,293,43,13,24,045,40,15,61,037,45*75
###2023-11-09 13:09:17.234527$GPGSV,2,2,07,18,78,277,46,23,50,316,46,24,50,134,45,,,,*4E
###2023-11-09 13:09:17.237129$GLGSV,2,1,05,70,50,017,35,71,48,290,47,80,18,090,45,85,57,203,49*69
###2023-11-09 13:09:17.238752$GLGSV,2,2,05,86,53,308,48,,,,,,,,,,,,*5F
###2023-11-09 13:09:17.241337$GAGSV,1,1,04,07,73,259,45,08,48,043,44,13,63,161,46,26,57,310,45*65
