###2023-11-09 13:08:47.146221$GBGSV,2,2,06,28,43,287,46,33,59,304,47,,,,,,,,*67
###2023-11-09 13:08:47.147706$GNVTG,97.36,T,,M,4.47,N,8.28,K,A*1D
###2023-11-09 13:08:47.229796$GNGGA,130847.40,3611.0191209,N,07545.0014171,W,1,24,0.6,0.892,M,-39.962,M,0.0,*6C
###2023-11-09 13:08:47.232406$GPGSV,2,1,07,05,20,090,40,10,19,293,43,13,24,045,40,15,61,037,45*76
###2023-11-09 13:08:47.234657$GPGSV,2,2,07,18,78,277,46,23,50,316,45,24,50,135,46,,,,*4F
###2023-11-09 13:08:47.237259$GLGSV,2,1,05,70,50,017,35,71,48,290,48,80,18,090,41,85,57,203,49*62
###2023-11-09 13:08:47.238881$GLGSV,2,2,05,86,53,308,47,,,,,,,,,,,,*50
###2023-11-09 13:08:47.241463$GAGSV,1,1,04,07,72,258,45,08,48,043,44,13,64,160,45,26,57,310,44*61
###2023-11-09 13:08:47.244043$GBGSV,2,1,06,11,23,180,43,14,65,008,45,24,20,132,44,26,23,081,42*60
###2023-11-09 13:08:47.245982$GBGSV,2,2,06,28,43,287,47,33,59,304,47,,,,,,,,*66
###2023-11-09 13:08:47.247432$GNVTG,93.19,T,,M,4.65,N,8.60,K,A*18
###2023-11-09 13:08:47.330867$GNGGA,130847.50,3611.0191104,N,07545.0012572,W,1,24,0.6,0.874,M,-39.962,M,0.0,*6A
###2023-11-09 13:08:47.333449$GPGSV,2,1,07,05,20,090,40,10,19,293,43,13,24,045,42,15,61,037,46*77
###2023-11-09 13:08:47.335703$GPGSV,2,2,07,18,78,277,46,23,50,316,45,24,50,135,46,,,,*4F
###2023-11-09 13:08:47.338296$GLGSV,2,1,05,70,50,017,35,71,48,290,48,80,18,090,42,85,57,203,48*60
###2023-11-09 13:08:47.339903$GLGSV,2,2,05,86,53,308,48,,,,,,,,,,,,*5F
###2023-11-09 13:08:47.342473$GAGSV,1,1,04,07,72,258,45,08,48,043,44,13,64,160,45,26,57,310,44*61
###2023-11-09 13:08:47.345048$GBGSV,2,1,06,11,23,180,42,14,65,008,45,24,20,132,42,26,23,081,43*66
###2023-11-09 13:08:47.346995$GBGSV,2,2,06,28,43,287,47,33,59,304,47,,,,,,,,*66
###2023-11-09 13:08:47.348430$GNVTG,96.22,T,,M,4.70,N,8.71,K,A*11
###2023-11-09 13:08:47.429416$GNGGA,130847.60,3611.0190902,N,07545.0010964,W,1,24,0.6,0.847,M,-39.962,M,0.0,*6F
###2023-11-09 13:08:47.432004$GPGSV,2,1,07,05,20,090,40,10,19,293,44,13,24,045,43,15,61,037,46*71
###2023-11-09 13:08:47.434258$GPGSV,2,2,07,18,78,277,46,23,50,316,46,24,50,135,46,,,,*4C
###2023-11-09 13:08:47.436820$GLGSV,2,1,05,70,50,017,36,71,48,290,48,80,18,090,44,85,57,203,48*65
###2023-11-09 13:08:47.438431$GLGSV,2,2,05,86,53,308,48,,,,,,,,,,,,*5F
###2023-11-09 13:08:47.440992$GAGSV,1,1,04,07,72,258,45,08,48,043,44,13,64,160,44,26,57,310,44*60
###2023-11-09 13:08:47.443565$GBGSV,2,1,06,11,23,180,41,14,65,008,45,24,20,132,42,26,23,081,43*65
###2023-11-09 13:08:47.445498$GBGSV,2,2,06,28,43,287,47,33,59,304,47,,,,,,,,*66
###2023-11-09 13:08:47.446969$GNVTG,101.49,T,,M,4.78,N,8.86,K,A*23
###2023-11-09 13:08:47.529404$GNGGA,130847.70,3611.0190575,N,07545.0009360,W,1,24,0.6,0.824,M,-39.962,M,0.0,*61
###2023-11-09 13:08:47.532011$GPGSV,2,1,07,05,20,090,42,10,19,293,44,13,24,045,43,15,61,037,46*73
###2023-11-09 13:08:47.534265$GPGSV,2,2,07,18,78,277,46,23,50,316,46,24,50,135,46,,,,*4C
###2023-11-09 13:08:47.536846$GLGSV,2,1,05,70,50,017,36,71,48,290,48,80,18,090,44,85,57,203,48*65
###2023-11-09 13:08:47.538471$GLGSV,2,2,05,86,53,308,48,,,,,,,,,,,,*5F
###2023-11-09 13:08:47.541050$GAGSV,1,1,04,07,72,258,45,08,48,043,44,13,64,160,44,26,57,310,44*60
###2023-11-09 13:08:47.543637$GBGSV,2,1,06,11,23,180,41,14,65,008,45,24,20,132,42,26,23,081,43*65
###2023-11-09 13:08:47.545574$GBGSV,2,2,06,28,43,287,47,33,59,304,47,,,,,,,,*66
###2023-11-09 13:08:47.547056$GNVTG,106.70,T,,M,4.84,N,8.96,K,A*2C
###2023-11-09 13:08:47.629793$GNGGA,130847.80,3611.0190160,N,07545.0007765,W,1,24,0.6,0.805,M,-39.962,M,0.0,*62
###2023-11-09 13:08:47.632394$GPGSV,2,1,07,05,20,090,41,10,19,293,44,13,24,045,43,15,61,037,46*70
###2023-11-09 13:08:47.634652$GPGSV,2,2,07,18,78,277,46,23,50,316,46,24,50,135,46,,,,*4C
###2023-11-09 13:08:47.637245$GLGSV,2,1,05,70,50,017,36,71,48,290,49,80,18,090,43,85,57,203,48*63
###2023-11-09 13:08:47.638858$GLGSV,2,2,05,86,53,308,48,,,,,,,,,,,,*5F
###2023-11-09 13:08:47.641426$GAGSV,1,1,04,07,72,258,45,08,48,043,44,13,64,160,44,26,57,310,44*60
###2023-11-09 13:08:47.644021$GBGSV,2,1,06,11,23,180,41,14,65,008,45,24,20,132,42,26,23,081,43*65
###2023-11-09 13:08:47.645984$GBGSV,2,2,06,28,43,287,47,33,59,304,47,,,,,,,,*66
###2023-11-09 13:08:47.647481$GNVTG,109.05,T,,M,4.92,N,9.11,K,A*28
###2023-11-09 13:08:47.729874$GNGGA,130847.90,3611.0189744,N,07545.0006144,W,1,24,0.6,0.799,M,-39.962,M,0.0,*65
###2023-11-09 13:08:47.732474$GPGSV,2,1,07,05,20,090,40,10,19,293,44,13,24,045,42,15,61,037,46*70
###2023-11-09 13:08:47.734727$GPGSV,2,2,07,18,78,277,46,23,50,316,46,24,50,135,46,,,,*4C
###2023-11-09 13:08:47.737314$GLGSV,2,1,05,70,50,017,36,71,48,290,49,80,18,090,43,85,57,203,49*62
###2023-11-09 13:08:47.738924$GLGSV,2,2,05,86,53,308,48,,,,,,,,,,,,*5F
###2023-11-09 13:08:47.741493$GAGSV,1,1,04,07,72,258,45,08,48,043,44,13,64,160,44,26,57,310,44*60
###2023-11-09 13:08:47.744058$GBGSV,2,1,06,11,23,180,43,14,65,008,45,24,20,132,43,26,23,081,43*66
###2023-11-09 13:08:47.745987$GBGSV,2,2,06,28,43,287,47,33,59,304,47,,,,,,,,*66
###2023-11-09 13:08:47.747464$GNVTG,106.25,T,,M,5.00,N,9.25,K,A*28
###2023-11-09 13:08:47.837546$GNGGA,130848.00,3611.0189423,N,07545.0004480,W,1,24,0.6,0.788,M,-39.962,M,0.0,*6E
###2023-11-09 13:08:47.840158$GPGSV,2,1,07,05,20,090,40,10,19,293,44,13,24,045,41,15,61,037,45*70
###2023-11-09 13:08:47.842423$GPGSV,2,2,07,18,78,277,46,23,50,316,45,24,50,135,46,,,,*4F
###2023-11-09 13:08:47.845006$GLGSV,2,1,05,70,50,017,36,71,48,290,49,80,18,090,42,85,57,203,49*63
###2023-11-09 13:08:47.846621$GLGSV,2,2,05,86,53,308,47,,,,,,,,,,,,*50
###2023-11-09 13:08:47.849212$GAGSV,1,1,04,07,72,258,45,08,48,043,44,13,64,160,44,26,57,310,44*60
###2023-11-09 13:08:47.851802$GBGSV,2,1,06,11,23,180,44,14,65,008,45,24,20,132,44,26,23,081,42*67
###2023-11-09 13:08:47.853747$GBGSV,2,2,06,28,43,287,47,33,59,304,47,,,,,,,,*66
###2023-11-09 13:08:47.855221$GNVTG,100.60,T,,M,5.00,N,9.25,K,A*2F
###2023-11-09 13:08:47.936882$GNGGA,130848.10,3611.0189215,N,07545.0002774,W,1,24,0.6,0.792,M,-39.962,M,0.0,*69
###2023-11-09 13:08:47.939488$GPGSV,2,1,07,05,20,090,40,10,19,293,44,13,24,045,41,15,61,037,45*70
###2023-11-09 13:08:47.941744$GPGSV,2,2,07,18,78,277,46,23,50,316,45,24,50,135,46,,,,*4F
###2023-11-09 13:08:47.944330$GLGSV,2,1,05,70,50,017,36,71,48,290,48,80,18,090,42,85,57,203,49*62
###2023-11-09 13:08:47.945939$GLGSV,2,2,05,86,53,308,47,,,,,,,,,,,,*50
###2023-11-09 13:08:47.948531$GAGSV,1,1,04,07,72,258,45,08,48,043,44,13,64,160,44,26,57,310,44*60
###2023-11-09 13:08:47.951125$GBGSV,2,1,06,11,23,180,43,14,65,008,45,24,20,132,44,26,23,081,42*60
###2023-11-09 13:08:47.953068$GBGSV,2,2,06,28,43,287,47,33,59,304,47,,,,,,,,*66
###2023-11-09 13:08:47.954508$GNVTG,96.59,T,,M,5.05,N,9.36,K,A*1C
###2023-11-09 13:08:48.031980$GNGGA,130848.20,3611.0189069,N,07545.0001046,W,1,24,0.6,0.800,M,-39.962,M,0.0,*62
###2023-11-09 13:08:48.034572$GPGSV,2,1,07,05,20,090,40,10,19,293,44,13,24,045,41,15,61,037,45*70
###2023-11-09 13:08:48.036825$GPGSV,2,2,07,18,78,277,46,23,50,316,45,24,50,135,47,,,,*4E
###2023-11-09 13:08:48.039421$GLGSV,2,1,05,70,50,017,36,71,48,290,48,80,18,090,42,85,57,203,49*62
###2023-11-09 13:08:48.041030$GLGSV,2,2,05,86,53,308,47,,,,,,,,,,,,*50
###2023-11-09 13:08:48.043602$GAGSV,1,1,04,07,72,258,45,08,48,043,44,13,64,160,44,26,57,310,44*60
###2023-11-09 13:08:48.046176$GBGSV,2,1,06,11,23,180,42,14,65,008,45,24,20,132,44,26,23,081,42*61
###2023-11-09 13:08:48.048122$GBGSV,2,2,06,28,43,287,47,33,59,304,47,,,,,,,,*66
###2023-11-09 13:08:48.049548$GNVTG,95.30,T,,M,5.07,N,9.40,K,A*13
###2023-11-09 13:08:48.129808$GNGGA,130848.30,3611.0188901,N,07544.9999306,W,1,24,0.6,0.801,M,-39.962,M,0.0,*63
###2023-11-09 13:08:48.132425$GPGSV,2,1,07,05,20,090,40,10,19,293,44,13,24,045,42,15,61,037,45*73
###2023-11-09 13:08:48.134687$GPGSV,2,2,07,18,78,277,46,23,50,316,45,24,50,135,46,,,,*4F
###2023-11-09 13:08:48.137287$GLGSV,2,1,05,70,50,017,36,71,48,290,49,80,18,090,43,85,57,203,48*63
###2023-11-09 13:08:48.138905$GLGSV,2,2,05,86,53,308,47,,,,,,,,,,,,*50
###2023-11-09 13:08:48.141487$GAGSV,1,1,04,07,72,258,45,08,48,043,44,13,64,160,45,26,57,310,44*61
###2023-11-09 13:08:48.144088$GBGSV,2,1,06,11,23,180,42,14,65,008,45,24,20,132,44,26,23,081,43*60
###2023-11-09 13:08:48.146357$GBGSV,2,2,06,28,43,287,47,33,59,304,47,,,,,,,,*66
###2023-11-09 13:08:48.147829$GNVTG,98.27,T,,M,5.11,N,9.47,K,A*18
###2023-11-09 13:08:48.230877$GNGGA,130848.40,3611.0188644,N,07544.9997572,W,1,24,0.6,0.810,M,-39.962,M,0.0,*61
###2023-11-09 13:08:48.233477$GPGSV,2,1,07,05,20,090,40,10,19,293,44,13,24,045,42,15,61,037,45*73
###2023-11-09 13:08:48.235732$GPGSV,2,2,07,18,78,277,47,23,50,316,45,24,50,135,46,,,,*4E
###2023-11-09 13:08:48.238335$GLGSV,2,1,05,70,50,017,36,71,48,290,49,80,18,090,43,85,57,203,48*63
###2023-11-09 13:08:48.239949$GLGSV,2,2,05,86,53,308,48,,,,,,,,,,,,*5F
###2023-11-09 13:08:48.242527$GAGSV,1,1,04,07,72,258,45,08,48,043,44,13,64,160,44,26,57,310,44*60
###2023-11-09 13:08:48.245110$GBGSV,2,1,06,11,23,180,41,14,65,008,45,24,20,132,43,26,23,081,43*64
###2023-11-09 13:08:48.247066$GBGSV,2,2,06,28,43,287,47,33,59,304,47,,,,,,,,*66
