###2023-11-09 13:05:54.040164$GLGSV,2,1,05,70,51,015,35,71,47,286,48,80,17,092,43,85,59,204,48*6E
###2023-11-09 13:05:54.041789$GLGSV,2,2,05,86,52,311,48,,,,,,,,,,,,*56
###2023-11-09 13:05:54.044355$GAGSV,1,1,04,07,72,255,45,08,49,042,43,13,64,160,44,26,56,311,45*6B
###2023-11-09 13:05:54.046964$GBGSV,2,1,06,11,24,180,41,14,65,006,45,24,19,133,42,26,23,082,41*66
###2023-11-09 13:05:54.048902$GBGSV,2,2,06,28,43,289,47,33,58,302,47,,,,,,,,*6F
###2023-11-09 13:05:54.050352$GNVTG,27.79,T,,M,0.70,N,1.30,K,A*1D
###2023-11-09 13:05:54.131269$GNGGA,130554.30,3611.0377990,N,07544.9856376,W,1,24,0.6,1.167,M,-39.962,M,0.0,*64
###2023-11-09 13:05:54.133883$GPGSV,2,1,07,05,21,089,41,10,17,292,43,13,25,045,42,15,62,036,45*70
###2023-11-09 13:05:54.136143$GPGSV,2,2,07,18,77,285,47,23,49,314,45,24,49,137,45,,,,*4F
###2023-11-09 13:05:54.138738$GLGSV,2,1,05,70,51,015,35,71,47,286,48,80,17,092,43,85,59,204,48*6E
###2023-11-09 13:05:54.140355$GLGSV,2,2,05,86,52,311,48,,,,,,,,,,,,*56
###2023-11-09 13:05:54.142936$GAGSV,1,1,04,07,72,255,45,08,49,042,44,13,64,160,44,26,56,311,45*6C
###2023-11-09 13:05:54.145513$GBGSV,2,1,06,11,24,180,41,14,65,006,46,24,19,133,42,26,23,082,42*66
###2023-11-09 13:05:54.147475$GBGSV,2,2,06,28,43,289,47,33,58,302,47,,,,,,,,*6F
###2023-11-09 13:05:54.148907$GNVTG,27.79,T,,M,0.68,N,1.26,K,A*13
###2023-11-09 13:05:54.233007$GNGGA,130554.40,3611.0378114,N,07544.9856527,W,1,24,0.6,1.179,M,-39.962,M,0.0,*65
###2023-11-09 13:05:54.235587$GPGSV,2,1,07,05,21,089,41,10,17,292,43,13,25,045,42,15,62,036,45*70
###2023-11-09 13:05:54.237857$GPGSV,2,2,07,18,77,285,47,23,49,314,45,24,49,137,45,,,,*4F
###2023-11-09 13:05:54.240435$GLGSV,2,1,05,70,51,015,35,71,47,286,48,80,17,092,44,85,59,204,48*69
###2023-11-09 13:05:54.242046$GLGSV,2,2,05,86,52,311,47,,,,,,,,,,,,*59
###2023-11-09 13:05:54.244627$GAGSV,1,1,04,07,72,255,45,08,49,042,44,13,64,160,44,26,56,311,45*6C
###2023-11-09 13:05:54.247232$GBGSV,2,1,06,11,24,180,41,14,65,006,46,24,19,133,42,26,23,082,42*66
###2023-11-09 13:05:54.249174$GBGSV,2,2,06,28,43,289,47,33,58,302,47,,,,,,,,*6F
###2023-11-09 13:05:54.250598$GNVTG,27.79,T,,M,0.58,N,1.08,K,A*1C
###2023-11-09 13:05:54.330859$GNGGA,130554.50,3611.0378200,N,07544.9856698,W,1,24,0.6,1.191,M,-39.962,M,0.0,*63
###2023-11-09 13:05:54.333423$GPGSV,2,1,07,05,21,089,41,10,17,292,43,13,25,045,42,15,62,036,45*70
###2023-11-09 13:05:54.335655$GPGSV,2,2,07,18,77,285,47,23,49,314,45,24,49,137,45,,,,*4F
###2023-11-09 13:05:54.338241$GLGSV,2,1,05,70,51,015,35,71,47,286,48,80,17,092,44,85,59,204,48*69
###2023-11-09 13:05:54.339842$GLGSV,2,2,05,86,52,311,47,,,,,,,,,,,,*59
###2023-11-09 13:05:54.342403$GAGSV,1,1,04,07,72,255,45,08,49,042,44,13,64,160,44,26,56,311,45*6C
###2023-11-09 13:05:54.344976$GBGSV,2,1,06,11,24,180,41,14,65,006,46,24,19,133,42,26,23,082,43*67
###2023-11-09 13:05:54.346913$GBGSV,2,2,06,28,43,289,47,33,58,302,47,,,,,,,,*6F
###2023-11-09 13:05:54.348343$GNVTG,27.79,T,,M,0.56,N,1.04,K,A*1E
###2023-11-09 13:05:54.432990$GNGGA,130554.60,3611.0378279,N,07544.9856862,W,1,24,0.6,1.200,M,-39.962,M,0.0,*6E
###2023-11-09 13:05:54.435587$GPGSV,2,1,07,05,21,089,41,10,17,292,43,13,25,045,42,15,62,036,46*73
###2023-11-09 13:05:54.437877$GPGSV,2,2,07,18,77,285,47,23,49,314,45,24,49,137,45,,,,*4F
###2023-11-09 13:05:54.440457$GLGSV,2,1,05,70,51,015,36,71,47,286,48,80,17,092,44,85,59,204,48*6A
###2023-11-09 13:05:54.442076$GLGSV,2,2,05,86,52,311,47,,,,,,,,,,,,*59
###2023-11-09 13:05:54.444638$GAGSV,1,1,04,07,72,255,45,08,49,042,44,13,64,160,44,26,56,311,45*6C
###2023-11-09 13:05:54.447237$GBGSV,2,1,06,11,24,180,41,14,65,006,46,24,19,133,42,26,23,082,43*67
###2023-11-09 13:05:54.449183$GBGSV,2,2,06,28,43,289,47,33,58,302,47,,,,,,,,*6F
###2023-11-09 13:05:54.450612$GNVTG,27.79,T,,M,0.52,N,0.97,K,A*11
###2023-11-09 13:05:54.532375$GNGGA,130554.70,3611.0378353,N,07544.9857025,W,1,24,0.6,1.204,M,-39.962,M,0.0,*68
###2023-11-09 13:05:54.534982$GPGSV,2,1,07,05,21,089,41,10,17,292,44,13,25,045,42,15,62,036,46*74
###2023-11-09 13:05:54.537270$GPGSV,2,2,07,18,77,285,47,23,49,314,46,24,49,137,45,,,,*4C
###2023-11-09 13:05:54.539848$GLGSV,2,1,05,70,51,015,36,71,47,286,48,80,17,092,44,85,59,204,47*65
###2023-11-09 13:05:54.541475$GLGSV,2,2,05,86,52,311,47,,,,,,,,,,,,*59
###2023-11-09 13:05:54.544069$GAGSV,1,1,04,07,72,255,45,08,49,042,44,13,64,160,44,26,56,311,45*6C
###2023-11-09 13:05:54.546650$GBGSV,2,1,06,11,24,180,41,14,65,006,46,24,19,133,42,26,23,082,41*65
###2023-11-09 13:05:54.548590$GBGSV,2,2,06,28,43,289,47,33,58,302,47,,,,,,,,*6F
###2023-11-09 13:05:54.550024$GNVTG,27.79,T,,M,0.56,N,1.04,K,A*1E
###2023-11-09 13:05:54.632363$GNGGA,130554.80,3611.0378420,N,07544.9857184,W,1,24,0.6,1.196,M,-39.962,M,0.0,*66
###2023-11-09 13:05:54.634944$GPGSV,2,1,07,05,21,089,41,10,17,292,44,13,25,045,42,15,62,036,46*74
###2023-11-09 13:05:54.637218$GPGSV,2,2,07,18,77,285,47,23,49,314,45,24,49,137,45,,,,*4F
###2023-11-09 13:05:54.639780$GLGSV,2,1,05,70,51,015,36,71,47,286,48,80,17,092,44,85,59,204,48*6A
###2023-11-09 13:05:54.641375$GLGSV,2,2,05,86,52,311,47,,,,,,,,,,,,*59
###2023-11-09 13:05:54.643933$GAGSV,1,1,04,07,72,255,45,08,49,042,44,13,64,160,44,26,56,311,45*6C
###2023-11-09 13:05:54.646497$GBGSV,2,1,06,11,24,180,41,14,65,006,46,24,19,133,42,26,23,082,41*65
###2023-11-09 13:05:54.648438$GBGSV,2,2,06,28,43,289,47,33,58,302,47,,,,,,,,*6F
###2023-11-09 13:05:54.649885$GNVTG,27.79,T,,M,0.47,N,0.86,K,A*15
###2023-11-09 13:05:54.731255$GNGGA,130554.90,3611.0378466,N,07544.9857315,W,1,24,0.6,1.183,M,-39.962,M,0.0,*6B
###2023-11-09 13:05:54.733857$GPGSV,2,1,07,05,21,089,41,10,17,292,44,13,25,045,42,15,62,036,46*74
###2023-11-09 13:05:54.736117$GPGSV,2,2,07,18,77,285,47,23,49,314,45,24,49,137,45,,,,*4F
###2023-11-09 13:05:54.738713$GLGSV,2,1,05,70,51,015,35,71,47,286,48,80,17,092,43,85,59,204,48*6E
###2023-11-09 13:05:54.740335$GLGSV,2,2,05,86,52,311,47,,,,,,,,,,,,*59
###2023-11-09 13:05:54.742927$GAGSV,1,1,04,07,72,255,45,08,49,042,44,13,64,160,44,26,56,311,45*6C
###2023-11-09 13:05:54.745512$GBGSV,2,1,06,11,24,180,41,14,65,006,46,24,19,133,42,26,23,082,41*65
###2023-11-09 13:05:54.747463$GBGSV,2,2,06,28,43,289,47,33,58,302,47,,,,,,,,*6F
###2023-11-09 13:05:54.748901$GNVTG,27.79,T,,M,0.35,N,0.65,K,A*1D
###2023-11-09 13:05:54.838017$GNGGA,130555.00,3611.0378507,N,07544.9857403,W,1,24,0.6,1.172,M,-39.962,M,0.0,*6B
###2023-11-09 13:05:54.840620$GPGSV,2,1,07,05,21,089,41,10,17,292,44,13,25,045,42,15,62,036,46*74
###2023-11-09 13:05:54.842883$GPGSV,2,2,07,18,77,285,47,23,49,314,45,24,49,137,45,,,,*4F
###2023-11-09 13:05:54.845476$GLGSV,2,1,05,70,51,015,35,71,47,286,48,80,17,092,43,85,59,204,48*6E
###2023-11-09 13:05:54.847104$GLGSV,2,2,05,86,52,311,47,,,,,,,,,,,,*59
###2023-11-09 13:05:54.849679$GAGSV,1,1,04,07,72,255,45,08,49,042,44,13,64,160,44,26,56,311,45*6C
###2023-11-09 13:05:54.852253$GBGSV,2,1,06,11,24,180,41,14,65,006,46,24,19,133,42,26,23,082,41*65
###2023-11-09 13:05:54.854193$GBGSV,2,2,06,28,43,289,47,33,58,302,47,,,,,,,,*6F
###2023-11-09 13:05:54.855623$GNVTG,27.79,T,,M,0.27,N,0.50,K,A*18
###2023-11-09 13:05:54.932861$GNGGA,130555.10,3611.0378569,N,07544.9857428,W,1,24,0.6,1.160,M,-39.962,M,0.0,*68
###2023-11-09 13:05:54.935428$GPGSV,2,1,07,05,21,089,41,10,17,292,44,13,25,045,42,15,62,036,46*74
###2023-11-09 13:05:54.937687$GPGSV,2,2,07,18,77,285,47,23,49,314,45,24,49,137,46,,,,*4C
###2023-11-09 13:05:54.940251$GLGSV,2,1,05,70,51,015,35,71,47,286,49,80,17,092,43,85,59,204,48*6F
###2023-11-09 13:05:54.941850$GLGSV,2,2,05,86,52,311,47,,,,,,,,,,,,*59
###2023-11-09 13:05:54.944399$GAGSV,1,1,04,07,72,255,45,08,49,042,44,13,64,160,44,26,56,311,45*6C
###2023-11-09 13:05:54.946975$GBGSV,2,1,06,11,24,180,41,14,65,006,46,24,19,133,42,26,23,082,42*66
###2023-11-09 13:05:54.948911$GBGSV,2,2,06,28,43,289,47,33,58,302,47,,,,,,,,*6F
###2023-11-09 13:05:54.950355$GNVTG,27.79,T,,M,0.27,N,0.50,K,A*18
###2023-11-09 13:05:55.033859$GNGGA,130555.20,3611.0378644,N,07544.9857396,W,1,24,0.6,1.155,M,-39.962,M,0.0,*63
###2023-11-09 13:05:55.036447$GPGSV,2,1,07,05,21,089,42,10,17,292,44,13,25,045,42,15,62,036,46*77
###2023-11-09 13:05:55.038726$GPGSV,2,2,07,18,77,285,47,23,49,314,45,24,49,137,46,,,,*4C
###2023-11-09 13:05:55.041301$GLGSV,2,1,05,70,51,015,35,71,47,286,48,80,17,092,43,85,59,204,48*6E
###2023-11-09 13:05:55.043217$GLGSV,2,2,05,86,52,311,47,,,,,,,,,,,,*59
###2023-11-09 13:05:55.045791$GAGSV,1,1,04,07,72,255,45,08,49,042,44,13,64,160,44,26,56,311,45*6C
###2023-11-09 13:05:55.048401$GBGSV,2,1,06,11,24,180,41,14,65,006,46,24,19,133,42,26,23,082,42*66
###2023-11-09 13:05:55.050353$GBGSV,2,2,06,28,43,289,47,33,58,302,47,,,,,,,,*6F
###2023-11-09 13:05:55.051784$GNVTG,27.79,T,,M,0.33,N,0.61,K,A*1F
###2023-11-09 13:05:55.133378$GNGGA,130555.30,3611.0378715,N,07544.9857341,W,1,24,0.6,1.151,M,-39.962,M,0.0,*69
###2023-11-09 13:05:55.135996$GPGSV,2,1,07,05,21,089,42,10,17,292,44,13,25,045,42,15,62,036,46*77
###2023-11-09 13:05:55.138278$GPGSV,2,2,07,18,77,285,47,23,49,314,45,24,49,137,46,,,,*4C
###2023-11-09 13:05:55.140852$GLGSV,2,1,05,70,51,015,35,71,47,286,48,80,17,092,44,85,59,204,48*69
