###2023-11-09 13:07:50.532587$GPGSV,2,1,07,05,21,090,43,10,18,292,44,13,24,045,42,15,62,037,46*71
###2023-11-09 13:07:50.534878$GPGSV,2,2,07,18,77,281,46,23,50,315,46,24,49,136,46,,,,*42
###2023-11-09 13:07:50.537501$GLGSV,2,1,05,70,50,016,37,71,48,288,49,80,17,091,45,85,58,203,48*6D
###2023-11-09 13:07:50.539131$GLGSV,2,2,05,86,52,309,48,,,,,,,,,,,,*5F
###2023-11-09 13:07:50.541696$GAGSV,1,1,04,07,72,257,44,08,49,042,45,13,64,160,45,26,56,310,44*6F
###2023-11-09 13:07:50.544285$GBGSV,2,1,06,11,23,180,40,14,65,008,46,24,20,132,43,26,23,081,44*61
###2023-11-09 13:07:50.546222$GBGSV,2,2,06,28,43,287,47,33,59,304,46,,,,,,,,*67
###2023-11-09 13:07:50.547707$GNVTG,238.28,T,,M,2.53,N,4.68,K,A*2E
###2023-11-09 13:07:50.630240$GNGGA,130750.80,3611.0478839,N,07544.9689249,W,1,24,0.6,0.586,M,-39.961,M,0.0,*6B
###2023-11-09 13:07:50.632849$GPGSV,2,1,07,05,21,090,42,10,18,292,45,13,24,045,43,15,62,037,46*70
###2023-11-09 13:07:50.635114$GPGSV,2,2,07,18,77,281,46,23,50,315,46,24,49,136,45,,,,*41
###2023-11-09 13:07:50.637723$GLGSV,2,1,05,70,50,016,37,71,48,288,49,80,17,091,44,85,58,203,47*63
###2023-11-09 13:07:50.639337$GLGSV,2,2,05,86,52,309,48,,,,,,,,,,,,*5F
###2023-11-09 13:07:50.641910$GAGSV,1,1,04,07,72,257,44,08,49,042,45,13,64,160,45,26,56,310,44*6F
###2023-11-09 13:07:50.644513$GBGSV,2,1,06,11,23,180,40,14,65,008,45,24,20,132,43,26,23,081,44*62
###2023-11-09 13:07:50.646463$GBGSV,2,2,06,28,43,287,47,33,59,304,46,,,,,,,,*67
###2023-11-09 13:07:50.647950$GNVTG,233.98,T,,M,2.47,N,4.57,K,A*27
###2023-11-09 13:07:50.729230$GNGGA,130750.90,3611.0478431,N,07544.9689933,W,1,24,0.6,0.608,M,-39.961,M,0.0,*6D
###2023-11-09 13:07:50.731820$GPGSV,2,1,07,05,21,090,42,10,18,292,45,13,24,045,43,15,62,037,46*70
###2023-11-09 13:07:50.734079$GPGSV,2,2,07,18,77,281,46,23,50,315,46,24,49,136,45,,,,*41
###2023-11-09 13:07:50.736660$GLGSV,2,1,05,70,50,016,37,71,48,288,49,80,17,091,44,85,58,203,47*63
###2023-11-09 13:07:50.738270$GLGSV,2,2,05,86,52,309,48,,,,,,,,,,,,*5F
###2023-11-09 13:07:50.740837$GAGSV,1,1,04,07,72,257,44,08,49,042,45,13,64,160,44,26,56,310,44*6E
###2023-11-09 13:07:50.743427$GBGSV,2,1,06,11,23,180,40,14,65,008,45,24,20,132,42,26,23,081,44*63
###2023-11-09 13:07:50.745372$GBGSV,2,2,06,28,43,287,47,33,59,304,47,,,,,,,,*66
###2023-11-09 13:07:50.746835$GNVTG,233.58,T,,M,2.49,N,4.61,K,A*20
###2023-11-09 13:07:50.831537$GNGGA,130751.00,3611.0478030,N,07544.9690625,W,1,24,0.6,0.636,M,-39.961,M,0.0,*6D
###2023-11-09 13:07:50.834144$GPGSV,2,1,07,05,21,090,42,10,18,292,44,13,24,045,43,15,62,037,46*71
###2023-11-09 13:07:50.836399$GPGSV,2,2,07,18,77,281,46,23,50,315,46,24,49,136,45,,,,*41
###2023-11-09 13:07:50.839010$GLGSV,2,1,05,70,50,016,37,71,48,288,49,80,17,091,44,85,58,203,47*63
###2023-11-09 13:07:50.840627$GLGSV,2,2,05,86,52,309,48,,,,,,,,,,,,*5F
###2023-11-09 13:07:50.843197$GAGSV,1,1,04,07,72,257,44,08,49,042,46,13,64,160,44,26,56,310,44*6D
###2023-11-09 13:07:50.845789$GBGSV,2,1,06,11,23,180,40,14,65,008,46,24,20,132,42,26,23,081,44*60
###2023-11-09 13:07:50.847744$GBGSV,2,2,06,28,43,287,47,33,59,304,47,,,,,,,,*66
###2023-11-09 13:07:50.849215$GNVTG,235.25,T,,M,2.51,N,4.64,K,A*20
###2023-11-09 13:07:50.930239$GNGGA,130751.10,3611.0477660,N,07544.9691346,W,1,24,0.6,0.666,M,-39.961,M,0.0,*64
###2023-11-09 13:07:50.932827$GPGSV,2,1,07,05,21,090,42,10,18,292,43,13,24,045,43,15,62,037,46*76
###2023-11-09 13:07:50.935085$GPGSV,2,2,07,18,77,281,46,23,50,315,45,24,49,136,45,,,,*42
###2023-11-09 13:07:50.937681$GLGSV,2,1,05,70,50,016,37,71,48,288,49,80,17,091,44,85,58,203,47*63
###2023-11-09 13:07:50.939294$GLGSV,2,2,05,86,52,309,48,,,,,,,,,,,,*5F
###2023-11-09 13:07:50.941869$GAGSV,1,1,04,07,72,257,44,08,49,042,45,13,64,160,44,26,56,310,44*6E
###2023-11-09 13:07:50.944460$GBGSV,2,1,06,11,23,180,40,14,65,008,46,24,20,132,42,26,23,081,44*60
###2023-11-09 13:07:50.946399$GBGSV,2,2,06,28,43,287,47,33,59,304,47,,,,,,,,*66
###2023-11-09 13:07:50.947878$GNVTG,239.79,T,,M,2.53,N,4.68,K,A*2B
###2023-11-09 13:07:51.032357$GNGGA,130751.20,3611.0477322,N,07544.9692117,W,1,24,0.6,0.691,M,-39.961,M,0.0,*69
###2023-11-09 13:07:51.034930$GPGSV,2,1,07,05,21,090,43,10,18,292,43,13,24,045,42,15,62,037,46*76
###2023-11-09 13:07:51.037183$GPGSV,2,2,07,18,77,281,46,23,50,315,45,24,49,136,45,,,,*42
###2023-11-09 13:07:51.039745$GLGSV,2,1,05,70,50,016,37,71,48,288,48,80,17,091,44,85,58,203,47*62
###2023-11-09 13:07:51.041342$GLGSV,2,2,05,86,52,309,48,,,,,,,,,,,,*5F
###2023-11-09 13:07:51.043898$GAGSV,1,1,04,07,72,257,44,08,49,042,45,13,64,160,44,26,56,310,44*6E
###2023-11-09 13:07:51.046461$GBGSV,2,1,06,11,23,180,40,14,65,008,46,24,20,132,43,26,23,081,44*61
###2023-11-09 13:07:51.048409$GBGSV,2,2,06,28,43,287,47,33,59,304,47,,,,,,,,*66
###2023-11-09 13:07:51.049871$GNVTG,243.14,T,,M,2.64,N,4.90,K,A*2E
###2023-11-09 13:07:51.129383$GNGGA,130751.30,3611.0477053,N,07544.9692966,W,1,24,0.6,0.700,M,-39.961,M,0.0,*6A
###2023-11-09 13:07:51.131992$GPGSV,2,1,07,05,21,090,43,10,18,292,42,13,24,045,42,15,62,037,46*77
###2023-11-09 13:07:51.134251$GPGSV,2,2,07,18,77,281,46,23,50,315,45,24,49,136,45,,,,*42
###2023-11-09 13:07:51.136828$GLGSV,2,1,05,70,50,016,37,71,48,288,48,80,17,091,45,85,58,203,47*63
###2023-11-09 13:07:51.138458$GLGSV,2,2,05,86,52,309,47,,,,,,,,,,,,*50
###2023-11-09 13:07:51.141046$GAGSV,1,1,04,07,72,257,44,08,49,042,45,13,64,160,45,26,56,310,44*6F
###2023-11-09 13:07:51.143645$GBGSV,2,1,06,11,23,180,40,14,65,008,46,24,20,132,43,26,23,081,44*61
###2023-11-09 13:07:51.145587$GBGSV,2,2,06,28,43,287,47,33,59,304,46,,,,,,,,*67
###2023-11-09 13:07:51.147074$GNVTG,253.45,T,,M,2.72,N,5.04,K,A*20
###2023-11-09 13:07:51.231479$GNGGA,130751.40,3611.0476887,N,07544.9693894,W,1,24,0.6,0.705,M,-39.961,M,0.0,*65
###2023-11-09 13:07:51.234080$GPGSV,2,1,07,05,21,090,43,10,18,292,42,13,24,045,42,15,62,037,46*77
###2023-11-09 13:07:51.236342$GPGSV,2,2,07,18,77,281,46,23,50,315,45,24,49,136,45,,,,*42
###2023-11-09 13:07:51.238940$GLGSV,2,1,05,70,50,016,37,71,48,288,48,80,17,091,45,85,58,203,47*63
###2023-11-09 13:07:51.240554$GLGSV,2,2,05,86,52,309,47,,,,,,,,,,,,*50
###2023-11-09 13:07:51.243127$GAGSV,1,1,04,07,72,257,44,08,49,042,45,13,64,160,45,26,56,310,44*6F
###2023-11-09 13:07:51.245724$GBGSV,2,1,06,11,23,180,40,14,65,008,46,24,20,132,43,26,23,081,44*61
###2023-11-09 13:07:51.247697$GBGSV,2,2,06,28,43,287,47,33,59,304,46,,,,,,,,*67
###2023-11-09 13:07:51.249172$GNVTG,260.97,T,,M,2.86,N,5.29,K,A*2B
###2023-11-09 13:07:51.330604$GNGGA,130751.50,3611.0476786,N,07544.9694882,W,1,24,0.6,0.709,M,-39.961,M,0.0,*66
###2023-11-09 13:07:51.333185$GPGSV,2,1,07,05,21,090,43,10,18,292,42,13,24,045,42,15,62,037,46*77
###2023-11-09 13:07:51.335431$GPGSV,2,2,07,18,77,281,46,23,50,315,45,24,49,136,45,,,,*42
###2023-11-09 13:07:51.338018$GLGSV,2,1,05,70,50,016,37,71,48,288,49,80,17,091,45,85,58,203,47*62
###2023-11-09 13:07:51.339620$GLGSV,2,2,05,86,52,309,47,,,,,,,,,,,,*50
###2023-11-09 13:07:51.342174$GAGSV,1,1,04,07,72,257,44,08,49,042,45,13,64,160,45,26,56,310,44*6F
###2023-11-09 13:07:51.344745$GBGSV,2,1,06,11,23,180,40,14,65,008,46,24,20,132,43,26,23,081,44*61
###2023-11-09 13:07:51.346668$GBGSV,2,2,06,28,43,287,47,33,59,304,46,,,,,,,,*67
###2023-11-09 13:07:51.348145$GNVTG,264.14,T,,M,2.97,N,5.51,K,A*2B
###2023-11-09 13:07:51.430879$GNGGA,130751.60,3611.0476687,N,07544.9695894,W,1,24,0.6,0.706,M,-39.961,M,0.0,*6C
###2023-11-09 13:07:51.433485$GPGSV,2,1,07,05,21,090,43,10,18,292,42,13,24,045,43,15,62,037,46*76
###2023-11-09 13:07:51.435746$GPGSV,2,2,07,18,77,281,46,23,50,315,46,24,49,136,44,,,,*40
###2023-11-09 13:07:51.438374$GLGSV,2,1,05,70,50,016,37,71,48,288,49,80,17,091,45,85,58,203,47*62
###2023-11-09 13:07:51.439987$GLGSV,2,2,05,86,52,309,48,,,,,,,,,,,,*5F
###2023-11-09 13:07:51.442564$GAGSV,1,1,04,07,72,257,44,08,49,042,46,13,64,160,45,26,56,310,44*6C
###2023-11-09 13:07:51.445134$GBGSV,2,1,06,11,23,180,39,14,65,008,46,24,20,132,42,26,23,081,43*69
###2023-11-09 13:07:51.447087$GBGSV,2,2,06,28,43,287,47,33,59,304,47,,,,,,,,*66
###2023-11-09 13:07:51.448558$GNVTG,261.82,T,,M,2.99,N,5.54,K,A*2A
###2023-11-09 13:07:51.531495$GNGGA,130751.70,3611.0476566,N,07544.9696899,W,1,24,0.6,0.698,M,-39.961,M,0.0,*69
###2023-11-09 13:07:51.534372$GPGSV,2,1,07,05,21,090,43,10,18,292,44,13,24,045,43,15,62,037,46*70
###2023-11-09 13:07:51.536640$GPGSV,2,2,07,18,77,281,46,23,50,315,46,24,49,136,44,,,,*40
###2023-11-09 13:07:51.539242$GLGSV,2,1,05,70,50,016,37,71,48,288,49,80,17,091,45,85,58,203,47*62
###2023-11-09 13:07:51.540849$GLGSV,2,2,05,86,52,309,48,,,,,,,,,,,,*5F
###2023-11-09 13:07:51.543417$GAGSV,1,1,04,07,72,257,44,08,49,042,46,13,64,160,45,26,56,310,44*6C
###2023-11-09 13:07:51.545990$GBGSV,2,1,06,11,23,180,39,14,65,008,46,24,20,132,42,26,23,081,43*69
###2023-11-09 13:07:51.547938$GBGSV,2,2,06,28,43,287,47,33,59,304,47,,,,,,,,*66
###2023-11-09 13:07:51.549403$GNVTG,261.04,T,,M,2.95,N,5.47,K,A*2A
###2023-11-09 13:07:51.629237$GNGGA,130751.80,3611.0476436,N,07544.9697910,W,1,24,0.6,0.697,M,-39.961,M,0.0,*6C
###2023-11-09 13:07:51.631810$GPGSV,2,1,07,05,21,090,43,10,18,292,44,13,24,045,43,15,62,037,46*70
