###2023-11-09 13:08:19.431251$GNGGA,130819.60,3611.0378107,N,07545.0101254,W,1,24,0.6,1.030,M,-39.962,M,0.0,*6D
###2023-11-09 13:08:19.433864$GPGSV,2,1,07,05,20,090,44,10,18,292,43,13,24,045,43,15,62,037,47*70
###2023-11-09 13:08:19.436128$GPGSV,2,2,07,18,77,281,46,23,50,315,45,24,49,136,45,,,,*42
###2023-11-09 13:08:19.438760$GLGSV,2,1,05,70,50,017,36,71,48,290,49,80,18,090,45,85,57,203,47*6A
###2023-11-09 13:08:19.440386$GLGSV,2,2,05,86,53,308,47,,,,,,,,,,,,*50
###2023-11-09 13:08:19.442979$GAGSV,1,1,04,07,72,258,45,08,49,042,45,13,64,160,45,26,56,310,44*61
###2023-11-09 13:08:19.445557$GBGSV,2,1,06,11,23,180,41,14,65,008,46,24,20,132,44,26,23,081,44*67
###2023-11-09 13:08:19.447507$GBGSV,2,2,06,28,43,287,47,33,59,304,47,,,,,,,,*66
###2023-11-09 13:08:19.449020$GNVTG,242.93,T,,M,5.48,N,10.15,K,A*11
###2023-11-09 13:08:19.529512$GNGGA,130819.70,3611.0377407,N,07545.0102947,W,1,24,0.6,1.037,M,-39.962,M,0.0,*6B
###2023-11-09 13:08:19.532089$GPGSV,2,1,07,05,20,090,44,10,18,292,43,13,24,045,43,15,62,037,46*71
###2023-11-09 13:08:19.534328$GPGSV,2,2,07,18,77,281,46,23,50,315,45,24,49,136,45,,,,*42
###2023-11-09 13:08:19.536885$GLGSV,2,1,05,70,50,017,36,71,48,290,49,80,18,090,46,85,57,203,47*69
###2023-11-09 13:08:19.538499$GLGSV,2,2,05,86,53,308,47,,,,,,,,,,,,*50
###2023-11-09 13:08:19.541054$GAGSV,1,1,04,07,72,258,45,08,49,042,45,13,64,160,45,26,56,310,44*61
###2023-11-09 13:08:19.543615$GBGSV,2,1,06,11,23,180,41,14,65,008,46,24,20,132,44,26,23,081,44*67
###2023-11-09 13:08:19.545532$GBGSV,2,2,06,28,43,287,47,33,59,304,47,,,,,,,,*66
###2023-11-09 13:08:19.547033$GNVTG,242.98,T,,M,5.56,N,10.30,K,A*12
###2023-11-09 13:08:19.628755$GNGGA,130819.80,3611.0376676,N,07545.0104654,W,1,24,0.6,1.034,M,-39.962,M,0.0,*69
###2023-11-09 13:08:19.631353$GPGSV,2,1,07,05,20,090,44,10,18,292,43,13,24,045,43,15,62,037,46*71
###2023-11-09 13:08:19.633602$GPGSV,2,2,07,18,77,281,46,23,50,315,45,24,49,136,45,,,,*42
###2023-11-09 13:08:19.636178$GLGSV,2,1,05,70,50,017,36,71,48,290,48,80,18,090,46,85,57,203,48*67
###2023-11-09 13:08:19.637803$GLGSV,2,2,05,86,53,308,47,,,,,,,,,,,,*50
###2023-11-09 13:08:19.640357$GAGSV,1,1,04,07,72,258,45,08,49,042,45,13,64,160,45,26,56,310,44*61
###2023-11-09 13:08:19.642931$GBGSV,2,1,06,11,23,180,41,14,65,008,46,24,20,132,44,26,23,081,44*67
###2023-11-09 13:08:19.644855$GBGSV,2,2,06,28,43,287,47,33,59,304,47,,,,,,,,*66
###2023-11-09 13:08:19.646345$GNVTG,241.26,T,,M,5.66,N,10.48,K,A*18
###2023-11-09 13:08:19.729491$GNGGA,130819.90,3611.0375893,N,07545.0106335,W,1,24,0.6,1.016,M,-39.962,M,0.0,*6E
###2023-11-09 13:08:19.732078$GPGSV,2,1,07,05,20,090,44,10,18,292,44,13,24,045,43,15,62,037,46*76
###2023-11-09 13:08:19.734323$GPGSV,2,2,07,18,77,281,46,23,50,315,45,24,49,136,46,,,,*41
###2023-11-09 13:08:19.736893$GLGSV,2,1,05,70,50,017,36,71,48,290,48,80,18,090,46,85,57,203,47*68
###2023-11-09 13:08:19.738509$GLGSV,2,2,05,86,53,308,47,,,,,,,,,,,,*50
###2023-11-09 13:08:19.741063$GAGSV,1,1,04,07,72,258,45,08,49,042,45,13,64,160,45,26,56,310,44*61
###2023-11-09 13:08:19.743637$GBGSV,2,1,06,11,23,180,41,14,65,008,46,24,20,132,44,26,23,081,44*67
###2023-11-09 13:08:19.745563$GBGSV,2,2,06,28,43,287,47,33,59,304,47,,,,,,,,*66
###2023-11-09 13:08:19.747072$GNVTG,238.84,T,,M,5.58,N,10.33,K,A*1F
###2023-11-09 13:08:19.831577$GNGGA,130820.00,3611.0375058,N,07545.0107964,W,1,24,0.6,1.007,M,-39.962,M,0.0,*6D
###2023-11-09 13:08:19.834148$GPGSV,2,1,07,05,20,090,44,10,18,292,44,13,24,045,43,15,62,037,46*76
###2023-11-09 13:08:19.836398$GPGSV,2,2,07,18,77,281,46,23,50,315,45,24,49,136,46,,,,*41
###2023-11-09 13:08:19.838981$GLGSV,2,1,05,70,50,017,36,71,48,290,48,80,18,090,46,85,57,203,47*68
###2023-11-09 13:08:19.840580$GLGSV,2,2,05,86,53,308,48,,,,,,,,,,,,*5F
###2023-11-09 13:08:19.843134$GAGSV,1,1,04,07,72,258,45,08,49,042,45,13,64,160,45,26,56,310,44*61
###2023-11-09 13:08:19.845698$GBGSV,2,1,06,11,23,180,42,14,65,008,46,24,20,132,44,26,23,081,45*65
###2023-11-09 13:08:19.847641$GBGSV,2,2,06,28,43,287,47,33,59,304,47,,,,,,,,*66
###2023-11-09 13:08:19.849140$GNVTG,236.45,T,,M,5.60,N,10.37,K,A*13
###2023-11-09 13:08:19.943383$GNGGA,130820.10,3611.0374197,N,07545.0109572,W,1,24,0.6,1.023,M,-39.962,M,0.0,*6C
###2023-11-09 13:08:19.946008$GPGSV,2,1,07,05,20,090,44,10,18,292,44,13,24,045,42,15,62,037,46*77
###2023-11-09 13:08:19.948293$GPGSV,2,2,07,18,77,281,46,23,50,315,45,24,49,136,46,,,,*41
###2023-11-09 13:08:19.950883$GLGSV,2,1,05,70,50,017,36,71,48,290,48,80,18,090,45,85,57,203,47*6B
###2023-11-09 13:08:19.952486$GLGSV,2,2,05,86,53,308,48,,,,,,,,,,,,*5F
###2023-11-09 13:08:19.955053$GAGSV,1,1,04,07,72,258,45,08,49,042,45,13,64,160,46,26,56,310,45*63
###2023-11-09 13:08:19.957645$GBGSV,2,1,06,11,23,180,42,14,65,008,46,24,20,132,44,26,23,081,46*66
###2023-11-09 13:08:19.959581$GBGSV,2,2,06,28,43,287,47,33,59,304,47,,,,,,,,*66
###2023-11-09 13:08:19.961081$GNVTG,236.62,T,,M,5.58,N,10.33,K,A*19
###2023-11-09 13:08:20.032624$GNGGA,130820.20,3611.0373368,N,07545.0111214,W,1,24,0.6,1.052,M,-39.962,M,0.0,*62
###2023-11-09 13:08:20.035223$GPGSV,2,1,07,05,20,090,44,10,18,292,44,13,24,045,42,15,62,037,46*77
###2023-11-09 13:08:20.037496$GPGSV,2,2,07,18,77,281,46,23,50,315,45,24,49,136,45,,,,*42
###2023-11-09 13:08:20.040077$GLGSV,2,1,05,70,50,017,36,71,48,290,48,80,18,090,45,85,57,203,47*6B
###2023-11-09 13:08:20.041687$GLGSV,2,2,05,86,53,308,48,,,,,,,,,,,,*5F
###2023-11-09 13:08:20.044253$GAGSV,1,1,04,07,72,258,45,08,49,042,46,13,64,160,46,26,56,310,45*60
###2023-11-09 13:08:20.046827$GBGSV,2,1,06,11,23,180,42,14,65,008,46,24,20,132,43,26,23,081,46*61
###2023-11-09 13:08:20.048770$GBGSV,2,2,06,28,43,287,47,33,59,304,47,,,,,,,,*66
###2023-11-09 13:08:20.050281$GNVTG,239.42,T,,M,5.64,N,10.44,K,A*1B
###2023-11-09 13:08:20.133358$GNGGA,130820.30,3611.0372576,N,07545.0112907,W,1,24,0.6,1.085,M,-39.962,M,0.0,*6B
###2023-11-09 13:08:20.135935$GPGSV,2,1,07,05,20,090,44,10,18,292,44,13,24,045,41,15,62,037,46*74
###2023-11-09 13:08:20.138201$GPGSV,2,2,07,18,77,281,46,23,50,315,46,24,49,136,45,,,,*41
###2023-11-09 13:08:20.140761$GLGSV,2,1,05,70,50,017,36,71,48,290,49,80,18,090,45,85,57,203,47*6A
###2023-11-09 13:08:20.142358$GLGSV,2,2,05,86,53,308,48,,,,,,,,,,,,*5F
###2023-11-09 13:08:20.144913$GAGSV,1,1,04,07,72,258,44,08,49,042,46,13,64,160,45,26,56,310,45*62
###2023-11-09 13:08:20.147493$GBGSV,2,1,06,11,23,180,40,14,65,008,46,24,20,132,42,26,23,081,45*61
###2023-11-09 13:08:20.149419$GBGSV,2,2,06,28,43,287,47,33,59,304,47,,,,,,,,*66
###2023-11-09 13:08:20.150909$GNVTG,240.53,T,,M,5.70,N,10.55,K,A*10
###2023-11-09 13:08:20.229514$GNGGA,130820.40,3611.0371792,N,07545.0114611,W,1,24,0.6,1.115,M,-39.962,M,0.0,*61
###2023-11-09 13:08:20.232118$GPGSV,2,1,07,05,20,090,43,10,18,292,44,13,24,045,41,15,62,037,46*73
###2023-11-09 13:08:20.234377$GPGSV,2,2,07,18,77,281,46,23,50,315,46,24,49,136,44,,,,*40
###2023-11-09 13:08:20.236967$GLGSV,2,1,05,70,50,017,36,71,48,290,49,80,18,090,44,85,57,203,47*6B
###2023-11-09 13:08:20.238579$GLGSV,2,2,05,86,53,308,49,,,,,,,,,,,,*5E
###2023-11-09 13:08:20.241156$GAGSV,1,1,04,07,72,258,44,08,49,042,45,13,64,160,44,26,56,310,45*60
###2023-11-09 13:08:20.243742$GBGSV,2,1,06,11,23,180,40,14,65,008,46,24,20,132,42,26,23,081,44*60
###2023-11-09 13:08:20.245684$GBGSV,2,2,06,28,43,287,48,33,59,304,48,,,,,,,,*66
###2023-11-09 13:08:20.247200$GNVTG,240.26,T,,M,5.68,N,10.51,K,A*1F
###2023-11-09 13:08:20.330611$GNGGA,130820.50,3611.0370970,N,07545.0116294,W,1,24,0.6,1.139,M,-39.962,M,0.0,*66
###2023-11-09 13:08:20.333196$GPGSV,2,1,07,05,20,090,43,10,18,292,44,13,24,045,41,15,62,037,46*73
###2023-11-09 13:08:20.335447$GPGSV,2,2,07,18,77,281,46,23,50,315,46,24,49,136,44,,,,*40
###2023-11-09 13:08:20.338037$GLGSV,2,1,05,70,50,017,36,71,48,290,49,80,18,090,44,85,57,203,47*6B
###2023-11-09 13:08:20.339645$GLGSV,2,2,05,86,53,308,49,,,,,,,,,,,,*5E
###2023-11-09 13:08:20.342213$GAGSV,1,1,04,07,72,258,44,08,49,042,45,13,64,160,44,26,56,310,45*60
###2023-11-09 13:08:20.344794$GBGSV,2,1,06,11,23,180,40,14,65,008,46,24,20,132,41,26,23,081,44*63
###2023-11-09 13:08:20.346735$GBGSV,2,2,06,28,43,287,47,33,59,304,48,,,,,,,,*69
###2023-11-09 13:08:20.348247$GNVTG,237.58,T,,M,5.71,N,10.58,K,A*17
###2023-11-09 13:08:20.429541$GNGGA,130820.60,3611.0370140,N,07545.0117972,W,1,24,0.6,1.157,M,-39.962,M,0.0,*64
###2023-11-09 13:08:20.432140$GPGSV,2,1,07,05,20,090,43,10,18,292,43,13,24,045,41,15,62,037,46*74
###2023-11-09 13:08:20.434391$GPGSV,2,2,07,18,77,281,46,23,50,315,46,24,49,136,44,,,,*40
###2023-11-09 13:08:20.436972$GLGSV,2,1,05,70,50,017,36,71,48,290,49,80,18,090,44,85,57,203,47*6B
###2023-11-09 13:08:20.438574$GLGSV,2,2,05,86,53,308,49,,,,,,,,,,,,*5E
###2023-11-09 13:08:20.441141$GAGSV,1,1,04,07,72,258,44,08,49,042,45,13,64,160,44,26,56,310,45*60
###2023-11-09 13:08:20.443728$GBGSV,2,1,06,11,23,180,40,14,65,008,46,24,20,132,41,26,23,081,44*63
###2023-11-09 13:08:20.445655$GBGSV,2,2,06,28,43,287,47,33,59,304,48,,,,,,,,*69
###2023-11-09 13:08:20.447167$GNVTG,239.44,T,,M,5.68,N,10.51,K,A*15
###2023-11-09 13:08:20.529414$GNGGA,130820.70,3611.0369381,N,07545.0119692,W,1,24,0.6,1.173,M,-39.962,M,0.0,*6B
