###2023-11-09 13:07:04.733312$GPGSV,2,1,07,05,21,090,42,10,18,292,42,13,24,045,42,15,62,037,45*75
###2023-11-09 13:07:04.735594$GPGSV,2,2,07,18,77,281,47,23,50,315,45,24,49,136,46,,,,*40
###2023-11-09 13:07:04.738201$GLGSV,2,1,05,70,50,016,35,71,48,288,48,80,17,091,43,85,58,203,48*68
###2023-11-09 13:07:04.739827$GLGSV,2,2,05,86,52,309,47,,,,,,,,,,,,*50
###2023-11-09 13:07:04.742392$GAGSV,1,1,04,07,72,257,45,08,49,042,44,13,64,160,44,26,56,311,45*6E
###2023-11-09 13:07:04.744957$GBGSV,2,1,06,11,24,180,42,14,65,006,45,24,19,133,43,26,23,082,42*67
###2023-11-09 13:07:04.746884$GBGSV,2,2,06,28,43,289,47,33,58,302,47,,,,,,,,*6F
###2023-11-09 13:07:04.748368$GNVTG,355.09,T,,M,1.17,N,2.16,K,A*2B
###2023-11-09 13:07:04.831346$GNGGA,130705.00,3611.0496859,N,07544.9771062,W,1,24,0.6,1.157,M,-39.961,M,0.0,*61
###2023-11-09 13:07:04.833924$GPGSV,2,1,07,05,21,090,42,10,18,292,42,13,24,045,43,15,62,037,46*77
###2023-11-09 13:07:04.836156$GPGSV,2,2,07,18,77,281,47,23,50,315,45,24,49,136,46,,,,*40
###2023-11-09 13:07:04.838732$GLGSV,2,1,05,70,50,016,35,71,48,288,48,80,17,091,44,85,58,203,48*6F
###2023-11-09 13:07:04.840322$GLGSV,2,2,05,86,52,309,47,,,,,,,,,,,,*50
###2023-11-09 13:07:04.842864$GAGSV,1,1,04,07,72,257,45,08,49,042,44,13,64,160,44,26,56,311,45*6E
###2023-11-09 13:07:04.845427$GBGSV,2,1,06,11,24,180,42,14,65,006,45,24,19,133,42,26,23,082,42*66
###2023-11-09 13:07:04.847360$GBGSV,2,2,06,28,43,289,47,33,58,302,47,,,,,,,,*6F
###2023-11-09 13:07:04.848819$GNVTG,355.09,T,,M,0.86,N,1.58,K,A*2B
###2023-11-09 13:07:04.930366$GNGGA,130705.10,3611.0497075,N,07544.9771129,W,1,24,0.6,1.161,M,-39.961,M,0.0,*6C
###2023-11-09 13:07:04.932970$GPGSV,2,1,07,05,21,090,42,10,18,292,42,13,24,045,43,15,62,037,46*77
###2023-11-09 13:07:04.935237$GPGSV,2,2,07,18,77,281,47,23,50,315,45,24,49,136,46,,,,*40
###2023-11-09 13:07:04.937847$GLGSV,2,1,05,70,50,016,35,71,48,288,48,80,17,091,44,85,58,203,48*6F
###2023-11-09 13:07:04.939459$GLGSV,2,2,05,86,52,309,47,,,,,,,,,,,,*50
###2023-11-09 13:07:04.942023$GAGSV,1,1,04,07,72,257,45,08,49,042,44,13,64,160,44,26,56,311,45*6E
###2023-11-09 13:07:04.944594$GBGSV,2,1,06,11,24,180,41,14,65,006,45,24,19,133,42,26,23,082,42*65
###2023-11-09 13:07:04.946526$GBGSV,2,2,06,28,43,289,47,33,58,302,47,,,,,,,,*6F
###2023-11-09 13:07:04.948008$GNVTG,355.09,T,,M,0.76,N,1.40,K,A*2D
###2023-11-09 13:07:05.032478$GNGGA,130705.20,3611.0497246,N,07544.9771215,W,1,24,0.6,1.161,M,-39.961,M,0.0,*61
###2023-11-09 13:07:05.035066$GPGSV,2,1,07,05,21,090,42,10,18,292,42,13,24,045,42,15,62,037,46*76
###2023-11-09 13:07:05.037335$GPGSV,2,2,07,18,77,281,47,23,50,315,45,24,49,136,46,,,,*40
###2023-11-09 13:07:05.039912$GLGSV,2,1,05,70,50,016,36,71,48,288,48,80,17,091,44,85,58,203,48*6C
###2023-11-09 13:07:05.041524$GLGSV,2,2,05,86,52,309,47,,,,,,,,,,,,*50
###2023-11-09 13:07:05.044092$GAGSV,1,1,04,07,72,257,45,08,49,042,44,13,64,160,44,26,56,311,45*6E
###2023-11-09 13:07:05.046660$GBGSV,2,1,06,11,24,180,41,14,65,006,45,24,19,133,42,26,23,082,42*65
###2023-11-09 13:07:05.048609$GBGSV,2,2,06,28,43,289,47,33,58,302,47,,,,,,,,*6F
###2023-11-09 13:07:05.050067$GNVTG,355.09,T,,M,0.56,N,1.04,K,A*2F
###2023-11-09 13:07:05.129380$GNGGA,130705.30,3611.0497388,N,07544.9771314,W,1,24,0.6,1.156,M,-39.961,M,0.0,*67
###2023-11-09 13:07:05.131965$GPGSV,2,1,07,05,21,090,42,10,18,292,42,13,24,045,42,15,62,037,45*75
###2023-11-09 13:07:05.134208$GPGSV,2,2,07,18,77,281,47,23,50,315,45,24,49,136,46,,,,*40
###2023-11-09 13:07:05.136770$GLGSV,2,1,05,70,50,016,36,71,48,288,48,80,17,091,44,85,58,203,48*6C
###2023-11-09 13:07:05.138382$GLGSV,2,2,05,86,52,309,47,,,,,,,,,,,,*50
###2023-11-09 13:07:05.140933$GAGSV,1,1,04,07,72,257,45,08,49,042,44,13,64,160,44,26,56,311,45*6E
###2023-11-09 13:07:05.143503$GBGSV,2,1,06,11,24,180,41,14,65,006,45,24,19,133,42,26,23,082,41*66
###2023-11-09 13:07:05.145424$GBGSV,2,2,06,28,43,289,47,33,58,302,47,,,,,,,,*6F
###2023-11-09 13:07:05.146879$GNVTG,355.09,T,,M,0.58,N,1.08,K,A*2D
###2023-11-09 13:07:05.229769$GNGGA,130705.40,3611.0497536,N,07544.9771418,W,1,24,0.6,1.151,M,-39.961,M,0.0,*6F
###2023-11-09 13:07:05.232370$GPGSV,2,1,07,05,21,090,42,10,18,292,43,13,24,045,40,15,62,037,45*76
###2023-11-09 13:07:05.234625$GPGSV,2,2,07,18,77,281,47,23,50,315,45,24,49,136,46,,,,*40
###2023-11-09 13:07:05.237219$GLGSV,2,1,05,70,50,016,35,71,48,288,48,80,17,091,43,85,58,203,48*68
###2023-11-09 13:07:05.238830$GLGSV,2,2,05,86,52,309,47,,,,,,,,,,,,*50
###2023-11-09 13:07:05.241394$GAGSV,1,1,04,07,72,257,45,08,49,042,44,13,64,160,44,26,56,311,45*6E
###2023-11-09 13:07:05.243966$GBGSV,2,1,06,11,24,180,41,14,65,006,45,24,19,133,43,26,23,082,41*67
###2023-11-09 13:07:05.245907$GBGSV,2,2,06,28,43,289,47,33,58,302,47,,,,,,,,*6F
###2023-11-09 13:07:05.247381$GNVTG,355.09,T,,M,0.62,N,1.15,K,A*28
###2023-11-09 13:07:05.331356$GNGGA,130705.50,3611.0497711,N,07544.9771512,W,1,24,0.6,1.145,M,-39.961,M,0.0,*67
###2023-11-09 13:07:05.333939$GPGSV,2,1,07,05,21,090,42,10,18,292,43,13,24,045,40,15,62,037,45*76
###2023-11-09 13:07:05.336184$GPGSV,2,2,07,18,77,281,47,23,50,315,45,24,49,136,46,,,,*40
###2023-11-09 13:07:05.338780$GLGSV,2,1,05,70,50,016,35,71,48,288,48,80,17,091,43,85,58,203,48*68
###2023-11-09 13:07:05.340401$GLGSV,2,2,05,86,52,309,47,,,,,,,,,,,,*50
###2023-11-09 13:07:05.342977$GAGSV,1,1,04,07,72,257,45,08,49,042,44,13,64,160,44,26,56,311,44*6F
###2023-11-09 13:07:05.345577$GBGSV,2,1,06,11,24,180,41,14,65,006,45,24,19,133,43,26,23,082,41*67
###2023-11-09 13:07:05.347542$GBGSV,2,2,06,28,43,289,47,33,58,302,47,,,,,,,,*6F
###2023-11-09 13:07:05.349013$GNVTG,355.09,T,,M,0.72,N,1.33,K,A*2D
###2023-11-09 13:07:05.429649$GNGGA,130705.60,3611.0497922,N,07544.9771585,W,1,24,0.6,1.149,M,-39.961,M,0.0,*68
###2023-11-09 13:07:05.432235$GPGSV,2,1,07,05,21,090,42,10,18,292,43,13,24,045,40,15,62,037,45*76
###2023-11-09 13:07:05.434490$GPGSV,2,2,07,18,77,281,47,23,50,315,45,24,49,136,46,,,,*40
###2023-11-09 13:07:05.437080$GLGSV,2,1,05,70,50,016,35,71,48,288,48,80,17,091,43,85,58,203,48*68
###2023-11-09 13:07:05.438688$GLGSV,2,2,05,86,52,309,47,,,,,,,,,,,,*50
###2023-11-09 13:07:05.441245$GAGSV,1,1,04,07,72,257,45,08,49,042,44,13,64,160,44,26,56,311,45*6E
###2023-11-09 13:07:05.443806$GBGSV,2,1,06,11,24,180,41,14,65,006,45,24,19,133,44,26,23,082,41*60
###2023-11-09 13:07:05.445741$GBGSV,2,2,06,28,43,289,47,33,58,302,47,,,,,,,,*6F
###2023-11-09 13:07:05.447216$GNVTG,355.09,T,,M,0.84,N,1.55,K,A*24
###2023-11-09 13:07:05.529298$GNGGA,130705.70,3611.0498158,N,07544.9771663,W,1,24,0.6,1.155,M,-39.961,M,0.0,*65
###2023-11-09 13:07:05.531924$GPGSV,2,1,07,05,21,090,42,10,18,292,43,13,24,045,40,15,62,037,45*76
###2023-11-09 13:07:05.534191$GPGSV,2,2,07,18,77,281,47,23,50,315,45,24,49,136,46,,,,*40
###2023-11-09 13:07:05.536767$GLGSV,2,1,05,70,50,016,35,71,48,288,48,80,17,091,43,85,58,203,48*68
###2023-11-09 13:07:05.538402$GLGSV,2,2,05,86,52,309,47,,,,,,,,,,,,*50
###2023-11-09 13:07:05.540981$GAGSV,1,1,04,07,72,257,45,08,49,042,44,13,64,160,44,26,56,311,45*6E
###2023-11-09 13:07:05.543579$GBGSV,2,1,06,11,24,180,41,14,65,006,45,24,19,133,44,26,23,082,41*60
###2023-11-09 13:07:05.545527$GBGSV,2,2,06,28,43,289,47,33,58,302,47,,,,,,,,*6F
###2023-11-09 13:07:05.547012$GNVTG,355.09,T,,M,0.89,N,1.66,K,A*29
###2023-11-09 13:07:05.629386$GNGGA,130705.80,3611.0498400,N,07544.9771761,W,1,24,0.6,1.169,M,-39.961,M,0.0,*6E
###2023-11-09 13:07:05.631989$GPGSV,2,1,07,05,21,090,42,10,18,292,44,13,24,045,42,15,62,037,45*73
###2023-11-09 13:07:05.634250$GPGSV,2,2,07,18,77,281,47,23,50,315,45,24,49,136,46,,,,*40
###2023-11-09 13:07:05.636815$GLGSV,2,1,05,70,50,016,35,71,48,288,48,80,17,091,43,85,58,203,48*68
###2023-11-09 13:07:05.638440$GLGSV,2,2,05,86,52,309,47,,,,,,,,,,,,*50
###2023-11-09 13:07:05.641025$GAGSV,1,1,04,07,72,257,45,08,49,042,44,13,64,160,44,26,56,311,45*6E
###2023-11-09 13:07:05.643614$GBGSV,2,1,06,11,24,180,41,14,65,006,45,24,19,133,43,26,23,082,43*65
###2023-11-09 13:07:05.645547$GBGSV,2,2,06,28,43,289,47,33,58,302,47,,,,,,,,*6F
###2023-11-09 13:07:05.647038$GNVTG,355.09,T,,M,0.91,N,1.69,K,A*2F
###2023-11-09 13:07:05.729365$GNGGA,130705.90,3611.0498634,N,07544.9771890,W,1,24,0.6,1.179,M,-39.961,M,0.0,*6A
###2023-11-09 13:07:05.732256$GPGSV,2,1,07,05,21,090,42,10,18,292,43,13,24,045,42,15,62,037,45*74
###2023-11-09 13:07:05.734513$GPGSV,2,2,07,18,77,281,47,23,50,315,45,24,49,136,46,,,,*40
###2023-11-09 13:07:05.737095$GLGSV,2,1,05,70,50,016,35,71,48,288,48,80,17,091,43,85,58,203,48*68
###2023-11-09 13:07:05.738701$GLGSV,2,2,05,86,52,309,48,,,,,,,,,,,,*5F
###2023-11-09 13:07:05.741261$GAGSV,1,1,04,07,72,257,45,08,49,042,45,13,64,160,44,26,56,311,45*6F
###2023-11-09 13:07:05.743828$GBGSV,2,1,06,11,24,180,41,14,65,006,45,24,19,133,43,26,23,082,43*65
###2023-11-09 13:07:05.745751$GBGSV,2,2,06,28,43,289,47,33,58,302,47,,,,,,,,*6F
###2023-11-09 13:07:05.747227$GNVTG,355.09,T,,M,0.89,N,1.66,K,A*29
###2023-11-09 13:07:05.830376$GNGGA,130706.00,3611.0498842,N,07544.9772054,W,1,24,0.6,1.190,M,-39.961,M,0.0,*6B
###2023-11-09 13:07:05.832978$GPGSV,2,1,07,05,21,090,42,10,18,292,43,13,24,045,42,15,62,037,45*74
