###2023-11-09 13:10:39.839085$GPGSV,2,2,07,18,78,272,46,23,51,317,45,24,51,133,45,,,,*4E
###2023-11-09 13:10:39.841695$GLGSV,2,1,05,70,49,019,36,71,48,291,47,80,19,089,46,85,56,202,48*66
###2023-11-09 13:10:39.843323$GLGSV,2,2,05,86,54,306,48,,,,,,,,,,,,*56
###2023-11-09 13:10:39.845908$GAGSV,1,1,04,07,73,259,45,08,48,043,46,13,63,161,44,26,57,310,45*65
###2023-11-09 13:10:39.848524$GBGSV,2,1,06,11,22,180,39,14,65,009,46,24,21,132,44,26,23,080,45*69
###2023-11-09 13:10:39.850468$GBGSV,2,2,06,28,43,286,46,33,59,305,47,,,,,,,,*67
###2023-11-09 13:10:39.851938$GNVTG,291.00,T,,M,4.08,N,7.56,K,A*21
###2023-11-09 13:10:39.931841$GNGGA,131040.10,3611.0668369,N,07544.8824951,W,1,24,0.6,0.651,M,-39.960,M,0.0,*6A
###2023-11-09 13:10:39.934445$GPGSV,2,1,07,05,20,091,44,10,19,294,41,13,23,045,44,15,60,038,46*78
###2023-11-09 13:10:39.936717$GPGSV,2,2,07,18,78,272,46,23,51,317,45,24,51,133,45,,,,*4E
###2023-11-09 13:10:39.939329$GLGSV,2,1,05,70,49,019,36,71,48,291,48,80,19,089,46,85,56,202,48*69
###2023-11-09 13:10:39.940937$GLGSV,2,2,05,86,54,306,48,,,,,,,,,,,,*56
###2023-11-09 13:10:39.943511$GAGSV,1,1,04,07,73,259,45,08,48,043,46,13,63,161,44,26,57,310,45*65
###2023-11-09 13:10:39.946072$GBGSV,2,1,06,11,22,180,39,14,65,009,46,24,21,132,44,26,23,080,45*69
###2023-11-09 13:10:39.948014$GBGSV,2,2,06,28,43,286,46,33,59,305,48,,,,,,,,*68
###2023-11-09 13:10:39.949473$GNVTG,287.12,T,,M,4.08,N,7.56,K,A*25
###2023-11-09 13:10:40.028387$GNGGA,131040.20,3611.0668679,N,07544.8826318,W,1,24,0.6,0.667,M,-39.960,M,0.0,*6D
###2023-11-09 13:10:40.030999$GPGSV,2,1,07,05,20,091,44,10,19,294,41,13,23,045,44,15,60,038,47*79
###2023-11-09 13:10:40.033279$GPGSV,2,2,07,18,78,272,46,23,51,317,45,24,51,133,45,,,,*4E
###2023-11-09 13:10:40.035872$GLGSV,2,1,05,70,49,019,36,71,48,291,48,80,19,089,46,85,56,202,48*69
###2023-11-09 13:10:40.037509$GLGSV,2,2,05,86,54,306,48,,,,,,,,,,,,*56
###2023-11-09 13:10:40.040098$GAGSV,1,1,04,07,73,259,45,08,48,043,46,13,63,161,45,26,57,310,45*64
###2023-11-09 13:10:40.042696$GBGSV,2,1,06,11,22,180,39,14,65,009,45,24,21,132,44,26,23,080,44*6B
###2023-11-09 13:10:40.044640$GBGSV,2,2,06,28,43,286,46,33,59,305,48,,,,,,,,*68
###2023-11-09 13:10:40.046108$GNVTG,284.65,T,,M,4.12,N,7.63,K,A*2B
###2023-11-09 13:10:40.132221$GNGGA,131040.30,3611.0668997,N,07544.8827688,W,1,24,0.6,0.678,M,-39.960,M,0.0,*60
###2023-11-09 13:10:40.134797$GPGSV,2,1,07,05,20,091,44,10,19,294,41,13,23,045,43,15,60,038,46*7F
###2023-11-09 13:10:40.137066$GPGSV,2,2,07,18,78,272,46,23,51,317,46,24,51,133,45,,,,*4D
###2023-11-09 13:10:40.139647$GLGSV,2,1,05,70,49,019,36,71,48,291,48,80,19,089,45,85,56,202,48*6A
###2023-11-09 13:10:40.141269$GLGSV,2,2,05,86,54,306,48,,,,,,,,,,,,*56
###2023-11-09 13:10:40.143847$GAGSV,1,1,04,07,73,259,45,08,48,043,45,13,63,161,45,26,57,310,45*67
###2023-11-09 13:10:40.146440$GBGSV,2,1,06,11,22,180,41,14,65,009,45,24,21,132,44,26,23,080,44*64
###2023-11-09 13:10:40.148403$GBGSV,2,2,06,28,43,286,46,33,59,305,48,,,,,,,,*68
###2023-11-09 13:10:40.149879$GNVTG,287.41,T,,M,4.14,N,7.67,K,A*2C
###2023-11-09 13:10:40.227614$GNGGA,131040.40,3611.0669436,N,07544.8829041,W,1,24,0.6,0.691,M,-39.960,M,0.0,*6A
###2023-11-09 13:10:40.230192$GPGSV,2,1,07,05,20,091,43,10,19,294,41,13,23,045,42,15,60,038,46*79
###2023-11-09 13:10:40.232448$GPGSV,2,2,07,18,78,272,46,23,51,317,45,24,51,133,45,,,,*4E
###2023-11-09 13:10:40.235019$GLGSV,2,1,05,70,49,019,36,71,48,291,48,80,19,089,45,85,56,202,49*6B
###2023-11-09 13:10:40.236624$GLGSV,2,2,05,86,54,306,49,,,,,,,,,,,,*57
###2023-11-09 13:10:40.239204$GAGSV,1,1,04,07,73,259,45,08,48,043,45,13,63,161,45,26,57,310,46*64
###2023-11-09 13:10:40.241775$GBGSV,2,1,06,11,22,180,42,14,65,009,45,24,21,132,45,26,23,080,44*66
###2023-11-09 13:10:40.243708$GBGSV,2,2,06,28,43,286,46,33,59,305,48,,,,,,,,*68
###2023-11-09 13:10:40.245170$GNVTG,296.17,T,,M,4.33,N,8.03,K,A*27
###2023-11-09 13:10:40.327287$GNGGA,131040.50,3611.0670044,N,07544.8830381,W,1,24,0.6,0.714,M,-39.960,M,0.0,*69
###2023-11-09 13:10:40.329876$GPGSV,2,1,07,05,20,091,43,10,19,294,41,13,23,045,42,15,60,038,46*79
###2023-11-09 13:10:40.332126$GPGSV,2,2,07,18,78,272,46,23,51,317,45,24,51,133,45,,,,*4E
###2023-11-09 13:10:40.334709$GLGSV,2,1,05,70,49,019,36,71,48,291,49,80,19,089,45,85,56,202,49*6A
###2023-11-09 13:10:40.336321$GLGSV,2,2,05,86,54,306,48,,,,,,,,,,,,*56
###2023-11-09 13:10:40.338907$GAGSV,1,1,04,07,73,259,45,08,48,043,45,13,63,161,45,26,57,310,46*64
###2023-11-09 13:10:40.341499$GBGSV,2,1,06,11,22,180,42,14,65,009,45,24,21,132,45,26,23,080,43*61
###2023-11-09 13:10:40.343440$GBGSV,2,2,06,28,43,286,46,33,59,305,48,,,,,,,,*68
###2023-11-09 13:10:40.344902$GNVTG,302.17,T,,M,4.63,N,8.57,K,A*2F
###2023-11-09 13:10:40.428247$GNGGA,131040.60,3611.0670725,N,07544.8831745,W,1,24,0.6,0.724,M,-39.960,M,0.0,*64
###2023-11-09 13:10:40.430839$GPGSV,2,1,07,05,20,091,43,10,19,294,41,13,23,045,42,15,60,038,46*79
###2023-11-09 13:10:40.433093$GPGSV,2,2,07,18,78,272,46,23,51,317,45,24,51,133,45,,,,*4E
###2023-11-09 13:10:40.435676$GLGSV,2,1,05,70,49,019,36,71,48,291,49,80,19,089,45,85,56,202,49*6A
###2023-11-09 13:10:40.437342$GLGSV,2,2,05,86,54,306,48,,,,,,,,,,,,*56
###2023-11-09 13:10:40.439919$GAGSV,1,1,04,07,73,259,45,08,48,043,45,13,63,161,45,26,57,310,45*67
###2023-11-09 13:10:40.442498$GBGSV,2,1,06,11,22,180,41,14,65,009,46,24,21,132,44,26,23,080,44*67
###2023-11-09 13:10:40.444439$GBGSV,2,2,06,28,43,286,46,33,59,305,47,,,,,,,,*67
###2023-11-09 13:10:40.445900$GNVTG,301.26,T,,M,4.68,N,8.68,K,A*29
###2023-11-09 13:10:40.528117$GNGGA,131040.70,3611.0671381,N,07544.8833145,W,1,24,0.6,0.726,M,-39.960,M,0.0,*68
###2023-11-09 13:10:40.530696$GPGSV,2,1,07,05,20,091,43,10,19,294,41,13,23,045,43,15,60,038,46*78
###2023-11-09 13:10:40.532938$GPGSV,2,2,07,18,78,272,46,23,51,317,45,24,51,133,45,,,,*4E
###2023-11-09 13:10:40.535492$GLGSV,2,1,05,70,49,019,36,71,48,291,49,80,19,089,45,85,56,202,48*6B
###2023-11-09 13:10:40.537102$GLGSV,2,2,05,86,54,306,48,,,,,,,,,,,,*56
###2023-11-09 13:10:40.539663$GAGSV,1,1,04,07,73,259,45,08,48,043,45,13,63,161,44,26,57,310,45*66
###2023-11-09 13:10:40.542229$GBGSV,2,1,06,11,22,180,39,14,65,009,46,24,21,132,44,26,23,080,44*68
###2023-11-09 13:10:40.544155$GBGSV,2,2,06,28,43,286,46,33,59,305,48,,,,,,,,*68
###2023-11-09 13:10:40.545608$GNVTG,298.99,T,,M,4.74,N,8.78,K,A*20
###2023-11-09 13:10:40.627620$GNGGA,131040.80,3611.0671972,N,07544.8834609,W,1,24,0.6,0.729,M,-39.960,M,0.0,*66
###2023-11-09 13:10:40.630213$GPGSV,2,1,07,05,20,091,43,10,19,294,41,13,23,045,43,15,60,038,46*78
###2023-11-09 13:10:40.632474$GPGSV,2,2,07,18,78,272,46,23,51,317,46,24,51,133,45,,,,*4D
###2023-11-09 13:10:40.635041$GLGSV,2,1,05,70,49,019,36,71,48,291,49,80,19,089,45,85,56,202,48*6B
###2023-11-09 13:10:40.636646$GLGSV,2,2,05,86,54,306,48,,,,,,,,,,,,*56
###2023-11-09 13:10:40.639225$GAGSV,1,1,04,07,73,259,45,08,48,043,45,13,63,161,44,26,57,310,45*66
###2023-11-09 13:10:40.641797$GBGSV,2,1,06,11,22,180,39,14,65,009,46,24,21,132,44,26,23,080,45*69
###2023-11-09 13:10:40.643739$GBGSV,2,2,06,28,43,286,46,33,59,305,47,,,,,,,,*67
###2023-11-09 13:10:40.645203$GNVTG,294.15,T,,M,4.78,N,8.86,K,A*25
###2023-11-09 13:10:40.728624$GNGGA,131040.90,3611.0672506,N,07544.8836157,W,1,24,0.6,0.742,M,-39.960,M,0.0,*68
###2023-11-09 13:10:40.731214$GPGSV,2,1,07,05,20,091,43,10,19,294,41,13,23,045,43,15,60,038,47*79
###2023-11-09 13:10:40.733467$GPGSV,2,2,07,18,78,272,46,23,51,317,46,24,51,133,45,,,,*4D
###2023-11-09 13:10:40.736034$GLGSV,2,1,05,70,49,019,36,71,48,291,48,80,19,089,45,85,56,202,48*6A
###2023-11-09 13:10:40.737656$GLGSV,2,2,05,86,54,306,48,,,,,,,,,,,,*56
###2023-11-09 13:10:40.740238$GAGSV,1,1,04,07,73,259,45,08,48,043,46,13,63,161,44,26,57,310,45*65
###2023-11-09 13:10:40.742821$GBGSV,2,1,06,11,22,180,39,14,65,009,46,24,21,132,44,26,23,080,45*69
###2023-11-09 13:10:40.744754$GBGSV,2,2,06,28,43,286,46,33,59,305,47,,,,,,,,*67
###2023-11-09 13:10:40.746217$GNVTG,292.21,T,,M,5.00,N,9.25,K,A*22
###2023-11-09 13:10:40.832717$GNGGA,131041.00,3611.0673029,N,07544.8837785,W,1,24,0.6,0.757,M,-39.960,M,0.0,*65
###2023-11-09 13:10:40.835284$GPGSV,2,1,07,05,20,091,43,10,19,294,41,13,23,045,43,15,60,038,46*78
###2023-11-09 13:10:40.837864$GPGSV,2,2,07,18,78,272,46,23,51,317,46,24,51,133,45,,,,*4D
###2023-11-09 13:10:40.840448$GLGSV,2,1,05,70,49,019,36,71,48,291,48,80,19,089,45,85,56,202,48*6A
###2023-11-09 13:10:40.842063$GLGSV,2,2,05,86,54,306,48,,,,,,,,,,,,*56
###2023-11-09 13:10:40.844615$GAGSV,1,1,04,07,73,259,45,08,48,043,46,13,63,161,44,26,57,310,45*65
###2023-11-09 13:10:40.847192$GBGSV,2,1,06,11,22,180,39,14,65,009,46,24,21,132,44,26,23,080,45*69
###2023-11-09 13:10:40.849123$GBGSV,2,2,06,28,43,286,46,33,59,305,47,,,,,,,,*67
###2023-11-09 13:10:40.850592$GNVTG,291.10,T,,M,5.19,N,9.61,K,A*2B
###2023-11-09 13:10:40.929766$GNGGA,131041.10,3611.0673589,N,07544.8839448,W,1,24,0.6,0.762,M,-39.960,M,0.0,*61
###2023-11-09 13:10:40.932364$GPGSV,2,1,07,05,20,091,43,10,19,294,41,13,23,045,43,15,60,038,46*78
###2023-11-09 13:10:40.934628$GPGSV,2,2,07,18,78,272,46,23,51,317,46,24,51,133,45,,,,*4D
