###2023-11-09 13:06:59.141403$GAGSV,1,1,04,07,72,255,45,08,49,042,44,13,64,160,44,26,56,311,45*6C
###2023-11-09 13:06:59.144005$GBGSV,2,1,06,11,24,180,41,14,65,006,46,24,19,133,43,26,23,082,42*67
###2023-11-09 13:06:59.145947$GBGSV,2,2,06,28,43,289,47,33,58,302,47,,,,,,,,*6F
###2023-11-09 13:06:59.147438$GNVTG,352.37,T,,M,0.99,N,1.84,K,A*2E
###2023-11-09 13:06:59.229680$GNGGA,130659.40,3611.0483653,N,07544.9779121,W,1,24,0.6,1.088,M,-39.961,M,0.0,*60
###2023-11-09 13:06:59.232282$GPGSV,2,1,07,05,21,090,42,10,18,292,44,13,24,045,41,15,62,037,46*73
###2023-11-09 13:06:59.234549$GPGSV,2,2,07,18,77,281,47,23,50,315,45,24,49,136,46,,,,*40
###2023-11-09 13:06:59.237139$GLGSV,2,1,05,70,50,016,35,71,48,288,48,80,17,091,43,85,58,203,48*68
###2023-11-09 13:06:59.238757$GLGSV,2,2,05,86,52,309,47,,,,,,,,,,,,*50
###2023-11-09 13:06:59.241343$GAGSV,1,1,04,07,72,255,45,08,49,042,44,13,64,160,44,26,56,311,45*6C
###2023-11-09 13:06:59.243936$GBGSV,2,1,06,11,24,180,42,14,65,006,46,24,19,133,43,26,23,082,42*64
###2023-11-09 13:06:59.245873$GBGSV,2,2,06,28,43,289,47,33,58,302,47,,,,,,,,*6F
###2023-11-09 13:06:59.247363$GNVTG,355.12,T,,M,1.24,N,2.30,K,A*25
###2023-11-09 13:06:59.331751$GNGGA,130659.50,3611.0484017,N,07544.9779141,W,1,24,0.6,1.065,M,-39.961,M,0.0,*65
###2023-11-09 13:06:59.334344$GPGSV,2,1,07,05,21,090,41,10,18,292,44,13,24,045,41,15,62,037,45*73
###2023-11-09 13:06:59.336600$GPGSV,2,2,07,18,77,281,47,23,50,315,45,24,49,136,46,,,,*40
###2023-11-09 13:06:59.339196$GLGSV,2,1,05,70,50,016,35,71,48,288,48,80,17,091,43,85,58,203,48*68
###2023-11-09 13:06:59.340807$GLGSV,2,2,05,86,52,309,47,,,,,,,,,,,,*50
###2023-11-09 13:06:59.343379$GAGSV,1,1,04,07,72,255,45,08,49,042,44,13,64,160,44,26,56,311,45*6C
###2023-11-09 13:06:59.345961$GBGSV,2,1,06,11,24,180,42,14,65,006,46,24,19,133,44,26,23,082,42*63
###2023-11-09 13:06:59.347914$GBGSV,2,2,06,28,43,289,47,33,58,302,47,,,,,,,,*6F
###2023-11-09 13:06:59.349313$GNVTG,0.39,T,,M,1.40,N,2.59,K,A*22
###2023-11-09 13:06:59.429537$GNGGA,130659.60,3611.0484409,N,07544.9779124,W,1,24,0.6,1.045,M,-39.961,M,0.0,*6C
###2023-11-09 13:06:59.432136$GPGSV,2,1,07,05,21,090,41,10,18,292,44,13,24,045,41,15,62,037,45*73
###2023-11-09 13:06:59.434384$GPGSV,2,2,07,18,77,281,47,23,50,315,45,24,49,136,46,,,,*40
###2023-11-09 13:06:59.436969$GLGSV,2,1,05,70,50,016,35,71,48,288,48,80,17,091,43,85,58,203,48*68
###2023-11-09 13:06:59.438571$GLGSV,2,2,05,86,52,309,47,,,,,,,,,,,,*50
###2023-11-09 13:06:59.441133$GAGSV,1,1,04,07,72,255,45,08,49,042,44,13,64,160,44,26,56,311,45*6C
###2023-11-09 13:06:59.443691$GBGSV,2,1,06,11,24,180,42,14,65,006,46,24,19,133,44,26,23,082,42*63
###2023-11-09 13:06:59.445622$GBGSV,2,2,06,28,43,289,47,33,58,302,47,,,,,,,,*6F
###2023-11-09 13:06:59.447020$GNVTG,4.07,T,,M,1.46,N,2.70,K,A*26
###2023-11-09 13:06:59.529515$GNGGA,130659.70,3611.0484805,N,07544.9779084,W,1,24,0.6,1.031,M,-39.961,M,0.0,*65
###2023-11-09 13:06:59.532119$GPGSV,2,1,07,05,21,090,41,10,18,292,44,13,24,045,41,15,62,037,46*70
###2023-11-09 13:06:59.534383$GPGSV,2,2,07,18,77,281,47,23,50,315,45,24,49,136,46,,,,*40
###2023-11-09 13:06:59.536974$GLGSV,2,1,05,70,50,016,35,71,48,288,48,80,17,091,43,85,58,203,48*68
###2023-11-09 13:06:59.538585$GLGSV,2,2,05,86,52,309,47,,,,,,,,,,,,*50
###2023-11-09 13:06:59.541165$GAGSV,1,1,04,07,72,255,45,08,49,042,44,13,64,160,44,26,56,311,45*6C
###2023-11-09 13:06:59.543752$GBGSV,2,1,06,11,24,180,42,14,65,006,46,24,19,133,44,26,23,082,42*63
###2023-11-09 13:06:59.545698$GBGSV,2,2,06,28,43,289,47,33,58,302,47,,,,,,,,*6F
###2023-11-09 13:06:59.547112$GNVTG,5.80,T,,M,1.44,N,2.66,K,A*2D
###2023-11-09 13:06:59.629522$GNGGA,130659.80,3611.0485171,N,07544.9779025,W,1,24,0.6,1.019,M,-39.961,M,0.0,*60
###2023-11-09 13:06:59.632113$GPGSV,2,1,07,05,21,090,41,10,18,292,44,13,24,045,43,15,62,037,46*72
###2023-11-09 13:06:59.634365$GPGSV,2,2,07,18,77,281,47,23,50,315,45,24,49,136,46,,,,*40
###2023-11-09 13:06:59.636949$GLGSV,2,1,05,70,50,016,35,71,48,288,48,80,17,091,43,85,58,203,48*68
###2023-11-09 13:06:59.638567$GLGSV,2,2,05,86,52,309,47,,,,,,,,,,,,*50
###2023-11-09 13:06:59.641140$GAGSV,1,1,04,07,72,255,45,08,49,042,44,13,64,160,44,26,56,311,45*6C
###2023-11-09 13:06:59.643717$GBGSV,2,1,06,11,24,180,42,14,65,006,46,24,19,133,43,26,23,082,42*64
###2023-11-09 13:06:59.645652$GBGSV,2,2,06,28,43,289,47,33,58,302,47,,,,,,,,*6F
###2023-11-09 13:06:59.647105$GNVTG,10.26,T,,M,1.26,N,2.34,K,A*16
###2023-11-09 13:06:59.729483$GNGGA,130659.90,3611.0485482,N,07544.9778944,W,1,24,0.6,1.008,M,-39.961,M,0.0,*67
###2023-11-09 13:06:59.732063$GPGSV,2,1,07,05,21,090,42,10,18,292,44,13,24,045,43,15,62,037,46*71
###2023-11-09 13:06:59.734314$GPGSV,2,2,07,18,77,281,47,23,50,315,45,24,49,136,46,,,,*40
###2023-11-09 13:06:59.736883$GLGSV,2,1,05,70,50,016,35,71,48,288,48,80,17,091,43,85,58,203,48*68
###2023-11-09 13:06:59.738498$GLGSV,2,2,05,86,52,309,47,,,,,,,,,,,,*50
###2023-11-09 13:06:59.741061$GAGSV,1,1,04,07,72,255,45,08,49,042,44,13,64,160,44,26,56,311,45*6C
###2023-11-09 13:06:59.743627$GBGSV,2,1,06,11,24,180,41,14,65,006,46,24,19,133,43,26,23,082,42*67
###2023-11-09 13:06:59.745552$GBGSV,2,2,06,28,43,289,47,33,58,302,47,,,,,,,,*6F
###2023-11-09 13:06:59.746988$GNVTG,14.99,T,,M,1.07,N,1.98,K,A*10
###2023-11-09 13:06:59.836263$GNGGA,130700.00,3611.0485747,N,07544.9778856,W,1,24,0.6,0.998,M,-39.961,M,0.0,*6A
###2023-11-09 13:06:59.838895$GPGSV,2,1,07,05,21,090,42,10,18,292,44,13,24,045,42,15,62,037,46*70
###2023-11-09 13:06:59.841159$GPGSV,2,2,07,18,77,281,47,23,50,315,45,24,49,136,46,,,,*40
###2023-11-09 13:06:59.843743$GLGSV,2,1,05,70,50,016,36,71,48,288,48,80,17,091,43,85,58,203,48*6B
###2023-11-09 13:06:59.845356$GLGSV,2,2,05,86,52,309,47,,,,,,,,,,,,*50
###2023-11-09 13:06:59.847940$GAGSV,1,1,04,07,72,255,45,08,49,042,44,13,64,160,44,26,56,311,45*6C
###2023-11-09 13:06:59.850522$GBGSV,2,1,06,11,24,180,41,14,65,006,46,24,19,133,43,26,23,082,42*67
###2023-11-09 13:06:59.852462$GBGSV,2,2,06,28,43,289,47,33,58,302,47,,,,,,,,*6F
###2023-11-09 13:06:59.853889$GNVTG,14.99,T,,M,0.95,N,1.76,K,A*1A
###2023-11-09 13:06:59.937642$GNGGA,130700.10,3611.0485993,N,07544.9778756,W,1,24,0.6,0.989,M,-39.961,M,0.0,*63
###2023-11-09 13:06:59.940247$GPGSV,2,1,07,05,21,090,42,10,18,292,44,13,24,045,41,15,62,037,46*73
###2023-11-09 13:06:59.942528$GPGSV,2,2,07,18,77,281,47,23,50,315,45,24,49,136,46,,,,*40
###2023-11-09 13:06:59.945110$GLGSV,2,1,05,70,50,016,36,71,48,288,47,80,17,091,43,85,58,203,48*64
###2023-11-09 13:06:59.946718$GLGSV,2,2,05,86,52,309,47,,,,,,,,,,,,*50
###2023-11-09 13:06:59.949303$GAGSV,1,1,04,07,72,255,45,08,49,042,44,13,64,160,44,26,56,311,45*6C
###2023-11-09 13:06:59.951883$GBGSV,2,1,06,11,24,180,41,14,65,006,46,24,19,133,43,26,23,082,42*67
###2023-11-09 13:06:59.953814$GBGSV,2,2,06,28,43,289,47,33,58,302,47,,,,,,,,*6F
###2023-11-09 13:06:59.955245$GNVTG,14.99,T,,M,0.95,N,1.76,K,A*1A
###2023-11-09 13:07:00.032368$GNGGA,130700.20,3611.0486251,N,07544.9778626,W,1,24,0.6,0.981,M,-39.961,M,0.0,*68
###2023-11-09 13:07:00.034950$GPGSV,2,1,07,05,21,090,42,10,18,292,44,13,24,045,41,15,62,037,46*73
###2023-11-09 13:07:00.037220$GPGSV,2,2,07,18,77,281,47,23,50,315,45,24,49,136,46,,,,*40
###2023-11-09 13:07:00.039780$GLGSV,2,1,05,70,50,016,36,71,48,288,48,80,17,091,43,85,58,203,48*6B
###2023-11-09 13:07:00.041383$GLGSV,2,2,05,86,52,309,47,,,,,,,,,,,,*50
###2023-11-09 13:07:00.043948$GAGSV,1,1,04,07,72,255,45,08,49,042,44,13,64,160,44,26,56,311,45*6C
###2023-11-09 13:07:00.046515$GBGSV,2,1,06,11,24,180,41,14,65,006,46,24,19,133,43,26,23,082,42*67
###2023-11-09 13:07:00.048450$GBGSV,2,2,06,28,43,289,47,33,58,302,47,,,,,,,,*6F
###2023-11-09 13:07:00.049872$GNVTG,24.00,T,,M,1.11,N,2.05,K,A*13
###2023-11-09 13:07:00.129507$GNGGA,130700.30,3611.0486543,N,07544.9778466,W,1,24,0.6,0.967,M,-39.961,M,0.0,*63
###2023-11-09 13:07:00.132103$GPGSV,2,1,07,05,21,090,42,10,18,292,44,13,24,045,41,15,62,037,46*73
###2023-11-09 13:07:00.134358$GPGSV,2,2,07,18,77,281,47,23,50,315,45,24,49,136,46,,,,*40
###2023-11-09 13:07:00.136946$GLGSV,2,1,05,70,50,016,35,71,48,288,48,80,17,091,43,85,58,203,48*68
###2023-11-09 13:07:00.138556$GLGSV,2,2,05,86,52,309,47,,,,,,,,,,,,*50
###2023-11-09 13:07:00.141129$GAGSV,1,1,04,07,72,255,45,08,49,042,44,13,64,160,44,26,56,311,45*6C
###2023-11-09 13:07:00.144015$GBGSV,2,1,06,11,24,180,41,14,65,006,46,24,19,133,43,26,23,082,42*67
###2023-11-09 13:07:00.145949$GBGSV,2,2,06,28,43,289,47,33,58,302,47,,,,,,,,*6F
###2023-11-09 13:07:00.147386$GNVTG,24.75,T,,M,1.24,N,2.30,K,A*11
###2023-11-09 13:07:00.230596$GNGGA,130700.40,3611.0486871,N,07544.9778281,W,1,24,0.6,0.955,M,-39.961,M,0.0,*66
###2023-11-09 13:07:00.233182$GPGSV,2,1,07,05,21,090,42,10,18,292,43,13,24,045,41,15,62,037,46*74
###2023-11-09 13:07:00.235428$GPGSV,2,2,07,18,77,281,47,23,50,315,45,24,49,136,46,,,,*40
###2023-11-09 13:07:00.238014$GLGSV,2,1,05,70,50,016,35,71,48,288,48,80,17,091,43,85,58,203,48*68
###2023-11-09 13:07:00.239621$GLGSV,2,2,05,86,52,309,47,,,,,,,,,,,,*50
###2023-11-09 13:07:00.242188$GAGSV,1,1,04,07,72,255,45,08,49,042,44,13,64,160,44,26,56,311,45*6C
