###2023-11-09 13:07:56.045647$GBGSV,2,1,06,11,23,180,40,14,65,008,46,24,20,132,44,26,23,081,43*61
###2023-11-09 13:07:56.047634$GBGSV,2,2,06,28,43,287,45,33,59,304,48,,,,,,,,*6B
###2023-11-09 13:07:56.049143$GNVTG,255.56,T,,M,5.54,N,10.26,K,A*13
###2023-11-09 13:07:56.131863$GNGGA,130756.30,3611.0473287,N,07544.9774144,W,1,24,0.6,1.100,M,-39.961,M,0.0,*64
###2023-11-09 13:07:56.134446$GPGSV,2,1,07,05,21,090,43,10,18,292,43,13,24,045,42,15,62,037,46*76
###2023-11-09 13:07:56.136688$GPGSV,2,2,07,18,77,281,45,23,50,315,44,24,49,136,45,,,,*40
###2023-11-09 13:07:56.139258$GLGSV,2,1,05,70,50,017,35,71,48,290,48,80,17,091,44,85,58,203,47*68
###2023-11-09 13:07:56.140849$GLGSV,2,2,05,86,52,309,47,,,,,,,,,,,,*50
###2023-11-09 13:07:56.143400$GAGSV,1,1,04,07,72,258,44,08,49,042,45,13,64,160,44,26,56,310,45*60
###2023-11-09 13:07:56.145970$GBGSV,2,1,06,11,23,180,40,14,65,008,46,24,20,132,45,26,23,081,43*60
###2023-11-09 13:07:56.147913$GBGSV,2,2,06,28,43,287,45,33,59,304,47,,,,,,,,*64
###2023-11-09 13:07:56.149409$GNVTG,254.25,T,,M,5.52,N,10.22,K,A*14
###2023-11-09 13:07:56.228139$GNGGA,130756.40,3611.0472886,N,07544.9775951,W,1,24,0.6,1.084,M,-39.961,M,0.0,*69
###2023-11-09 13:07:56.230742$GPGSV,2,1,07,05,21,090,43,10,18,292,43,13,24,045,41,15,62,037,45*76
###2023-11-09 13:07:56.232998$GPGSV,2,2,07,18,77,281,45,23,50,315,45,24,49,136,46,,,,*42
###2023-11-09 13:07:56.235582$GLGSV,2,1,05,70,50,017,35,71,48,290,48,80,17,091,44,85,58,203,47*68
###2023-11-09 13:07:56.237208$GLGSV,2,2,05,86,52,309,47,,,,,,,,,,,,*50
###2023-11-09 13:07:56.239776$GAGSV,1,1,04,07,72,258,44,08,49,042,44,13,64,160,45,26,56,310,44*61
###2023-11-09 13:07:56.242364$GBGSV,2,1,06,11,23,180,42,14,65,008,46,24,20,132,45,26,23,081,44*65
###2023-11-09 13:07:56.244303$GBGSV,2,2,06,28,43,287,45,33,59,304,47,,,,,,,,*64
###2023-11-09 13:07:56.245773$GNVTG,254.97,T,,M,5.38,N,9.97,K,A*27
###2023-11-09 13:07:56.330128$GNGGA,130756.50,3611.0472500,N,07544.9777728,W,1,24,0.6,1.072,M,-39.961,M,0.0,*60
###2023-11-09 13:07:56.332736$GPGSV,2,1,07,05,21,090,43,10,18,292,43,13,24,045,41,15,62,037,45*76
###2023-11-09 13:07:56.334998$GPGSV,2,2,07,18,77,281,45,23,50,315,45,24,49,136,46,,,,*42
###2023-11-09 13:07:56.337592$GLGSV,2,1,05,70,50,017,35,71,48,290,48,80,17,091,44,85,58,203,47*68
###2023-11-09 13:07:56.339204$GLGSV,2,2,05,86,52,309,47,,,,,,,,,,,,*50
###2023-11-09 13:07:56.341774$GAGSV,1,1,04,07,72,258,44,08,49,042,44,13,64,160,45,26,56,310,44*61
###2023-11-09 13:07:56.344356$GBGSV,2,1,06,11,23,180,42,14,65,008,45,24,20,132,45,26,23,081,44*66
###2023-11-09 13:07:56.346298$GBGSV,2,2,06,28,43,287,45,33,59,304,47,,,,,,,,*64
###2023-11-09 13:07:56.347793$GNVTG,255.01,T,,M,5.37,N,9.94,K,A*25
###2023-11-09 13:07:56.429268$GNGGA,130756.60,3611.0472152,N,07544.9779508,W,1,24,0.6,1.059,M,-39.961,M,0.0,*67
###2023-11-09 13:07:56.431875$GPGSV,2,1,07,05,21,090,43,10,18,292,42,13,24,045,41,15,62,037,45*77
###2023-11-09 13:07:56.434122$GPGSV,2,2,07,18,77,281,45,23,50,315,45,24,49,136,46,,,,*42
###2023-11-09 13:07:56.436677$GLGSV,2,1,05,70,50,017,35,71,48,290,48,80,17,091,45,85,58,203,47*69
###2023-11-09 13:07:56.438296$GLGSV,2,2,05,86,52,309,47,,,,,,,,,,,,*50
###2023-11-09 13:07:56.440863$GAGSV,1,1,04,07,72,258,44,08,49,042,44,13,64,160,45,26,56,310,44*61
###2023-11-09 13:07:56.443439$GBGSV,2,1,06,11,23,180,42,14,65,008,45,24,20,132,45,26,23,081,44*66
###2023-11-09 13:07:56.445372$GBGSV,2,2,06,28,43,287,45,33,59,304,47,,,,,,,,*64
###2023-11-09 13:07:56.446833$GNVTG,257.53,T,,M,5.31,N,9.83,K,A*20
###2023-11-09 13:07:56.530264$GNGGA,130756.70,3611.0471831,N,07544.9781290,W,1,24,0.6,1.057,M,-39.961,M,0.0,*66
###2023-11-09 13:07:56.532875$GPGSV,2,1,07,05,21,090,43,10,18,292,42,13,24,045,41,15,62,037,45*77
###2023-11-09 13:07:56.535146$GPGSV,2,2,07,18,77,281,45,23,50,315,45,24,49,136,45,,,,*41
###2023-11-09 13:07:56.537743$GLGSV,2,1,05,70,50,017,35,71,48,290,48,80,17,091,44,85,58,203,47*68
###2023-11-09 13:07:56.539355$GLGSV,2,2,05,86,52,309,47,,,,,,,,,,,,*50
###2023-11-09 13:07:56.541921$GAGSV,1,1,04,07,72,258,44,08,49,042,45,13,64,160,45,26,56,310,44*60
###2023-11-09 13:07:56.544492$GBGSV,2,1,06,11,23,180,42,14,65,008,46,24,20,132,44,26,23,081,44*64
###2023-11-09 13:07:56.546428$GBGSV,2,2,06,28,43,287,45,33,59,304,48,,,,,,,,*6B
###2023-11-09 13:07:56.547905$GNVTG,257.42,T,,M,5.35,N,9.90,K,A*26
###2023-11-09 13:07:56.629135$GNGGA,130756.80,3611.0471499,N,07544.9783048,W,1,24,0.6,1.056,M,-39.961,M,0.0,*63
###2023-11-09 13:07:56.631735$GPGSV,2,1,07,05,21,090,43,10,18,292,43,13,24,045,41,15,62,037,45*76
###2023-11-09 13:07:56.633985$GPGSV,2,2,07,18,77,281,45,23,50,315,45,24,49,136,45,,,,*41
###2023-11-09 13:07:56.636562$GLGSV,2,1,05,70,50,017,36,71,48,290,48,80,17,091,44,85,58,203,47*6B
###2023-11-09 13:07:56.638187$GLGSV,2,2,05,86,52,309,47,,,,,,,,,,,,*50
###2023-11-09 13:07:56.640750$GAGSV,1,1,04,07,72,258,44,08,49,042,45,13,64,160,44,26,56,310,44*61
###2023-11-09 13:07:56.643330$GBGSV,2,1,06,11,23,180,40,14,65,008,46,24,20,132,43,26,23,081,44*61
###2023-11-09 13:07:56.645262$GBGSV,2,2,06,28,43,287,45,33,59,304,48,,,,,,,,*6B
###2023-11-09 13:07:56.646725$GNVTG,256.29,T,,M,5.17,N,9.58,K,A*2E
###2023-11-09 13:07:56.728389$GNGGA,130756.90,3611.0471110,N,07544.9784736,W,1,24,0.6,1.057,M,-39.961,M,0.0,*6E
###2023-11-09 13:07:56.730982$GPGSV,2,1,07,05,21,090,42,10,18,292,44,13,24,045,41,15,62,037,45*70
###2023-11-09 13:07:56.733218$GPGSV,2,2,07,18,77,281,45,23,50,315,45,24,49,136,44,,,,*40
###2023-11-09 13:07:56.735777$GLGSV,2,1,05,70,50,017,36,71,48,290,48,80,17,091,43,85,58,203,47*6C
###2023-11-09 13:07:56.737380$GLGSV,2,2,05,86,52,309,48,,,,,,,,,,,,*5F
###2023-11-09 13:07:56.739933$GAGSV,1,1,04,07,72,258,44,08,49,042,45,13,64,160,44,26,56,310,44*61
###2023-11-09 13:07:56.742494$GBGSV,2,1,06,11,23,180,39,14,65,008,46,24,20,132,42,26,23,081,44*6E
###2023-11-09 13:07:56.744413$GBGSV,2,2,06,28,43,287,46,33,59,304,48,,,,,,,,*68
###2023-11-09 13:07:56.745861$GNVTG,251.87,T,,M,5.05,N,9.36,K,A*26
###2023-11-09 13:07:56.831235$GNGGA,130757.00,3611.0470649,N,07544.9786344,W,1,24,0.6,1.051,M,-39.961,M,0.0,*69
###2023-11-09 13:07:56.833836$GPGSV,2,1,07,05,21,090,42,10,18,292,44,13,24,045,41,15,62,037,46*73
###2023-11-09 13:07:56.836102$GPGSV,2,2,07,18,77,281,45,23,50,315,45,24,49,136,44,,,,*40
###2023-11-09 13:07:56.838694$GLGSV,2,1,05,70,50,017,36,71,48,290,48,80,17,091,43,85,58,203,46*6D
###2023-11-09 13:07:56.840306$GLGSV,2,2,05,86,52,309,48,,,,,,,,,,,,*5F
###2023-11-09 13:07:56.842875$GAGSV,1,1,04,07,72,258,44,08,49,042,45,13,64,160,44,26,56,310,44*61
###2023-11-09 13:07:56.845447$GBGSV,2,1,06,11,23,180,39,14,65,008,46,24,20,132,41,26,23,081,44*6D
###2023-11-09 13:07:56.847394$GBGSV,2,2,06,28,43,287,46,33,59,304,48,,,,,,,,*68
###2023-11-09 13:07:56.848867$GNVTG,249.06,T,,M,4.88,N,9.04,K,A*23
###2023-11-09 13:07:56.930111$GNGGA,130757.10,3611.0470115,N,07544.9787865,W,1,24,0.6,1.043,M,-39.961,M,0.0,*6C
###2023-11-09 13:07:56.932691$GPGSV,2,1,07,05,21,090,42,10,18,292,44,13,24,045,41,15,62,037,46*73
###2023-11-09 13:07:56.934936$GPGSV,2,2,07,18,77,281,45,23,50,315,45,24,49,136,44,,,,*40
###2023-11-09 13:07:56.937525$GLGSV,2,1,05,70,50,017,36,71,48,290,48,80,17,091,43,85,58,203,47*6C
###2023-11-09 13:07:56.939126$GLGSV,2,2,05,86,52,309,48,,,,,,,,,,,,*5F
###2023-11-09 13:07:56.941684$GAGSV,1,1,04,07,72,258,44,08,49,042,45,13,64,160,44,26,56,310,44*61
###2023-11-09 13:07:56.944253$GBGSV,2,1,06,11,23,180,39,14,65,008,46,24,20,132,42,26,23,081,43*69
###2023-11-09 13:07:56.946179$GBGSV,2,2,06,28,43,287,46,33,59,304,48,,,,,,,,*68
###2023-11-09 13:07:56.947659$GNVTG,244.01,T,,M,4.78,N,8.86,K,A*2D
###2023-11-09 13:07:57.031091$GNGGA,130757.20,3611.0469544,N,07544.9789336,W,1,24,0.6,1.042,M,-39.961,M,0.0,*65
###2023-11-09 13:07:57.033666$GPGSV,2,1,07,05,21,090,43,10,18,292,43,13,24,045,42,15,62,037,46*76
###2023-11-09 13:07:57.035902$GPGSV,2,2,07,18,77,281,45,23,50,315,45,24,49,136,45,,,,*41
###2023-11-09 13:07:57.038482$GLGSV,2,1,05,70,50,017,36,71,48,290,47,80,17,091,44,85,58,203,47*64
###2023-11-09 13:07:57.040080$GLGSV,2,2,05,86,52,309,48,,,,,,,,,,,,*5F
###2023-11-09 13:07:57.042626$GAGSV,1,1,04,07,72,258,44,08,49,042,45,13,64,160,45,26,56,310,44*60
###2023-11-09 13:07:57.045494$GBGSV,2,1,06,11,23,180,40,14,65,008,46,24,20,132,44,26,23,081,43*61
###2023-11-09 13:07:57.047442$GBGSV,2,2,06,28,43,287,46,33,59,304,48,,,,,,,,*68
###2023-11-09 13:07:57.048900$GNVTG,244.57,T,,M,4.76,N,8.82,K,A*24
###2023-11-09 13:07:57.129126$GNGGA,130757.30,3611.0469023,N,07544.9790828,W,1,24,0.6,1.034,M,-39.961,M,0.0,*6D
###2023-11-09 13:07:57.131734$GPGSV,2,1,07,05,21,090,43,10,18,292,43,13,24,045,41,15,62,037,45*76
###2023-11-09 13:07:57.133988$GPGSV,2,2,07,18,77,281,45,23,50,315,45,24,49,136,46,,,,*42
###2023-11-09 13:07:57.136550$GLGSV,2,1,05,70,50,017,36,71,48,290,48,80,17,091,44,85,58,203,48*64
###2023-11-09 13:07:57.138172$GLGSV,2,2,05,86,52,309,47,,,,,,,,,,,,*50
###2023-11-09 13:07:57.140747$GAGSV,1,1,04,07,72,258,44,08,49,042,45,13,64,160,45,26,56,310,44*60
###2023-11-09 13:07:57.143326$GBGSV,2,1,06,11,23,180,41,14,65,008,45,24,20,132,45,26,23,081,43*62
