###2023-11-09 13:08:49.430383$GNGGA,130849.60,3611.0185079,N,07544.9976636,W,1,24,0.6,0.889,M,-39.962,M,0.0,*6B
###2023-11-09 13:08:49.432993$GPGSV,2,1,07,05,20,090,40,10,19,293,44,13,24,045,41,15,61,037,45*70
###2023-11-09 13:08:49.435254$GPGSV,2,2,07,18,78,277,47,23,50,316,46,24,50,135,46,,,,*4D
###2023-11-09 13:08:49.437857$GLGSV,2,1,05,70,50,017,35,71,48,290,48,80,18,090,42,85,57,203,48*60
###2023-11-09 13:08:49.439472$GLGSV,2,2,05,86,53,308,47,,,,,,,,,,,,*50
###2023-11-09 13:08:49.442044$GAGSV,1,1,04,07,72,258,45,08,48,043,44,13,64,160,44,26,57,310,44*60
###2023-11-09 13:08:49.444622$GBGSV,2,1,06,11,23,180,42,14,65,008,45,24,20,132,44,26,23,081,42*61
###2023-11-09 13:08:49.446555$GBGSV,2,2,06,28,43,287,47,33,59,304,47,,,,,,,,*66
###2023-11-09 13:08:49.448036$GNVTG,101.52,T,,M,5.09,N,9.43,K,A*26
###2023-11-09 13:08:49.529727$GNGGA,130849.70,3611.0184844,N,07544.9974917,W,1,24,0.6,0.907,M,-39.962,M,0.0,*64
###2023-11-09 13:08:49.532311$GPGSV,2,1,07,05,20,090,40,10,19,293,44,13,24,045,40,15,61,037,45*71
###2023-11-09 13:08:49.534555$GPGSV,2,2,07,18,78,277,47,23,50,316,45,24,50,135,46,,,,*4E
###2023-11-09 13:08:49.537119$GLGSV,2,1,05,70,50,017,35,71,48,290,48,80,18,090,42,85,57,203,49*61
###2023-11-09 13:08:49.538718$GLGSV,2,2,05,86,53,308,47,,,,,,,,,,,,*50
###2023-11-09 13:08:49.541270$GAGSV,1,1,04,07,72,258,45,08,48,043,44,13,64,160,45,26,57,310,45*60
###2023-11-09 13:08:49.543829$GBGSV,2,1,06,11,23,180,42,14,65,008,45,24,20,132,44,26,23,081,42*61
###2023-11-09 13:08:49.545755$GBGSV,2,2,06,28,43,287,48,33,59,304,48,,,,,,,,*66
###2023-11-09 13:08:49.547185$GNVTG,97.66,T,,M,5.00,N,9.25,K,A*16
###2023-11-09 13:08:49.629743$GNGGA,130849.80,3611.0184730,N,07544.9973195,W,1,24,0.6,0.928,M,-39.962,M,0.0,*6F
###2023-11-09 13:08:49.632347$GPGSV,2,1,07,05,20,090,40,10,19,293,44,13,24,045,40,15,61,037,45*71
###2023-11-09 13:08:49.634608$GPGSV,2,2,07,18,78,277,47,23,50,316,45,24,50,135,46,,,,*4E
###2023-11-09 13:08:49.637198$GLGSV,2,1,05,70,50,017,35,71,48,290,49,80,18,090,42,85,57,203,49*60
###2023-11-09 13:08:49.638810$GLGSV,2,2,05,86,53,308,47,,,,,,,,,,,,*50
###2023-11-09 13:08:49.641372$GAGSV,1,1,04,07,72,258,45,08,48,043,45,13,64,160,45,26,57,310,45*61
###2023-11-09 13:08:49.643950$GBGSV,2,1,06,11,23,180,42,14,65,008,45,24,20,132,44,26,23,081,42*61
###2023-11-09 13:08:49.645885$GBGSV,2,2,06,28,43,287,48,33,59,304,48,,,,,,,,*66
###2023-11-09 13:08:49.647351$GNVTG,91.91,T,,M,5.02,N,9.29,K,A*16
###2023-11-09 13:08:49.730737$GNGGA,130849.90,3611.0184670,N,07544.9971447,W,1,24,0.6,0.946,M,-39.962,M,0.0,*6B
###2023-11-09 13:08:49.733335$GPGSV,2,1,07,05,20,090,40,10,19,293,44,13,24,045,41,15,61,037,45*70
###2023-11-09 13:08:49.735586$GPGSV,2,2,07,18,78,277,47,23,50,316,45,24,50,135,45,,,,*4D
###2023-11-09 13:08:49.738177$GLGSV,2,1,05,70,50,017,35,71,48,290,49,80,18,090,42,85,57,203,48*61
###2023-11-09 13:08:49.739785$GLGSV,2,2,05,86,53,308,48,,,,,,,,,,,,*5F
###2023-11-09 13:08:49.742351$GAGSV,1,1,04,07,72,258,45,08,48,043,45,13,64,160,44,26,57,310,45*60
###2023-11-09 13:08:49.744923$GBGSV,2,1,06,11,23,180,41,14,65,008,46,24,20,132,43,26,23,081,42*66
###2023-11-09 13:08:49.746861$GBGSV,2,2,06,28,43,287,47,33,59,304,48,,,,,,,,*69
###2023-11-09 13:08:49.748300$GNVTG,92.80,T,,M,5.09,N,9.43,K,A*12
###2023-11-09 13:08:49.831215$GNGGA,130850.00,3611.0184592,N,07544.9969682,W,1,24,0.6,0.945,M,-39.962,M,0.0,*64
###2023-11-09 13:08:49.833792$GPGSV,2,1,07,05,20,090,40,10,19,293,44,13,24,045,41,15,61,037,45*70
###2023-11-09 13:08:49.836038$GPGSV,2,2,07,18,78,277,47,23,50,316,45,24,50,135,45,,,,*4D
###2023-11-09 13:08:49.838622$GLGSV,2,1,05,70,50,017,35,71,48,290,48,80,18,090,42,85,57,203,48*60
###2023-11-09 13:08:49.840223$GLGSV,2,2,05,86,53,308,48,,,,,,,,,,,,*5F
###2023-11-09 13:08:49.842782$GAGSV,1,1,04,07,72,258,45,08,48,043,45,13,64,160,44,26,57,310,45*60
###2023-11-09 13:08:49.845355$GBGSV,2,1,06,11,23,180,41,14,65,008,46,24,20,132,43,26,23,081,42*66
###2023-11-09 13:08:49.847295$GBGSV,2,2,06,28,43,287,47,33,59,304,48,,,,,,,,*69
###2023-11-09 13:08:49.848719$GNVTG,93.58,T,,M,5.13,N,9.50,K,A*1F
###2023-11-09 13:08:49.932620$GNGGA,130850.10,3611.0184499,N,07544.9967919,W,1,24,0.6,0.930,M,-39.962,M,0.0,*6E
###2023-11-09 13:08:49.935221$GPGSV,2,1,07,05,20,090,40,10,19,293,44,13,24,045,41,15,61,037,45*70
###2023-11-09 13:08:49.937493$GPGSV,2,2,07,18,78,277,47,23,50,316,45,24,50,135,45,,,,*4D
###2023-11-09 13:08:49.940058$GLGSV,2,1,05,70,50,017,35,71,48,290,49,80,18,090,42,85,57,203,48*61
###2023-11-09 13:08:49.941660$GLGSV,2,2,05,86,53,308,48,,,,,,,,,,,,*5F
###2023-11-09 13:08:49.944231$GAGSV,1,1,04,07,72,258,45,08,48,043,45,13,64,160,44,26,57,310,45*60
###2023-11-09 13:08:49.946823$GBGSV,2,1,06,11,23,180,41,14,65,008,46,24,20,132,43,26,23,081,42*66
###2023-11-09 13:08:49.948774$GBGSV,2,2,06,28,43,287,47,33,59,304,48,,,,,,,,*69
###2023-11-09 13:08:49.950202$GNVTG,93.88,T,,M,5.09,N,9.43,K,A*1B
###2023-11-09 13:08:50.032841$GNGGA,130850.20,3611.0184442,N,07544.9966132,W,1,24,0.6,0.904,M,-39.962,M,0.0,*6C
###2023-11-09 13:08:50.035414$GPGSV,2,1,07,05,20,090,40,10,19,293,44,13,24,045,41,15,61,037,45*70
###2023-11-09 13:08:50.037674$GPGSV,2,2,07,18,78,277,47,23,50,316,45,24,50,135,45,,,,*4D
###2023-11-09 13:08:50.040241$GLGSV,2,1,05,70,50,017,35,71,48,290,49,80,18,090,42,85,57,203,48*61
###2023-11-09 13:08:50.041844$GLGSV,2,2,05,86,53,308,48,,,,,,,,,,,,*5F
###2023-11-09 13:08:50.044398$GAGSV,1,1,04,07,72,258,45,08,48,043,45,13,64,160,44,26,57,310,45*60
###2023-11-09 13:08:50.046975$GBGSV,2,1,06,11,23,180,41,14,65,008,46,24,20,132,43,26,23,081,43*67
###2023-11-09 13:08:50.048906$GBGSV,2,2,06,28,43,287,47,33,59,304,47,,,,,,,,*66
###2023-11-09 13:08:50.050328$GNVTG,90.79,T,,M,5.25,N,9.72,K,A*1A
###2023-11-09 13:08:50.135837$GNGGA,130850.30,3611.0184443,N,07544.9964297,W,1,24,0.6,0.874,M,-39.962,M,0.0,*64
###2023-11-09 13:08:50.138535$GPGSV,2,1,07,05,20,090,40,10,19,293,44,13,24,045,41,15,61,037,45*70
###2023-11-09 13:08:50.140795$GPGSV,2,2,07,18,78,277,47,23,50,316,45,24,50,135,45,,,,*4D
###2023-11-09 13:08:50.143376$GLGSV,2,1,05,70,50,017,35,71,48,290,48,80,18,090,42,85,57,203,48*60
###2023-11-09 13:08:50.144974$GLGSV,2,2,05,86,53,308,47,,,,,,,,,,,,*50
###2023-11-09 13:08:50.147556$GAGSV,1,1,04,07,72,258,45,08,48,043,45,13,64,160,44,26,57,310,45*60
###2023-11-09 13:08:50.150137$GBGSV,2,1,06,11,23,180,41,14,65,008,45,24,20,132,43,26,23,081,43*64
###2023-11-09 13:08:50.152066$GBGSV,2,2,06,28,43,287,47,33,59,304,47,,,,,,,,*66
###2023-11-09 13:08:50.153503$GNVTG,89.21,T,,M,5.35,N,9.90,K,A*12
###2023-11-09 13:08:50.229659$GNGGA,130850.40,3611.0184477,N,07544.9962435,W,1,24,0.6,0.833,M,-39.962,M,0.0,*6F
###2023-11-09 13:08:50.232272$GPGSV,2,1,07,05,20,090,40,10,19,293,44,13,24,045,41,15,61,037,45*70
###2023-11-09 13:08:50.234536$GPGSV,2,2,07,18,78,277,47,23,50,316,45,24,50,135,46,,,,*4E
###2023-11-09 13:08:50.237133$GLGSV,2,1,05,70,50,017,35,71,48,290,48,80,18,090,42,85,57,203,49*61
###2023-11-09 13:08:50.238748$GLGSV,2,2,05,86,53,308,47,,,,,,,,,,,,*50
###2023-11-09 13:08:50.241320$GAGSV,1,1,04,07,72,258,45,08,48,043,45,13,64,160,44,26,57,310,44*61
###2023-11-09 13:08:50.243898$GBGSV,2,1,06,11,23,180,41,14,65,008,45,24,20,132,43,26,23,081,43*64
###2023-11-09 13:08:50.245830$GBGSV,2,2,06,28,43,287,47,33,59,304,47,,,,,,,,*66
###2023-11-09 13:08:50.247306$GNVTG,88.37,T,,M,5.42,N,10.04,K,A*21
###2023-11-09 13:08:50.330983$GNGGA,130850.50,3611.0184531,N,07544.9960572,W,1,24,0.6,0.786,M,-39.962,M,0.0,*6C
###2023-11-09 13:08:50.333567$GPGSV,2,1,07,05,20,090,40,10,19,293,44,13,24,045,41,15,61,037,45*70
###2023-11-09 13:08:50.335820$GPGSV,2,2,07,18,78,277,47,23,50,316,45,24,50,135,46,,,,*4E
###2023-11-09 13:08:50.338419$GLGSV,2,1,05,70,50,017,35,71,48,290,48,80,18,090,42,85,57,203,49*61
###2023-11-09 13:08:50.340034$GLGSV,2,2,05,86,53,308,47,,,,,,,,,,,,*50
###2023-11-09 13:08:50.342608$GAGSV,1,1,04,07,72,258,45,08,48,043,44,13,64,160,44,26,57,310,44*60
###2023-11-09 13:08:50.345188$GBGSV,2,1,06,11,23,180,42,14,65,008,45,24,20,132,44,26,23,081,43*60
###2023-11-09 13:08:50.347141$GBGSV,2,2,06,28,43,287,47,33,59,304,47,,,,,,,,*66
###2023-11-09 13:08:50.348569$GNVTG,87.73,T,,M,5.37,N,9.94,K,A*1D
###2023-11-09 13:08:50.429268$GNGGA,130850.60,3611.0184642,N,07544.9958744,W,1,24,0.6,0.756,M,-39.962,M,0.0,*69
###2023-11-09 13:08:50.432163$GPGSV,2,1,07,05,20,090,42,10,19,293,44,13,24,045,39,15,61,037,45*7D
###2023-11-09 13:08:50.434415$GPGSV,2,2,07,18,78,277,47,23,50,316,45,24,50,135,46,,,,*4E
###2023-11-09 13:08:50.436994$GLGSV,2,1,05,70,50,017,35,71,48,290,48,80,18,090,44,85,57,203,49*67
###2023-11-09 13:08:50.438605$GLGSV,2,2,05,86,53,308,47,,,,,,,,,,,,*50
###2023-11-09 13:08:50.441166$GAGSV,1,1,04,07,72,258,45,08,48,043,44,13,64,160,44,26,57,310,44*60
###2023-11-09 13:08:50.443735$GBGSV,2,1,06,11,23,180,43,14,65,008,45,24,20,132,44,26,23,081,43*61
###2023-11-09 13:08:50.445666$GBGSV,2,2,06,28,43,287,47,33,59,304,46,,,,,,,,*67
###2023-11-09 13:08:50.447107$GNVTG,83.63,T,,M,5.25,N,9.72,K,A*13
###2023-11-09 13:08:50.529780$GNGGA,130850.70,3611.0184871,N,07544.9956957,W,1,24,0.6,0.757,M,-39.962,M,0.0,*65
