###2023-11-09 13:06:14.048265$GBGSV,2,1,06,11,24,180,40,14,65,006,44,24,19,133,41,26,23,082,43*67
###2023-11-09 13:06:14.050232$GBGSV,2,2,06,28,43,289,47,33,58,302,47,,,,,,,,*6F
###2023-11-09 13:06:14.051697$GNVTG,310.58,T,,M,0.68,N,1.26,K,A*27
###2023-11-09 13:06:14.134847$GNGGA,130614.30,3611.0396953,N,07544.9827899,W,1,24,0.6,0.923,M,-39.962,M,0.0,*66
###2023-11-09 13:06:14.137569$GPGSV,2,1,07,05,21,089,42,10,17,292,45,13,25,045,40,15,62,036,46*74
###2023-11-09 13:06:14.139828$GPGSV,2,2,07,18,77,282,47,23,49,314,45,24,49,137,46,,,,*4B
###2023-11-09 13:06:14.142393$GLGSV,2,1,05,70,50,016,35,71,48,288,49,80,17,091,44,85,58,203,48*6E
###2023-11-09 13:06:14.143992$GLGSV,2,2,05,86,52,309,48,,,,,,,,,,,,*5F
###2023-11-09 13:06:14.146547$GAGSV,1,1,04,07,72,255,45,08,49,042,45,13,64,160,44,26,56,311,45*6D
###2023-11-09 13:06:14.149128$GBGSV,2,1,06,11,24,180,41,14,65,006,44,24,19,133,41,26,23,082,42*67
###2023-11-09 13:06:14.151070$GBGSV,2,2,06,28,43,289,47,33,58,302,47,,,,,,,,*6F
###2023-11-09 13:06:14.152544$GNVTG,310.58,T,,M,0.80,N,1.48,K,A*29
###2023-11-09 13:06:14.229494$GNGGA,130614.40,3611.0396999,N,07544.9827585,W,1,24,0.6,0.902,M,-39.962,M,0.0,*64
###2023-11-09 13:06:14.232074$GPGSV,2,1,07,05,21,089,41,10,17,292,45,13,25,045,40,15,62,036,46*77
###2023-11-09 13:06:14.234330$GPGSV,2,2,07,18,77,282,47,23,49,314,45,24,49,137,46,,,,*4B
###2023-11-09 13:06:14.236895$GLGSV,2,1,05,70,50,016,35,71,48,288,49,80,17,091,44,85,58,203,48*6E
###2023-11-09 13:06:14.238507$GLGSV,2,2,05,86,52,309,48,,,,,,,,,,,,*5F
###2023-11-09 13:06:14.241064$GAGSV,1,1,04,07,72,255,45,08,49,042,45,13,64,160,44,26,56,311,45*6D
###2023-11-09 13:06:14.243636$GBGSV,2,1,06,11,24,180,41,14,65,006,44,24,19,133,41,26,23,082,42*67
###2023-11-09 13:06:14.245563$GBGSV,2,2,06,28,43,289,47,33,58,302,48,,,,,,,,*60
###2023-11-09 13:06:14.246995$GNVTG,76.92,T,,M,1.05,N,1.94,K,A*11
###2023-11-09 13:06:14.331739$GNGGA,130614.50,3611.0397094,N,07544.9827195,W,1,24,0.6,0.891,M,-39.962,M,0.0,*6E
###2023-11-09 13:06:14.334322$GPGSV,2,1,07,05,21,089,41,10,17,292,45,13,25,045,40,15,62,036,46*77
###2023-11-09 13:06:14.336566$GPGSV,2,2,07,18,77,282,47,23,49,314,45,24,49,137,45,,,,*48
###2023-11-09 13:06:14.339147$GLGSV,2,1,05,70,50,016,35,71,48,288,49,80,17,091,44,85,58,203,48*6E
###2023-11-09 13:06:14.340750$GLGSV,2,2,05,86,52,309,48,,,,,,,,,,,,*5F
###2023-11-09 13:06:14.343312$GAGSV,1,1,04,07,72,255,45,08,49,042,44,13,64,160,44,26,56,311,45*6C
###2023-11-09 13:06:14.345869$GBGSV,2,1,06,11,24,180,41,14,65,006,44,24,19,133,41,26,23,082,42*67
###2023-11-09 13:06:14.347817$GBGSV,2,2,06,28,43,289,47,33,58,302,48,,,,,,,,*60
###2023-11-09 13:06:14.349249$GNVTG,69.00,T,,M,1.32,N,2.45,K,A*1F
###2023-11-09 13:06:14.430746$GNGGA,130614.60,3611.0397229,N,07544.9826754,W,1,24,0.6,0.882,M,-39.962,M,0.0,*61
###2023-11-09 13:06:14.433328$GPGSV,2,1,07,05,21,089,42,10,17,292,44,13,25,045,40,15,62,036,46*75
###2023-11-09 13:06:14.435572$GPGSV,2,2,07,18,77,282,47,23,49,314,45,24,49,137,45,,,,*48
###2023-11-09 13:06:14.438180$GLGSV,2,1,05,70,50,016,35,71,48,288,49,80,17,091,45,85,58,203,48*6F
###2023-11-09 13:06:14.439776$GLGSV,2,2,05,86,52,309,48,,,,,,,,,,,,*5F
###2023-11-09 13:06:14.442336$GAGSV,1,1,04,07,72,255,45,08,49,042,44,13,64,160,44,26,56,311,45*6C
###2023-11-09 13:06:14.444902$GBGSV,2,1,06,11,24,180,41,14,65,006,45,24,19,133,41,26,23,082,42*66
###2023-11-09 13:06:14.446832$GBGSV,2,2,06,28,43,289,47,33,58,302,48,,,,,,,,*60
###2023-11-09 13:06:14.448269$GNVTG,68.73,T,,M,1.42,N,2.63,K,A*19
###2023-11-09 13:06:14.528761$GNGGA,130614.70,3611.0397353,N,07544.9826305,W,1,24,0.6,0.882,M,-39.962,M,0.0,*6C
###2023-11-09 13:06:14.531367$GPGSV,2,1,07,05,21,089,43,10,17,292,44,13,25,045,40,15,62,036,47*75
###2023-11-09 13:06:14.533629$GPGSV,2,2,07,18,77,282,47,23,49,314,45,24,49,137,45,,,,*48
###2023-11-09 13:06:14.536207$GLGSV,2,1,05,70,50,016,35,71,48,288,49,80,17,091,45,85,58,203,48*6F
###2023-11-09 13:06:14.537836$GLGSV,2,2,05,86,52,309,48,,,,,,,,,,,,*5F
###2023-11-09 13:06:14.540404$GAGSV,1,1,04,07,72,255,45,08,49,042,45,13,64,160,44,26,56,311,45*6D
###2023-11-09 13:06:14.542963$GBGSV,2,1,06,11,24,180,41,14,65,006,45,24,19,133,41,26,23,082,43*67
###2023-11-09 13:06:14.544903$GBGSV,2,2,06,28,43,289,47,33,58,302,48,,,,,,,,*60
###2023-11-09 13:06:14.546338$GNVTG,72.58,T,,M,1.34,N,2.48,K,A*13
###2023-11-09 13:06:14.630741$GNGGA,130614.80,3611.0397437,N,07544.9825901,W,1,24,0.6,0.883,M,-39.962,M,0.0,*6A
###2023-11-09 13:06:14.633321$GPGSV,2,1,07,05,21,089,43,10,17,292,43,13,25,045,41,15,62,036,46*72
###2023-11-09 13:06:14.635574$GPGSV,2,2,07,18,77,282,47,23,49,314,45,24,49,137,45,,,,*48
###2023-11-09 13:06:14.638169$GLGSV,2,1,05,70,50,016,35,71,48,288,49,80,17,091,45,85,58,203,47*60
###2023-11-09 13:06:14.639792$GLGSV,2,2,05,86,52,309,48,,,,,,,,,,,,*5F
###2023-11-09 13:06:14.642353$GAGSV,1,1,04,07,72,255,45,08,49,042,45,13,64,160,44,26,56,311,45*6D
###2023-11-09 13:06:14.644929$GBGSV,2,1,06,11,24,180,40,14,65,006,45,24,19,133,42,26,23,082,43*65
###2023-11-09 13:06:14.646855$GBGSV,2,2,06,28,43,289,47,33,58,302,47,,,,,,,,*6F
###2023-11-09 13:06:14.648305$GNVTG,78.25,T,,M,1.09,N,2.02,K,A*13
###2023-11-09 13:06:14.729762$GNGGA,130614.90,3611.0397472,N,07544.9825557,W,1,24,0.6,0.887,M,-39.962,M,0.0,*61
###2023-11-09 13:06:14.732326$GPGSV,2,1,07,05,21,089,43,10,17,292,43,13,25,045,41,15,62,036,46*72
###2023-11-09 13:06:14.734573$GPGSV,2,2,07,18,77,282,47,23,49,314,45,24,49,137,45,,,,*48
###2023-11-09 13:06:14.737157$GLGSV,2,1,05,70,50,016,35,71,48,288,49,80,17,091,46,85,58,203,47*63
###2023-11-09 13:06:14.738756$GLGSV,2,2,05,86,52,309,48,,,,,,,,,,,,*5F
###2023-11-09 13:06:14.741329$GAGSV,1,1,04,07,72,255,45,08,49,042,45,13,64,160,44,26,56,311,45*6D
###2023-11-09 13:06:14.743882$GBGSV,2,1,06,11,24,180,40,14,65,006,45,24,19,133,42,26,23,082,43*65
###2023-11-09 13:06:14.745806$GBGSV,2,2,06,28,43,289,47,33,58,302,47,,,,,,,,*6F
###2023-11-09 13:06:14.747235$GNVTG,78.25,T,,M,0.93,N,1.73,K,A*14
###2023-11-09 13:06:14.831778$GNGGA,130615.00,3611.0397492,N,07544.9825239,W,1,24,0.6,0.894,M,-39.962,M,0.0,*6A
###2023-11-09 13:06:14.834377$GPGSV,2,1,07,05,21,089,42,10,17,292,44,13,25,045,41,15,62,036,46*74
###2023-11-09 13:06:14.836631$GPGSV,2,2,07,18,77,282,47,23,49,314,45,24,49,137,45,,,,*48
###2023-11-09 13:06:14.839219$GLGSV,2,1,05,70,50,016,35,71,48,288,49,80,17,091,45,85,58,203,48*6F
###2023-11-09 13:06:14.840826$GLGSV,2,2,05,86,52,309,48,,,,,,,,,,,,*5F
###2023-11-09 13:06:14.843401$GAGSV,1,1,04,07,72,255,45,08,49,042,45,13,64,160,44,26,56,311,45*6D
###2023-11-09 13:06:14.845963$GBGSV,2,1,06,11,24,180,40,14,65,006,45,24,19,133,42,26,23,082,43*65
###2023-11-09 13:06:14.847916$GBGSV,2,2,06,28,43,289,47,33,58,302,47,,,,,,,,*6F
###2023-11-09 13:06:14.849341$GNVTG,78.25,T,,M,0.91,N,1.69,K,A*1D
###2023-11-09 13:06:14.932854$GNGGA,130615.10,3611.0397529,N,07544.9824910,W,1,23,0.6,0.904,M,-39.962,M,0.0,*64
###2023-11-09 13:06:14.935427$GPGSV,2,1,07,05,21,089,42,10,17,292,44,13,25,045,40,15,62,036,46*75
###2023-11-09 13:06:14.937689$GPGSV,2,2,07,18,77,282,47,23,49,314,45,24,49,137,45,,,,*48
###2023-11-09 13:06:14.940262$GLGSV,1,1,04,71,48,288,49,80,17,091,44,85,58,203,48,86,52,309,48*60
###2023-11-09 13:06:14.942831$GAGSV,1,1,04,07,72,255,45,08,49,042,45,13,64,160,44,26,56,311,45*6D
###2023-11-09 13:06:14.945395$GBGSV,2,1,06,11,24,180,41,14,65,006,45,24,19,133,42,26,23,082,42*65
###2023-11-09 13:06:14.947326$GBGSV,2,2,06,28,43,289,47,33,58,302,48,,,,,,,,*60
###2023-11-09 13:06:14.948745$GNVTG,79.61,T,,M,0.99,N,1.84,K,A*17
###2023-11-09 13:06:15.030584$GNGGA,130615.20,3611.0397631,N,07544.9824537,W,1,23,0.6,0.909,M,-39.962,M,0.0,*69
###2023-11-09 13:06:15.033154$GPGSV,2,1,07,05,21,089,42,10,17,292,44,13,25,045,39,15,62,036,46*7B
###2023-11-09 13:06:15.035389$GPGSV,2,2,07,18,77,282,47,23,49,314,45,24,49,137,45,,,,*48
###2023-11-09 13:06:15.037953$GLGSV,1,1,04,71,48,288,49,80,17,091,44,85,58,203,49,86,52,309,48*61
###2023-11-09 13:06:15.040509$GAGSV,1,1,04,07,72,255,45,08,49,042,44,13,64,160,44,26,56,311,45*6C
###2023-11-09 13:06:15.043062$GBGSV,2,1,06,11,24,180,41,14,65,006,45,24,19,133,42,26,23,082,41*66
###2023-11-09 13:06:15.044983$GBGSV,2,2,06,28,43,289,47,33,58,302,47,,,,,,,,*6F
###2023-11-09 13:06:15.046691$GNVTG,65.14,T,,M,1.30,N,2.41,K,A*10
###2023-11-09 13:06:15.130725$GNGGA,130615.30,3611.0397804,N,07544.9824109,W,1,23,0.6,0.922,M,-39.962,M,0.0,*60
###2023-11-09 13:06:15.133306$GPGSV,2,1,07,05,21,089,41,10,17,292,44,13,25,045,39,15,62,036,45*7B
###2023-11-09 13:06:15.135570$GPGSV,2,2,07,18,77,282,47,23,49,314,45,24,49,137,45,,,,*48
###2023-11-09 13:06:15.138150$GLGSV,1,1,04,71,48,288,49,80,17,091,44,85,58,203,49,86,52,309,48*61
###2023-11-09 13:06:15.140735$GAGSV,1,1,04,07,72,255,45,08,49,042,44,13,64,160,45,26,56,311,45*6D
###2023-11-09 13:06:15.143324$GBGSV,2,1,06,11,24,180,41,14,65,006,45,24,19,133,42,26,23,082,41*66
###2023-11-09 13:06:15.145259$GBGSV,2,2,06,28,43,289,47,33,58,302,47,,,,,,,,*6F
###2023-11-09 13:06:15.146686$GNVTG,61.82,T,,M,1.48,N,2.74,K,A*12
###2023-11-09 13:06:15.233606$GNGGA,130615.40,3611.0398013,N,07544.9823652,W,1,23,0.6,0.936,M,-39.962,M,0.0,*6D
