###2023-11-09 13:07:25.848255$GBGSV,2,2,06,28,43,289,47,33,58,302,47,,,,,,,,*6F
###2023-11-09 13:07:25.849711$GNVTG,23.73,T,,M,1.19,N,2.20,K,A*1F
###2023-11-09 13:07:25.935006$GNGGA,130726.10,3611.0541986,N,07544.9773774,W,1,24,0.6,0.978,M,-39.961,M,0.0,*6F
###2023-11-09 13:07:25.937648$GPGSV,2,1,07,05,21,090,41,10,18,292,43,13,24,045,42,15,62,037,45*77
###2023-11-09 13:07:25.939915$GPGSV,2,2,07,18,77,281,47,23,50,315,45,24,49,136,46,,,,*40
###2023-11-09 13:07:25.942500$GLGSV,2,1,05,70,50,016,35,71,48,288,48,80,17,091,42,85,58,203,48*69
###2023-11-09 13:07:25.944117$GLGSV,2,2,05,86,52,309,47,,,,,,,,,,,,*50
###2023-11-09 13:07:25.946692$GAGSV,1,1,04,07,72,257,45,08,49,042,44,13,64,160,45,26,56,310,44*6F
###2023-11-09 13:07:25.949302$GBGSV,2,1,06,11,24,180,41,14,65,006,45,24,19,133,43,26,23,082,43*65
###2023-11-09 13:07:25.951246$GBGSV,2,2,06,28,43,289,47,33,58,302,47,,,,,,,,*6F
###2023-11-09 13:07:25.952674$GNVTG,23.73,T,,M,0.97,N,1.80,K,A*11
###2023-11-09 13:07:26.032987$GNGGA,130726.20,3611.0542187,N,07544.9773588,W,1,24,0.6,0.963,M,-39.961,M,0.0,*6D
###2023-11-09 13:07:26.035580$GPGSV,2,1,07,05,21,090,41,10,18,292,43,13,24,045,42,15,62,037,45*77
###2023-11-09 13:07:26.037864$GPGSV,2,2,07,18,77,281,47,23,50,315,45,24,49,136,46,,,,*40
###2023-11-09 13:07:26.040440$GLGSV,2,1,05,70,50,016,35,71,48,288,48,80,17,091,43,85,58,203,48*68
###2023-11-09 13:07:26.042043$GLGSV,2,2,05,86,52,309,47,,,,,,,,,,,,*50
###2023-11-09 13:07:26.044620$GAGSV,1,1,04,07,72,257,45,08,49,042,44,13,64,160,44,26,56,310,44*6E
###2023-11-09 13:07:26.047201$GBGSV,2,1,06,11,24,180,41,14,65,006,45,24,19,133,44,26,23,082,43*62
###2023-11-09 13:07:26.049139$GBGSV,2,2,06,28,43,289,47,33,58,302,47,,,,,,,,*6F
###2023-11-09 13:07:26.050563$GNVTG,23.73,T,,M,0.86,N,1.58,K,A*14
###2023-11-09 13:07:26.134133$GNGGA,130726.30,3611.0542385,N,07544.9773404,W,1,24,0.6,0.955,M,-39.961,M,0.0,*6C
###2023-11-09 13:07:26.136727$GPGSV,2,1,07,05,21,090,41,10,18,292,43,13,24,045,42,15,62,037,45*77
###2023-11-09 13:07:26.138999$GPGSV,2,2,07,18,77,281,47,23,50,315,45,24,49,136,46,,,,*40
###2023-11-09 13:07:26.141567$GLGSV,2,1,05,70,50,016,35,71,48,288,48,80,17,091,43,85,58,203,48*68
###2023-11-09 13:07:26.143160$GLGSV,2,2,05,86,52,309,47,,,,,,,,,,,,*50
###2023-11-09 13:07:26.145717$GAGSV,1,1,04,07,72,257,45,08,49,042,44,13,64,160,44,26,56,310,44*6E
###2023-11-09 13:07:26.148297$GBGSV,2,1,06,11,24,180,41,14,65,006,45,24,19,133,44,26,23,082,43*62
###2023-11-09 13:07:26.150227$GBGSV,2,2,06,28,43,289,47,33,58,302,47,,,,,,,,*6F
###2023-11-09 13:07:26.151657$GNVTG,23.73,T,,M,0.93,N,1.73,K,A*19
###2023-11-09 13:07:26.230027$GNGGA,130726.40,3611.0542634,N,07544.9773217,W,1,24,0.6,0.956,M,-39.961,M,0.0,*63
###2023-11-09 13:07:26.232647$GPGSV,2,1,07,05,21,090,41,10,18,292,43,13,24,045,42,15,62,037,45*77
###2023-11-09 13:07:26.234901$GPGSV,2,2,07,18,77,281,47,23,50,315,45,24,49,136,46,,,,*40
###2023-11-09 13:07:26.237504$GLGSV,2,1,05,70,50,016,35,71,48,288,48,80,17,091,43,85,58,203,48*68
###2023-11-09 13:07:26.239117$GLGSV,2,2,05,86,52,309,47,,,,,,,,,,,,*50
###2023-11-09 13:07:26.241681$GAGSV,1,1,04,07,72,257,45,08,49,042,44,13,64,160,44,26,56,310,44*6E
###2023-11-09 13:07:26.244242$GBGSV,2,1,06,11,24,180,43,14,65,006,45,24,19,133,44,26,23,082,42*61
###2023-11-09 13:07:26.246174$GBGSV,2,2,06,28,43,289,47,33,58,302,47,,,,,,,,*6F
###2023-11-09 13:07:26.247618$GNVTG,27.48,T,,M,1.19,N,2.20,K,A*13
###2023-11-09 13:07:26.331370$GNGGA,130726.50,3611.0542970,N,07544.9773020,W,1,24,0.6,0.970,M,-39.961,M,0.0,*6F
###2023-11-09 13:07:26.333956$GPGSV,2,1,07,05,21,090,41,10,18,292,43,13,24,045,40,15,62,037,45*75
###2023-11-09 13:07:26.336218$GPGSV,2,2,07,18,77,281,47,23,50,315,45,24,49,136,46,,,,*40
###2023-11-09 13:07:26.338820$GLGSV,2,1,05,70,50,016,35,71,48,288,48,80,17,091,43,85,58,203,48*68
###2023-11-09 13:07:26.340435$GLGSV,2,2,05,86,52,309,47,,,,,,,,,,,,*50
###2023-11-09 13:07:26.343016$GAGSV,1,1,04,07,72,257,45,08,49,042,44,13,64,160,44,26,56,310,45*6F
###2023-11-09 13:07:26.345600$GBGSV,2,1,06,11,24,180,42,14,65,006,45,24,19,133,44,26,23,082,42*60
###2023-11-09 13:07:26.347556$GBGSV,2,2,06,28,43,289,47,33,58,302,47,,,,,,,,*6F
###2023-11-09 13:07:26.348990$GNVTG,22.21,T,,M,1.50,N,2.77,K,A*16
###2023-11-09 13:07:26.430600$GNGGA,130726.60,3611.0543368,N,07544.9772825,W,1,24,0.6,0.985,M,-39.961,M,0.0,*68
###2023-11-09 13:07:26.433179$GPGSV,2,1,07,05,21,090,41,10,18,292,43,13,24,045,40,15,62,037,45*75
###2023-11-09 13:07:26.435413$GPGSV,2,2,07,18,77,281,47,23,50,315,45,24,49,136,46,,,,*40
###2023-11-09 13:07:26.438024$GLGSV,2,1,05,70,50,016,35,71,48,288,48,80,17,091,43,85,58,203,48*68
###2023-11-09 13:07:26.439627$GLGSV,2,2,05,86,52,309,47,,,,,,,,,,,,*50
###2023-11-09 13:07:26.442188$GAGSV,1,1,04,07,72,257,45,08,49,042,44,13,64,160,44,26,56,310,45*6F
###2023-11-09 13:07:26.444754$GBGSV,2,1,06,11,24,180,41,14,65,006,45,24,19,133,44,26,23,082,42*63
###2023-11-09 13:07:26.446682$GBGSV,2,2,06,28,43,289,47,33,58,302,47,,,,,,,,*6F
###2023-11-09 13:07:26.448124$GNVTG,19.79,T,,M,1.59,N,2.95,K,A*16
###2023-11-09 13:07:26.529999$GNGGA,130726.70,3611.0543762,N,07544.9772635,W,1,24,0.6,0.995,M,-39.961,M,0.0,*69
###2023-11-09 13:07:26.532607$GPGSV,2,1,07,05,21,090,41,10,18,292,43,13,24,045,42,15,62,037,45*77
###2023-11-09 13:07:26.534876$GPGSV,2,2,07,18,77,281,47,23,50,315,45,24,49,136,46,,,,*40
###2023-11-09 13:07:26.537480$GLGSV,2,1,05,70,50,016,35,71,48,288,48,80,17,091,43,85,58,203,48*68
###2023-11-09 13:07:26.539098$GLGSV,2,2,05,86,52,309,47,,,,,,,,,,,,*50
###2023-11-09 13:07:26.541689$GAGSV,1,1,04,07,72,257,45,08,49,042,44,13,64,160,44,26,56,310,45*6F
###2023-11-09 13:07:26.544273$GBGSV,2,1,06,11,24,180,41,14,65,006,45,24,19,133,43,26,23,082,43*65
###2023-11-09 13:07:26.546217$GBGSV,2,2,06,28,43,289,47,33,58,302,47,,,,,,,,*6F
###2023-11-09 13:07:26.547665$GNVTG,21.46,T,,M,1.46,N,2.70,K,A*14
###2023-11-09 13:07:26.630878$GNGGA,130726.80,3611.0544102,N,07544.9772461,W,1,24,0.6,1.002,M,-39.961,M,0.0,*64
###2023-11-09 13:07:26.633514$GPGSV,2,1,07,05,21,090,41,10,18,292,43,13,24,045,42,15,62,037,45*77
###2023-11-09 13:07:26.635805$GPGSV,2,2,07,18,77,281,47,23,50,315,45,24,49,136,46,,,,*40
###2023-11-09 13:07:26.638424$GLGSV,2,1,05,70,50,016,35,71,48,288,48,80,17,091,43,85,58,203,48*68
###2023-11-09 13:07:26.640051$GLGSV,2,2,05,86,52,309,47,,,,,,,,,,,,*50
###2023-11-09 13:07:26.642630$GAGSV,1,1,04,07,72,257,45,08,49,042,44,13,64,160,44,26,56,310,45*6F
###2023-11-09 13:07:26.645237$GBGSV,2,1,06,11,24,180,41,14,65,006,45,24,19,133,43,26,23,082,43*65
###2023-11-09 13:07:26.647196$GBGSV,2,2,06,28,43,289,47,33,58,302,47,,,,,,,,*6F
###2023-11-09 13:07:26.648633$GNVTG,22.30,T,,M,1.21,N,2.23,K,A*11
###2023-11-09 13:07:26.730749$GNGGA,130726.90,3611.0544391,N,07544.9772305,W,1,24,0.6,1.010,M,-39.961,M,0.0,*6B
###2023-11-09 13:07:26.733350$GPGSV,2,1,07,05,21,090,41,10,18,292,43,13,24,045,42,15,62,037,45*77
###2023-11-09 13:07:26.735607$GPGSV,2,2,07,18,77,281,47,23,50,315,45,24,49,136,46,,,,*40
###2023-11-09 13:07:26.738208$GLGSV,2,1,05,70,50,016,35,71,48,288,48,80,17,091,43,85,58,203,48*68
###2023-11-09 13:07:26.739820$GLGSV,2,2,05,86,52,309,47,,,,,,,,,,,,*50
###2023-11-09 13:07:26.742394$GAGSV,1,1,04,07,72,257,45,08,49,042,44,13,64,160,44,26,56,310,45*6F
###2023-11-09 13:07:26.744970$GBGSV,2,1,06,11,24,180,41,14,65,006,45,24,19,133,43,26,23,082,43*65
###2023-11-09 13:07:26.746899$GBGSV,2,2,06,28,43,289,47,33,58,302,47,,,,,,,,*6F
###2023-11-09 13:07:26.748331$GNVTG,22.60,T,,M,1.09,N,2.02,K,A*1D
###2023-11-09 13:07:26.832004$GNGGA,130727.00,3611.0544667,N,07544.9772172,W,1,24,0.6,1.009,M,-39.961,M,0.0,*65
###2023-11-09 13:07:26.834613$GPGSV,2,1,07,05,21,090,41,10,18,292,43,13,24,045,42,15,62,037,45*77
###2023-11-09 13:07:26.836870$GPGSV,2,2,07,18,77,281,47,23,50,315,45,24,49,136,46,,,,*40
###2023-11-09 13:07:26.839459$GLGSV,2,1,05,70,50,016,35,71,48,288,48,80,17,091,43,85,58,203,48*68
###2023-11-09 13:07:26.841071$GLGSV,2,2,05,86,52,309,47,,,,,,,,,,,,*50
###2023-11-09 13:07:26.843651$GAGSV,1,1,04,07,72,257,45,08,49,042,44,13,64,160,44,26,56,310,45*6F
###2023-11-09 13:07:26.846235$GBGSV,2,1,06,11,24,180,41,14,65,006,44,24,19,133,43,26,23,082,43*64
###2023-11-09 13:07:26.848187$GBGSV,2,2,06,28,43,289,47,33,58,302,47,,,,,,,,*6F
###2023-11-09 13:07:26.849930$GNVTG,18.23,T,,M,1.07,N,1.98,K,A*1D
###2023-11-09 13:07:26.931751$GNGGA,130727.10,3611.0544977,N,07544.9772052,W,1,24,0.6,1.007,M,-39.961,M,0.0,*67
###2023-11-09 13:07:26.934348$GPGSV,2,1,07,05,21,090,41,10,18,292,43,13,24,045,42,15,62,037,45*77
###2023-11-09 13:07:26.936602$GPGSV,2,2,07,18,77,281,47,23,50,315,45,24,49,136,46,,,,*40
###2023-11-09 13:07:26.939315$GLGSV,2,1,05,70,50,016,35,71,48,288,48,80,17,091,43,85,58,203,48*68
###2023-11-09 13:07:26.940936$GLGSV,2,2,05,86,52,309,47,,,,,,,,,,,,*50
###2023-11-09 13:07:26.943513$GAGSV,1,1,04,07,72,257,45,08,49,042,44,13,64,160,44,26,56,310,45*6F
###2023-11-09 13:07:26.946101$GBGSV,2,1,06,11,24,180,41,14,65,006,44,24,19,133,43,26,23,082,42*65
###2023-11-09 13:07:26.948057$GBGSV,2,2,06,28,43,289,47,33,58,302,47,,,,,,,,*6F
