###2023-11-09 13:06:29.135364$GPGSV,2,1,07,05,21,090,42,10,18,292,43,13,24,045,41,15,62,036,46*75
###2023-11-09 13:06:29.137653$GPGSV,2,2,07,18,77,282,47,23,49,314,45,24,49,137,45,,,,*48
###2023-11-09 13:06:29.140218$GLGSV,2,1,05,70,50,016,36,71,48,288,48,80,17,091,44,85,58,203,48*6C
###2023-11-09 13:06:29.141824$GLGSV,2,2,05,86,52,309,48,,,,,,,,,,,,*5F
###2023-11-09 13:06:29.144372$GAGSV,1,1,04,07,72,255,45,08,49,042,44,13,64,160,44,26,56,311,45*6C
###2023-11-09 13:06:29.146936$GBGSV,2,1,06,11,24,180,41,14,65,006,46,24,19,133,43,26,23,082,42*67
###2023-11-09 13:06:29.148863$GBGSV,2,2,06,28,43,289,47,33,58,302,47,,,,,,,,*6F
###2023-11-09 13:06:29.150287$GNVTG,32.25,T,,M,0.76,N,1.40,K,A*11
###2023-11-09 13:06:29.232775$GNGGA,130629.40,3611.0420339,N,07544.9802650,W,1,24,0.6,0.921,M,-39.961,M,0.0,*6E
###2023-11-09 13:06:29.235389$GPGSV,2,1,07,05,21,090,42,10,18,292,43,13,24,045,41,15,62,036,46*75
###2023-11-09 13:06:29.237662$GPGSV,2,2,07,18,77,282,47,23,49,314,45,24,49,137,45,,,,*48
###2023-11-09 13:06:29.240243$GLGSV,2,1,05,70,50,016,36,71,48,288,48,80,17,091,44,85,58,203,48*6C
###2023-11-09 13:06:29.241845$GLGSV,2,2,05,86,52,309,48,,,,,,,,,,,,*5F
###2023-11-09 13:06:29.244415$GAGSV,1,1,04,07,72,255,45,08,49,042,44,13,64,160,44,26,56,311,45*6C
###2023-11-09 13:06:29.247013$GBGSV,2,1,06,11,24,180,41,14,65,006,46,24,19,133,43,26,23,082,42*67
###2023-11-09 13:06:29.248950$GBGSV,2,2,06,28,43,289,47,33,58,302,47,,,,,,,,*6F
###2023-11-09 13:06:29.250382$GNVTG,32.25,T,,M,0.60,N,1.12,K,A*11
###2023-11-09 13:06:29.332485$GNGGA,130629.50,3611.0420455,N,07544.9802526,W,1,24,0.6,0.927,M,-39.961,M,0.0,*66
###2023-11-09 13:06:29.335074$GPGSV,2,1,07,05,21,090,42,10,18,292,42,13,24,045,41,15,62,036,46*74
###2023-11-09 13:06:29.337356$GPGSV,2,2,07,18,77,282,47,23,49,314,45,24,49,137,45,,,,*48
###2023-11-09 13:06:29.339935$GLGSV,2,1,05,70,50,016,36,71,48,288,48,80,17,091,44,85,58,203,48*6C
###2023-11-09 13:06:29.341546$GLGSV,2,2,05,86,52,309,48,,,,,,,,,,,,*5F
###2023-11-09 13:06:29.344112$GAGSV,1,1,04,07,72,255,45,08,49,042,44,13,64,160,44,26,56,311,45*6C
###2023-11-09 13:06:29.346688$GBGSV,2,1,06,11,24,180,41,14,65,006,46,24,19,133,43,26,23,082,42*67
###2023-11-09 13:06:29.348644$GBGSV,2,2,06,28,43,289,47,33,58,302,47,,,,,,,,*6F
###2023-11-09 13:06:29.350079$GNVTG,32.25,T,,M,0.52,N,0.97,K,A*1C
###2023-11-09 13:06:29.432090$GNGGA,130629.60,3611.0420573,N,07544.9802421,W,1,24,0.6,0.932,M,-39.961,M,0.0,*62
###2023-11-09 13:06:29.434669$GPGSV,2,1,07,05,21,090,42,10,18,292,42,13,24,045,41,15,62,036,46*74
###2023-11-09 13:06:29.436920$GPGSV,2,2,07,18,77,282,47,23,49,314,45,24,49,137,45,,,,*48
###2023-11-09 13:06:29.439498$GLGSV,2,1,05,70,50,016,36,71,48,288,48,80,17,091,44,85,58,203,48*6C
###2023-11-09 13:06:29.441105$GLGSV,2,2,05,86,52,309,48,,,,,,,,,,,,*5F
###2023-11-09 13:06:29.443649$GAGSV,1,1,04,07,72,255,45,08,49,042,44,13,64,160,44,26,56,311,45*6C
###2023-11-09 13:06:29.446208$GBGSV,2,1,06,11,24,180,41,14,65,006,46,24,19,133,43,26,23,082,42*67
###2023-11-09 13:06:29.448144$GBGSV,2,2,06,28,43,289,47,33,58,302,47,,,,,,,,*6F
###2023-11-09 13:06:29.449560$GNVTG,32.25,T,,M,0.56,N,1.04,K,A*13
###2023-11-09 13:06:29.532499$GNGGA,130629.70,3611.0420710,N,07544.9802328,W,1,24,0.6,0.932,M,-39.961,M,0.0,*6A
###2023-11-09 13:06:29.535110$GPGSV,2,1,07,05,21,090,42,10,18,292,42,13,24,045,41,15,62,036,46*74
###2023-11-09 13:06:29.537385$GPGSV,2,2,07,18,77,282,47,23,49,314,45,24,49,137,46,,,,*4B
###2023-11-09 13:06:29.539972$GLGSV,2,1,05,70,50,016,36,71,48,288,48,80,17,091,44,85,58,203,48*6C
###2023-11-09 13:06:29.541600$GLGSV,2,2,05,86,52,309,47,,,,,,,,,,,,*50
###2023-11-09 13:06:29.544167$GAGSV,1,1,04,07,72,255,45,08,49,042,44,13,64,160,44,26,56,311,45*6C
###2023-11-09 13:06:29.546743$GBGSV,2,1,06,11,24,180,42,14,65,006,45,24,19,133,43,26,23,082,42*67
###2023-11-09 13:06:29.548691$GBGSV,2,2,06,28,43,289,47,33,58,302,47,,,,,,,,*6F
###2023-11-09 13:06:29.550121$GNVTG,32.25,T,,M,0.58,N,1.08,K,A*11
###2023-11-09 13:06:29.633496$GNGGA,130629.80,3611.0420872,N,07544.9802236,W,1,24,0.6,0.926,M,-39.961,M,0.0,*65
###2023-11-09 13:06:29.636083$GPGSV,2,1,07,05,21,090,42,10,18,292,42,13,24,045,41,15,62,036,46*74
###2023-11-09 13:06:29.638357$GPGSV,2,2,07,18,77,282,47,23,49,314,45,24,49,137,46,,,,*4B
###2023-11-09 13:06:29.640930$GLGSV,2,1,05,70,50,016,36,71,48,288,48,80,17,091,44,85,58,203,48*6C
###2023-11-09 13:06:29.642542$GLGSV,2,2,05,86,52,309,47,,,,,,,,,,,,*50
###2023-11-09 13:06:29.645101$GAGSV,1,1,04,07,72,255,45,08,49,042,44,13,64,160,44,26,56,311,45*6C
###2023-11-09 13:06:29.647698$GBGSV,2,1,06,11,24,180,42,14,65,006,45,24,19,133,43,26,23,082,42*67
###2023-11-09 13:06:29.649636$GBGSV,2,2,06,28,43,289,47,33,58,302,47,,,,,,,,*6F
###2023-11-09 13:06:29.651071$GNVTG,32.25,T,,M,0.72,N,1.33,K,A*11
###2023-11-09 13:06:29.732488$GNGGA,130629.90,3611.0421058,N,07544.9802144,W,1,24,0.6,0.927,M,-39.961,M,0.0,*62
###2023-11-09 13:06:29.735077$GPGSV,2,1,07,05,21,090,42,10,18,292,42,13,24,045,41,15,62,036,46*74
###2023-11-09 13:06:29.737466$GPGSV,2,2,07,18,77,282,47,23,49,314,45,24,49,137,45,,,,*48
###2023-11-09 13:06:29.740034$GLGSV,2,1,05,70,50,016,35,71,48,288,48,80,17,091,44,85,58,203,48*6F
###2023-11-09 13:06:29.741630$GLGSV,2,2,05,86,52,309,47,,,,,,,,,,,,*50
###2023-11-09 13:06:29.744183$GAGSV,1,1,04,07,72,255,45,08,49,042,44,13,64,160,44,26,56,311,45*6C
###2023-11-09 13:06:29.746743$GBGSV,2,1,06,11,24,180,42,14,65,006,45,24,19,133,43,26,23,082,42*67
###2023-11-09 13:06:29.748687$GBGSV,2,2,06,28,43,289,47,33,58,302,47,,,,,,,,*6F
###2023-11-09 13:06:29.750111$GNVTG,32.25,T,,M,0.72,N,1.33,K,A*11
###2023-11-09 13:06:29.837260$GNGGA,130630.00,3611.0421233,N,07544.9802068,W,1,24,0.6,0.923,M,-39.961,M,0.0,*67
###2023-11-09 13:06:29.839853$GPGSV,2,1,07,05,21,090,42,10,18,292,42,13,24,045,41,15,62,036,46*74
###2023-11-09 13:06:29.842099$GPGSV,2,2,07,18,77,282,47,23,49,314,45,24,49,137,45,,,,*48
###2023-11-09 13:06:29.844658$GLGSV,2,1,05,70,50,016,36,71,48,288,48,80,17,091,44,85,58,203,48*6C
###2023-11-09 13:06:29.846267$GLGSV,2,2,05,86,52,309,47,,,,,,,,,,,,*50
###2023-11-09 13:06:29.848843$GAGSV,1,1,04,07,72,255,45,08,49,042,44,13,64,160,44,26,56,311,45*6C
###2023-11-09 13:06:29.851419$GBGSV,2,1,06,11,24,180,42,14,65,006,45,24,19,133,43,26,23,082,42*67
###2023-11-09 13:06:29.853352$GBGSV,2,2,06,28,43,289,47,33,58,302,47,,,,,,,,*6F
###2023-11-09 13:06:29.854781$GNVTG,32.25,T,,M,0.62,N,1.15,K,A*14
###2023-11-09 13:06:29.942996$GNGGA,130630.10,3611.0421387,N,07544.9802008,W,1,24,0.6,0.917,M,-39.961,M,0.0,*69
###2023-11-09 13:06:29.945581$GPGSV,2,1,07,05,21,090,42,10,18,292,42,13,24,045,42,15,62,037,46*76
###2023-11-09 13:06:29.947848$GPGSV,2,2,07,18,77,282,47,23,49,314,45,24,49,137,45,,,,*48
###2023-11-09 13:06:29.950419$GLGSV,2,1,05,70,50,016,36,71,48,288,48,80,17,091,44,85,58,203,48*6C
###2023-11-09 13:06:29.952027$GLGSV,2,2,05,86,52,309,47,,,,,,,,,,,,*50
###2023-11-09 13:06:29.954592$GAGSV,1,1,04,07,72,255,45,08,49,042,44,13,64,160,44,26,56,311,45*6C
###2023-11-09 13:06:29.957188$GBGSV,2,1,06,11,24,180,41,14,65,006,45,24,19,133,43,26,23,082,42*64
###2023-11-09 13:06:29.959120$GBGSV,2,2,06,28,43,289,47,33,58,302,47,,,,,,,,*6F
###2023-11-09 13:06:29.960548$GNVTG,32.25,T,,M,0.54,N,1.01,K,A*14
###2023-11-09 13:06:30.035085$GNGGA,130630.20,3611.0421510,N,07544.9801955,W,1,24,0.6,0.913,M,-39.961,M,0.0,*64
###2023-11-09 13:06:30.037677$GPGSV,2,1,07,05,21,090,42,10,18,292,43,13,24,045,42,15,62,037,46*77
###2023-11-09 13:06:30.039920$GPGSV,2,2,07,18,77,282,47,23,49,314,45,24,49,137,45,,,,*48
###2023-11-09 13:06:30.042477$GLGSV,2,1,05,70,50,016,36,71,48,288,48,80,17,091,44,85,58,203,48*6C
###2023-11-09 13:06:30.044072$GLGSV,2,2,05,86,52,309,47,,,,,,,,,,,,*50
###2023-11-09 13:06:30.046627$GAGSV,1,1,04,07,72,255,45,08,49,042,44,13,64,160,44,26,56,311,45*6C
###2023-11-09 13:06:30.049212$GBGSV,2,1,06,11,24,180,41,14,65,006,46,24,19,133,43,26,23,082,42*67
###2023-11-09 13:06:30.051154$GBGSV,2,2,06,28,43,289,47,33,58,302,47,,,,,,,,*6F
###2023-11-09 13:06:30.052597$GNVTG,32.25,T,,M,0.41,N,0.76,K,A*11
###2023-11-09 13:06:30.132999$GNGGA,130630.30,3611.0421601,N,07544.9801910,W,1,24,0.6,0.907,M,-39.961,M,0.0,*62
###2023-11-09 13:06:30.135584$GPGSV,2,1,07,05,21,090,42,10,18,292,43,13,24,045,41,15,62,037,46*74
###2023-11-09 13:06:30.138163$GPGSV,2,2,07,18,77,282,47,23,49,314,45,24,49,137,45,,,,*48
###2023-11-09 13:06:30.140757$GLGSV,2,1,05,70,50,016,36,71,48,288,48,80,17,091,44,85,58,203,48*6C
###2023-11-09 13:06:30.142372$GLGSV,2,2,05,86,52,309,47,,,,,,,,,,,,*50
###2023-11-09 13:06:30.144936$GAGSV,1,1,04,07,72,255,45,08,49,042,44,13,64,160,44,26,56,311,45*6C
###2023-11-09 13:06:30.147530$GBGSV,2,1,06,11,24,180,41,14,65,006,46,24,19,133,43,26,23,082,42*67
###2023-11-09 13:06:30.149469$GBGSV,2,2,06,28,43,289,47,33,58,302,47,,,,,,,,*6F
###2023-11-09 13:06:30.150903$GNVTG,32.25,T,,M,0.31,N,0.58,K,A*1A
###2023-11-09 13:06:30.236017$GNGGA,130630.40,3611.0421685,N,07544.9801851,W,1,24,0.6,0.902,M,-39.961,M,0.0,*68
###2023-11-09 13:06:30.238639$GPGSV,2,1,07,05,21,090,42,10,18,292,43,13,24,045,41,15,62,037,46*74
