###2023-11-09 13:06:16.444708$GAGSV,1,1,04,07,72,255,45,08,49,042,45,13,64,160,45,26,56,311,45*6C
###2023-11-09 13:06:16.447321$GBGSV,2,1,06,11,24,180,40,14,65,006,45,24,19,133,42,26,23,082,43*65
###2023-11-09 13:06:16.449265$GBGSV,2,2,06,28,43,289,47,33,58,302,47,,,,,,,,*6F
###2023-11-09 13:06:16.450697$GNVTG,63.38,T,,M,1.07,N,1.98,K,A*1B
###2023-11-09 13:06:16.531728$GNGGA,130616.70,3611.0400135,N,07544.9819246,W,1,23,0.6,1.039,M,-39.962,M,0.0,*61
###2023-11-09 13:06:16.534311$GPGSV,2,1,07,05,21,089,43,10,17,292,43,13,25,045,41,15,62,036,46*72
###2023-11-09 13:06:16.536551$GPGSV,2,2,07,18,77,282,47,23,49,314,45,24,49,137,45,,,,*48
###2023-11-09 13:06:16.539129$GLGSV,1,1,04,71,48,288,49,80,17,091,45,85,58,203,48,86,52,309,48*61
###2023-11-09 13:06:16.541698$GAGSV,1,1,04,07,72,255,45,08,49,042,45,13,64,160,45,26,56,311,45*6C
###2023-11-09 13:06:16.544266$GBGSV,2,1,06,11,24,180,40,14,65,006,45,24,19,133,42,26,23,082,44*62
###2023-11-09 13:06:16.546193$GBGSV,2,2,06,28,43,289,47,33,58,302,47,,,,,,,,*6F
###2023-11-09 13:06:16.547627$GNVTG,63.38,T,,M,0.97,N,1.80,K,A*1A
###2023-11-09 13:06:16.631610$GNGGA,130616.80,3611.0400220,N,07544.9818948,W,1,23,0.6,1.037,M,-39.962,M,0.0,*63
###2023-11-09 13:06:16.634217$GPGSV,2,1,07,05,21,089,43,10,17,292,43,13,25,045,41,15,62,036,46*72
###2023-11-09 13:06:16.636485$GPGSV,2,2,07,18,77,282,47,23,49,314,45,24,49,137,45,,,,*48
###2023-11-09 13:06:16.639087$GLGSV,1,1,04,71,48,288,49,80,17,091,45,85,58,203,48,86,52,309,48*61
###2023-11-09 13:06:16.641671$GAGSV,1,1,04,07,72,255,45,08,49,042,45,13,64,160,45,26,56,311,45*6C
###2023-11-09 13:06:16.644272$GBGSV,2,1,06,11,24,180,40,14,65,006,45,24,19,133,41,26,23,082,43*66
###2023-11-09 13:06:16.646236$GBGSV,2,2,06,28,43,289,46,33,58,302,47,,,,,,,,*6E
###2023-11-09 13:06:16.647699$GNVTG,63.38,T,,M,0.91,N,1.69,K,A*1B
###2023-11-09 13:06:16.732640$GNGGA,130616.90,3611.0400281,N,07544.9818672,W,1,23,0.6,1.027,M,-39.962,M,0.0,*6E
###2023-11-09 13:06:16.735241$GPGSV,2,1,07,05,21,089,43,10,17,292,43,13,25,045,39,15,62,036,46*7D
###2023-11-09 13:06:16.737534$GPGSV,2,2,07,18,77,282,47,23,49,314,45,24,49,137,45,,,,*48
###2023-11-09 13:06:16.740108$GLGSV,1,1,04,71,48,288,49,80,17,091,45,85,58,203,48,86,52,309,48*61
###2023-11-09 13:06:16.742700$GAGSV,1,1,04,07,72,255,45,08,49,042,44,13,64,160,45,26,56,311,45*6D
###2023-11-09 13:06:16.745286$GBGSV,2,1,06,11,24,180,40,14,65,006,45,24,19,133,41,26,23,082,42*67
###2023-11-09 13:06:16.747240$GBGSV,2,2,06,28,43,289,46,33,58,302,47,,,,,,,,*6E
###2023-11-09 13:06:16.748674$GNVTG,63.38,T,,M,0.78,N,1.44,K,A*13
###2023-11-09 13:06:16.836466$GNGGA,130617.00,3611.0400343,N,07544.9818405,W,1,23,0.6,1.010,M,-39.962,M,0.0,*6F
###2023-11-09 13:06:16.839059$GPGSV,2,1,07,05,21,089,42,10,17,292,43,13,25,045,39,15,62,036,46*7C
###2023-11-09 13:06:16.841288$GPGSV,2,2,07,18,77,282,47,23,49,314,45,24,49,137,45,,,,*48
###2023-11-09 13:06:16.843843$GLGSV,1,1,04,71,48,288,49,80,17,091,45,85,58,203,49,86,52,309,48*60
###2023-11-09 13:06:16.846406$GAGSV,1,1,04,07,72,255,45,08,49,042,44,13,64,160,45,26,56,311,45*6D
###2023-11-09 13:06:16.848991$GBGSV,2,1,06,11,24,180,40,14,65,006,44,24,19,133,41,26,23,082,42*66
###2023-11-09 13:06:16.850929$GBGSV,2,2,06,28,43,289,46,33,58,302,47,,,,,,,,*6E
###2023-11-09 13:06:16.852376$GNVTG,63.38,T,,M,0.87,N,1.62,K,A*17
###2023-11-09 13:06:16.932602$GNGGA,130617.10,3611.0400440,N,07544.9818079,W,1,23,0.6,0.997,M,-39.962,M,0.0,*62
###2023-11-09 13:06:16.935203$GPGSV,2,1,07,05,21,089,42,10,17,292,43,13,25,045,39,15,62,036,46*7C
###2023-11-09 13:06:16.937476$GPGSV,2,2,07,18,77,282,47,23,49,314,46,24,49,137,45,,,,*4B
###2023-11-09 13:06:16.940051$GLGSV,1,1,04,71,48,288,49,80,17,091,44,85,58,203,49,86,52,309,48*61
###2023-11-09 13:06:16.942625$GAGSV,1,1,04,07,72,255,45,08,49,042,44,13,64,160,45,26,56,311,45*6D
###2023-11-09 13:06:16.945209$GBGSV,2,1,06,11,24,180,40,14,65,006,44,24,19,133,41,26,23,082,41*65
###2023-11-09 13:06:16.947161$GBGSV,2,2,06,28,43,289,46,33,58,302,47,,,,,,,,*6E
###2023-11-09 13:06:16.948592$GNVTG,68.70,T,,M,1.19,N,2.20,K,A*13
###2023-11-09 13:06:17.033592$GNGGA,130617.20,3611.0400579,N,07544.9817686,W,1,23,0.6,0.991,M,-39.962,M,0.0,*65
###2023-11-09 13:06:17.036178$GPGSV,2,1,07,05,21,089,42,10,17,292,44,13,25,045,39,15,62,036,46*7B
###2023-11-09 13:06:17.038450$GPGSV,2,2,07,18,77,282,47,23,49,314,46,24,49,137,45,,,,*4B
###2023-11-09 13:06:17.041030$GLGSV,1,1,04,71,48,288,49,80,17,091,44,85,58,203,48,86,52,309,48*60
###2023-11-09 13:06:17.043600$GAGSV,1,1,04,07,72,255,45,08,49,042,44,13,64,160,45,26,56,311,45*6D
###2023-11-09 13:06:17.046190$GBGSV,2,1,06,11,24,180,40,14,65,006,44,24,19,133,41,26,23,082,41*65
###2023-11-09 13:06:17.048146$GBGSV,2,2,06,28,43,289,47,33,58,302,48,,,,,,,,*60
###2023-11-09 13:06:17.049582$GNVTG,65.05,T,,M,1.34,N,2.48,K,A*1D
###2023-11-09 13:06:17.131737$GNGGA,130617.30,3611.0400734,N,07544.9817267,W,1,23,0.6,0.987,M,-39.962,M,0.0,*63
###2023-11-09 13:06:17.134304$GPGSV,2,1,07,05,21,089,42,10,17,292,44,13,25,045,41,15,62,036,46*74
###2023-11-09 13:06:17.136553$GPGSV,2,2,07,18,77,282,47,23,49,314,45,24,49,137,45,,,,*48
###2023-11-09 13:06:17.139129$GLGSV,1,1,04,71,48,288,49,80,17,091,44,85,58,203,48,86,52,309,48*60
###2023-11-09 13:06:17.141691$GAGSV,1,1,04,07,72,255,45,08,49,042,44,13,64,160,45,26,56,311,45*6D
###2023-11-09 13:06:17.144261$GBGSV,2,1,06,11,24,180,40,14,65,006,45,24,19,133,41,26,23,082,41*64
###2023-11-09 13:06:17.146197$GBGSV,2,2,06,28,43,289,47,33,58,302,48,,,,,,,,*60
###2023-11-09 13:06:17.147631$GNVTG,67.43,T,,M,1.36,N,2.52,K,A*14
###2023-11-09 13:06:17.230603$GNGGA,130617.40,3611.0400856,N,07544.9816862,W,1,23,0.6,0.987,M,-39.962,M,0.0,*61
###2023-11-09 13:06:17.233190$GPGSV,2,1,07,05,21,089,43,10,17,292,43,13,25,045,41,15,62,036,46*72
###2023-11-09 13:06:17.235450$GPGSV,2,2,07,18,77,282,47,23,49,314,45,24,49,137,44,,,,*49
###2023-11-09 13:06:17.238043$GLGSV,1,1,04,71,48,288,48,80,17,091,44,85,58,203,48,86,52,309,48*61
###2023-11-09 13:06:17.240608$GAGSV,1,1,04,07,72,255,45,08,49,042,45,13,64,160,45,26,56,311,45*6C
###2023-11-09 13:06:17.243178$GBGSV,2,1,06,11,24,180,40,14,65,006,45,24,19,133,42,26,23,082,43*65
###2023-11-09 13:06:17.245110$GBGSV,2,2,06,28,43,289,47,33,58,302,48,,,,,,,,*60
###2023-11-09 13:06:17.246534$GNVTG,74.27,T,,M,1.19,N,2.20,K,A*1C
###2023-11-09 13:06:17.332602$GNGGA,130617.50,3611.0400924,N,07544.9816519,W,1,23,0.6,0.984,M,-39.962,M,0.0,*66
###2023-11-09 13:06:17.335202$GPGSV,2,1,07,05,21,089,43,10,17,292,43,13,25,045,41,15,62,036,46*72
###2023-11-09 13:06:17.337472$GPGSV,2,2,07,18,77,282,47,23,49,314,45,24,49,137,45,,,,*48
###2023-11-09 13:06:17.340051$GLGSV,1,1,04,71,48,288,48,80,17,091,45,85,58,203,47,86,52,309,48*6F
###2023-11-09 13:06:17.342626$GAGSV,1,1,04,07,72,255,45,08,49,042,45,13,64,160,45,26,56,311,45*6C
###2023-11-09 13:06:17.345212$GBGSV,2,1,06,11,24,180,40,14,65,006,45,24,19,133,42,26,23,082,43*65
###2023-11-09 13:06:17.347174$GBGSV,2,2,06,28,43,289,47,33,58,302,47,,,,,,,,*6F
###2023-11-09 13:06:17.348604$GNVTG,74.27,T,,M,0.91,N,1.69,K,A*13
###2023-11-09 13:06:17.431727$GNGGA,130617.60,3611.0400951,N,07544.9816224,W,1,23,0.6,0.984,M,-39.962,M,0.0,*6E
###2023-11-09 13:06:17.434318$GPGSV,2,1,07,05,21,089,43,10,17,292,43,13,25,045,41,15,62,036,46*72
###2023-11-09 13:06:17.436568$GPGSV,2,2,07,18,77,282,47,23,49,314,45,24,49,137,45,,,,*48
###2023-11-09 13:06:17.439152$GLGSV,1,1,04,71,48,288,49,80,17,091,45,85,58,203,47,86,52,309,48*6E
###2023-11-09 13:06:17.441716$GAGSV,1,1,04,07,72,255,45,08,49,042,45,13,64,160,44,26,56,311,45*6D
###2023-11-09 13:06:17.444288$GBGSV,2,1,06,11,24,180,40,14,65,006,46,24,19,133,43,26,23,082,43*67
###2023-11-09 13:06:17.446225$GBGSV,2,2,06,28,43,289,47,33,58,302,47,,,,,,,,*6F
###2023-11-09 13:06:17.447665$GNVTG,74.27,T,,M,0.84,N,1.55,K,A*18
###2023-11-09 13:06:17.530612$GNGGA,130617.70,3611.0400974,N,07544.9815951,W,1,23,0.6,0.986,M,-39.962,M,0.0,*60
###2023-11-09 13:06:17.533211$GPGSV,2,1,07,05,21,089,43,10,17,292,43,13,25,045,41,15,62,036,46*72
###2023-11-09 13:06:17.535478$GPGSV,2,2,07,18,77,282,47,23,49,314,45,24,49,137,45,,,,*48
###2023-11-09 13:06:17.538083$GLGSV,1,1,04,71,48,288,49,80,17,091,45,85,58,203,48,86,52,309,48*61
###2023-11-09 13:06:17.541017$GAGSV,1,1,04,07,72,255,45,08,49,042,45,13,64,160,44,26,56,311,45*6D
###2023-11-09 13:06:17.543625$GBGSV,2,1,06,11,24,180,40,14,65,006,46,24,19,133,43,26,23,082,43*67
###2023-11-09 13:06:17.545573$GBGSV,2,2,06,28,43,289,46,33,58,302,48,,,,,,,,*61
###2023-11-09 13:06:17.547023$GNVTG,74.27,T,,M,0.80,N,1.48,K,A*10
###2023-11-09 13:06:17.631616$GNGGA,130617.80,3611.0401022,N,07544.9815664,W,1,23,0.6,0.988,M,-39.962,M,0.0,*63
###2023-11-09 13:06:17.634225$GPGSV,2,1,07,05,21,089,41,10,17,292,44,13,25,045,41,15,62,036,46*77
###2023-11-09 13:06:17.636490$GPGSV,2,2,07,18,77,282,47,23,49,314,45,24,49,137,44,,,,*49
###2023-11-09 13:06:17.639089$GLGSV,1,1,04,71,48,288,49,80,17,091,44,85,58,203,48,86,52,309,48*60
###2023-11-09 13:06:17.641677$GAGSV,1,1,04,07,72,255,45,08,49,042,45,13,64,160,44,26,56,311,45*6D
###2023-11-09 13:06:17.644264$GBGSV,2,1,06,11,24,180,40,14,65,006,46,24,19,133,42,26,23,082,42*67
###2023-11-09 13:06:17.646215$GBGSV,2,2,06,28,43,289,46,33,58,302,48,,,,,,,,*61
###2023-11-09 13:06:17.647684$GNVTG,74.27,T,,M,0.93,N,1.73,K,A*1A
