###2023-11-09 13:09:30.641688$GAGSV,1,1,04,07,73,259,45,08,48,043,44,13,63,161,45,26,57,310,44*67
###2023-11-09 13:09:30.644283$GBGSV,2,1,06,11,22,180,41,14,65,008,45,24,20,132,43,26,23,081,42*64
###2023-11-09 13:09:30.646213$GBGSV,2,2,06,28,43,287,47,33,59,304,47,,,,,,,,*66
###2023-11-09 13:09:30.647684$GNVTG,84.44,T,,M,2.84,N,5.26,K,A*10
###2023-11-09 13:09:30.729890$GNGGA,130930.90,3611.0338529,N,07544.9438791,W,1,24,0.6,0.689,M,-39.961,M,0.0,*69
###2023-11-09 13:09:30.732489$GPGSV,2,1,07,05,20,090,41,10,19,293,44,13,24,045,41,15,61,037,45*71
###2023-11-09 13:09:30.734754$GPGSV,2,2,07,18,78,277,47,23,50,316,45,24,50,134,46,,,,*4F
###2023-11-09 13:09:30.737344$GLGSV,2,1,05,70,50,017,35,71,48,290,48,80,18,090,42,85,57,203,48*60
###2023-11-09 13:09:30.738955$GLGSV,2,2,05,86,53,308,47,,,,,,,,,,,,*50
###2023-11-09 13:09:30.741536$GAGSV,1,1,04,07,73,259,45,08,48,043,44,13,63,161,45,26,57,310,44*67
###2023-11-09 13:09:30.744114$GBGSV,2,1,06,11,22,180,41,14,65,008,45,24,20,132,43,26,23,081,42*64
###2023-11-09 13:09:30.746051$GBGSV,2,2,06,28,43,287,47,33,59,304,48,,,,,,,,*69
###2023-11-09 13:09:30.747493$GNVTG,88.48,T,,M,2.95,N,5.47,K,A*17
###2023-11-09 13:09:30.832713$GNGGA,130931.00,3611.0338509,N,07544.9437787,W,1,24,0.6,0.694,M,-39.961,M,0.0,*67
###2023-11-09 13:09:30.835286$GPGSV,2,1,07,05,20,090,41,10,19,293,43,13,24,045,41,15,61,037,45*76
###2023-11-09 13:09:30.837551$GPGSV,2,2,07,18,78,277,47,23,50,316,45,24,50,134,46,,,,*4F
###2023-11-09 13:09:30.840116$GLGSV,2,1,05,70,50,017,35,71,48,290,48,80,18,090,42,85,57,203,48*60
###2023-11-09 13:09:30.841717$GLGSV,2,2,05,86,53,308,47,,,,,,,,,,,,*50
###2023-11-09 13:09:30.844277$GAGSV,1,1,04,07,73,259,45,08,48,043,44,13,63,161,45,26,57,310,44*67
###2023-11-09 13:09:30.846845$GBGSV,2,1,06,11,22,180,41,14,65,008,45,24,20,132,43,26,23,081,42*64
###2023-11-09 13:09:30.848789$GBGSV,2,2,06,28,43,287,46,33,59,304,47,,,,,,,,*67
###2023-11-09 13:09:30.850214$GNVTG,93.41,T,,M,2.94,N,5.44,K,A*16
###2023-11-09 13:09:30.931700$GNGGA,130931.10,3611.0338442,N,07544.9436823,W,1,24,0.6,0.693,M,-39.961,M,0.0,*6F
###2023-11-09 13:09:30.934257$GPGSV,2,1,07,05,20,090,41,10,19,293,43,13,24,045,41,15,61,037,45*76
###2023-11-09 13:09:30.936484$GPGSV,2,2,07,18,78,277,47,23,50,316,45,24,50,134,46,,,,*4F
###2023-11-09 13:09:30.939044$GLGSV,2,1,05,70,50,017,35,71,48,290,48,80,18,090,43,85,57,203,48*61
###2023-11-09 13:09:30.940649$GLGSV,2,2,05,86,53,308,47,,,,,,,,,,,,*50
###2023-11-09 13:09:30.943187$GAGSV,1,1,04,07,73,259,45,08,48,043,44,13,63,161,45,26,57,310,44*67
###2023-11-09 13:09:30.945734$GBGSV,2,1,06,11,22,180,41,14,65,008,45,24,20,132,43,26,23,081,42*64
###2023-11-09 13:09:30.947689$GBGSV,2,2,06,28,43,287,47,33,59,304,47,,,,,,,,*66
###2023-11-09 13:09:30.949106$GNVTG,95.61,T,,M,2.74,N,5.08,K,A*14
###2023-11-09 13:09:31.032722$GNGGA,130931.20,3611.0338385,N,07544.9435897,W,1,24,0.6,0.696,M,-39.961,M,0.0,*69
###2023-11-09 13:09:31.035306$GPGSV,2,1,07,05,20,090,41,10,19,293,42,13,24,045,41,15,61,037,45*77
###2023-11-09 13:09:31.037561$GPGSV,2,2,07,18,78,277,47,23,50,316,45,24,50,134,46,,,,*4F
###2023-11-09 13:09:31.040129$GLGSV,2,1,05,70,50,017,35,71,48,290,47,80,18,090,43,85,57,203,48*6E
###2023-11-09 13:09:31.041726$GLGSV,2,2,05,86,53,308,47,,,,,,,,,,,,*50
###2023-11-09 13:09:31.044283$GAGSV,1,1,04,07,73,259,45,08,48,043,44,13,63,161,45,26,57,310,44*67
###2023-11-09 13:09:31.046854$GBGSV,2,1,06,11,22,180,41,14,65,008,45,24,20,132,44,26,23,081,42*63
###2023-11-09 13:09:31.048791$GBGSV,2,2,06,28,43,287,47,33,59,304,47,,,,,,,,*66
###2023-11-09 13:09:31.050213$GNVTG,91.95,T,,M,2.68,N,4.97,K,A*11
###2023-11-09 13:09:31.130868$GNGGA,130931.30,3611.0338396,N,07544.9434991,W,1,24,0.6,0.703,M,-39.961,M,0.0,*61
###2023-11-09 13:09:31.133451$GPGSV,2,1,07,05,20,090,41,10,19,293,42,13,24,045,41,15,61,037,45*77
###2023-11-09 13:09:31.135701$GPGSV,2,2,07,18,78,277,47,23,50,316,44,24,50,134,46,,,,*4E
###2023-11-09 13:09:31.138294$GLGSV,2,1,05,70,50,017,35,71,48,290,48,80,18,090,43,85,57,203,49*60
###2023-11-09 13:09:31.139902$GLGSV,2,2,05,86,53,308,47,,,,,,,,,,,,*50
###2023-11-09 13:09:31.142471$GAGSV,1,1,04,07,73,259,45,08,48,043,44,13,63,161,45,26,57,310,44*67
###2023-11-09 13:09:31.145052$GBGSV,2,1,06,11,22,180,42,14,65,008,45,24,20,132,44,26,23,081,42*60
###2023-11-09 13:09:31.146996$GBGSV,2,2,06,28,43,287,47,33,59,304,47,,,,,,,,*66
###2023-11-09 13:09:31.148431$GNVTG,85.64,T,,M,2.62,N,4.86,K,A*10
###2023-11-09 13:09:31.229371$GNGGA,130931.40,3611.0338492,N,07544.9434091,W,1,24,0.6,0.716,M,-39.961,M,0.0,*68
###2023-11-09 13:09:31.231949$GPGSV,2,1,07,05,20,090,41,10,19,293,43,13,24,045,41,15,61,037,45*76
###2023-11-09 13:09:31.234196$GPGSV,2,2,07,18,78,277,47,23,50,316,44,24,50,134,46,,,,*4E
###2023-11-09 13:09:31.236743$GLGSV,2,1,05,70,50,017,35,71,48,290,48,80,18,090,43,85,57,203,49*60
###2023-11-09 13:09:31.238344$GLGSV,2,2,05,86,53,308,47,,,,,,,,,,,,*50
###2023-11-09 13:09:31.240882$GAGSV,1,1,04,07,73,259,45,08,48,043,44,13,63,161,45,26,57,310,44*67
###2023-11-09 13:09:31.243436$GBGSV,2,1,06,11,22,180,42,14,65,008,45,24,20,132,44,26,23,081,42*60
###2023-11-09 13:09:31.245349$GBGSV,2,2,06,28,43,287,47,33,59,304,47,,,,,,,,*66
###2023-11-09 13:09:31.246764$GNVTG,78.78,T,,M,2.70,N,5.00,K,A*13
###2023-11-09 13:09:31.329255$GNGGA,130931.50,3611.0338658,N,07544.9433178,W,1,24,0.6,0.729,M,-39.961,M,0.0,*60
###2023-11-09 13:09:31.331845$GPGSV,2,1,07,05,20,090,41,10,19,293,43,13,24,045,41,15,61,037,45*76
###2023-11-09 13:09:31.334089$GPGSV,2,2,07,18,78,277,47,23,50,316,44,24,50,134,46,,,,*4E
###2023-11-09 13:09:31.336653$GLGSV,2,1,05,70,50,017,35,71,48,290,48,80,18,090,43,85,57,203,49*60
###2023-11-09 13:09:31.338269$GLGSV,2,2,05,86,53,308,47,,,,,,,,,,,,*50
###2023-11-09 13:09:31.340833$GAGSV,1,1,04,07,73,259,45,08,48,043,44,13,63,161,45,26,57,310,44*67
###2023-11-09 13:09:31.343402$GBGSV,2,1,06,11,22,180,41,14,65,008,45,24,20,132,44,26,23,081,42*63
###2023-11-09 13:09:31.345333$GBGSV,2,2,06,28,43,287,46,33,59,304,47,,,,,,,,*67
###2023-11-09 13:09:31.346763$GNVTG,75.36,T,,M,2.80,N,5.18,K,A*12
###2023-11-09 13:09:31.430239$GNGGA,130931.60,3611.0338819,N,07544.9432256,W,1,24,0.6,0.734,M,-39.961,M,0.0,*6A
###2023-11-09 13:09:31.432824$GPGSV,2,1,07,05,20,090,41,10,19,293,43,13,24,045,41,15,61,037,45*76
###2023-11-09 13:09:31.435074$GPGSV,2,2,07,18,78,277,47,23,50,316,45,24,50,134,46,,,,*4F
###2023-11-09 13:09:31.437687$GLGSV,2,1,05,70,50,017,35,71,48,290,48,80,18,090,43,85,57,203,48*61
###2023-11-09 13:09:31.439306$GLGSV,2,2,05,86,53,308,47,,,,,,,,,,,,*50
###2023-11-09 13:09:31.441892$GAGSV,1,1,04,07,73,259,45,08,48,043,44,13,63,161,45,26,57,310,44*67
###2023-11-09 13:09:31.444467$GBGSV,2,1,06,11,22,180,41,14,65,008,46,24,20,132,43,26,23,081,42*67
###2023-11-09 13:09:31.446401$GBGSV,2,2,06,28,43,287,46,33,59,304,47,,,,,,,,*67
###2023-11-09 13:09:31.447874$GNVTG,79.79,T,,M,2.74,N,5.08,K,A*1F
###2023-11-09 13:09:31.529618$GNGGA,130931.70,3611.0338912,N,07544.9431331,W,1,24,0.6,0.726,M,-39.961,M,0.0,*61
###2023-11-09 13:09:31.532194$GPGSV,2,1,07,05,20,090,41,10,19,293,44,13,24,045,41,15,61,037,45*71
###2023-11-09 13:09:31.534433$GPGSV,2,2,07,18,78,277,47,23,50,316,45,24,50,134,45,,,,*4C
###2023-11-09 13:09:31.536995$GLGSV,2,1,05,70,50,017,35,71,48,290,48,80,18,090,43,85,57,203,48*61
###2023-11-09 13:09:31.538593$GLGSV,2,2,05,86,53,308,47,,,,,,,,,,,,*50
###2023-11-09 13:09:31.541141$GAGSV,1,1,04,07,73,259,45,08,48,043,44,13,63,161,44,26,57,310,44*66
###2023-11-09 13:09:31.543701$GBGSV,2,1,06,11,22,180,40,14,65,008,45,24,20,132,41,26,23,081,42*67
###2023-11-09 13:09:31.545619$GBGSV,2,2,06,28,43,287,46,33,59,304,48,,,,,,,,*68
###2023-11-09 13:09:31.547047$GNVTG,85.26,T,,M,2.72,N,5.04,K,A*1C
###2023-11-09 13:09:31.631493$GNGGA,130931.80,3611.0338936,N,07544.9430393,W,1,24,0.6,0.716,M,-39.961,M,0.0,*62
###2023-11-09 13:09:31.634081$GPGSV,2,1,07,05,20,090,41,10,19,293,44,13,24,045,41,15,61,037,45*71
###2023-11-09 13:09:31.636334$GPGSV,2,2,07,18,78,277,47,23,50,316,45,24,50,134,45,,,,*4C
###2023-11-09 13:09:31.638922$GLGSV,2,1,05,70,50,017,35,71,48,290,48,80,18,090,43,85,57,203,48*61
###2023-11-09 13:09:31.640523$GLGSV,2,2,05,86,53,308,47,,,,,,,,,,,,*50
###2023-11-09 13:09:31.643086$GAGSV,1,1,04,07,73,259,45,08,48,043,44,13,63,161,44,26,57,310,44*66
###2023-11-09 13:09:31.645971$GBGSV,2,1,06,11,22,180,40,14,65,008,45,24,20,132,41,26,23,081,42*67
###2023-11-09 13:09:31.647929$GBGSV,2,2,06,28,43,287,47,33,59,304,47,,,,,,,,*66
###2023-11-09 13:09:31.649362$GNVTG,90.11,T,,M,2.76,N,5.11,K,A*1C
###2023-11-09 13:09:31.729788$GNGGA,130931.90,3611.0338911,N,07544.9429424,W,1,24,0.6,0.693,M,-39.961,M,0.0,*69
###2023-11-09 13:09:31.732392$GPGSV,2,1,07,05,20,090,41,10,19,293,44,13,24,045,41,15,61,037,45*71
###2023-11-09 13:09:31.734654$GPGSV,2,2,07,18,78,277,47,23,50,316,45,24,50,134,45,,,,*4C
###2023-11-09 13:09:31.737349$GLGSV,2,1,05,70,50,017,35,71,48,290,48,80,18,090,42,85,57,203,48*60
###2023-11-09 13:09:31.738962$GLGSV,2,2,05,86,53,308,47,,,,,,,,,,,,*50
###2023-11-09 13:09:31.741522$GAGSV,1,1,04,07,73,259,45,08,48,043,44,13,63,161,44,26,57,310,44*66
