###2023-11-09 13:06:12.949075$GAGSV,1,1,04,07,72,255,45,08,49,042,45,13,64,160,44,26,56,311,45*6D
###2023-11-09 13:06:12.951695$GBGSV,2,1,06,11,24,180,40,14,65,006,45,24,19,133,42,26,23,082,44*62
###2023-11-09 13:06:12.953658$GBGSV,2,2,06,28,43,289,46,33,58,302,48,,,,,,,,*61
###2023-11-09 13:06:12.955142$GNVTG,310.58,T,,M,0.93,N,1.73,K,A*23
###2023-11-09 13:06:13.031876$GNGGA,130613.20,3611.0395993,N,07544.9829097,W,1,24,0.6,1.280,M,-39.962,M,0.0,*64
###2023-11-09 13:06:13.034481$GPGSV,2,1,07,05,21,089,42,10,17,292,43,13,25,045,42,15,62,036,46*70
###2023-11-09 13:06:13.036746$GPGSV,2,2,07,18,77,282,47,23,49,314,46,24,49,137,46,,,,*48
###2023-11-09 13:06:13.039349$GLGSV,2,1,05,70,50,016,35,71,48,288,49,80,17,091,44,85,58,203,48*6E
###2023-11-09 13:06:13.040963$GLGSV,2,2,05,86,52,309,48,,,,,,,,,,,,*5F
###2023-11-09 13:06:13.043534$GAGSV,1,1,04,07,72,255,45,08,49,042,45,13,64,160,44,26,56,311,45*6D
###2023-11-09 13:06:13.046102$GBGSV,2,1,06,11,24,180,40,14,65,006,45,24,19,133,42,26,23,082,44*62
###2023-11-09 13:06:13.048050$GBGSV,2,2,06,28,43,289,46,33,58,302,48,,,,,,,,*61
###2023-11-09 13:06:13.049516$GNVTG,310.58,T,,M,0.74,N,1.37,K,A*2A
###2023-11-09 13:06:13.132114$GNGGA,130613.30,3611.0396135,N,07544.9829230,W,1,24,0.6,1.244,M,-39.962,M,0.0,*65
###2023-11-09 13:06:13.134699$GPGSV,2,1,07,05,21,089,42,10,17,292,43,13,25,045,42,15,62,036,46*70
###2023-11-09 13:06:13.136987$GPGSV,2,2,07,18,77,282,47,23,49,314,46,24,49,137,46,,,,*48
###2023-11-09 13:06:13.139580$GLGSV,2,1,05,70,50,016,35,71,48,288,49,80,17,091,44,85,58,203,48*6E
###2023-11-09 13:06:13.141195$GLGSV,2,2,05,86,52,309,48,,,,,,,,,,,,*5F
###2023-11-09 13:06:13.143767$GAGSV,1,1,04,07,72,255,45,08,49,042,45,13,64,160,44,26,56,311,45*6D
###2023-11-09 13:06:13.146336$GBGSV,2,1,06,11,24,180,40,14,65,006,45,24,19,133,42,26,23,082,44*62
###2023-11-09 13:06:13.148305$GBGSV,2,2,06,28,43,289,46,33,58,302,47,,,,,,,,*6E
###2023-11-09 13:06:13.149786$GNVTG,310.58,T,,M,0.58,N,1.08,K,A*28
###2023-11-09 13:06:13.241228$GNGGA,130613.40,3611.0396252,N,07544.9829319,W,1,24,0.6,1.212,M,-39.962,M,0.0,*69
###2023-11-09 13:06:13.243795$GPGSV,2,1,07,05,21,089,42,10,17,292,43,13,25,045,42,15,62,036,46*70
###2023-11-09 13:06:13.246032$GPGSV,2,2,07,18,77,282,47,23,49,314,46,24,49,137,46,,,,*48
###2023-11-09 13:06:13.248615$GLGSV,2,1,05,70,50,016,35,71,48,288,49,80,17,091,44,85,58,203,48*6E
###2023-11-09 13:06:13.250219$GLGSV,2,2,05,86,52,309,47,,,,,,,,,,,,*50
###2023-11-09 13:06:13.252823$GAGSV,1,1,04,07,72,255,45,08,49,042,45,13,64,160,44,26,56,311,45*6D
###2023-11-09 13:06:13.255427$GBGSV,2,1,06,11,24,180,40,14,65,006,45,24,19,133,42,26,23,082,44*62
###2023-11-09 13:06:13.257394$GBGSV,2,2,06,28,43,289,46,33,58,302,47,,,,,,,,*6E
###2023-11-09 13:06:13.258873$GNVTG,310.58,T,,M,0.45,N,0.83,K,A*26
###2023-11-09 13:06:13.329758$GNGGA,130613.50,3611.0396353,N,07544.9829360,W,1,24,0.6,1.176,M,-39.962,M,0.0,*67
###2023-11-09 13:06:13.332362$GPGSV,2,1,07,05,21,089,42,10,17,292,43,13,25,045,42,15,62,036,46*70
###2023-11-09 13:06:13.334627$GPGSV,2,2,07,18,77,282,47,23,49,314,46,24,49,137,46,,,,*48
###2023-11-09 13:06:13.337213$GLGSV,2,1,05,70,50,016,35,71,48,288,49,80,17,091,43,85,58,203,48*69
###2023-11-09 13:06:13.338819$GLGSV,2,2,05,86,52,309,47,,,,,,,,,,,,*50
###2023-11-09 13:06:13.341384$GAGSV,1,1,04,07,72,255,45,08,49,042,45,13,64,160,44,26,56,311,45*6D
###2023-11-09 13:06:13.343961$GBGSV,2,1,06,11,24,180,40,14,65,006,45,24,19,133,42,26,23,082,43*65
###2023-11-09 13:06:13.345892$GBGSV,2,2,06,28,43,289,46,33,58,302,47,,,,,,,,*6E
###2023-11-09 13:06:13.347365$GNVTG,310.58,T,,M,0.39,N,0.72,K,A*23
###2023-11-09 13:06:13.430729$GNGGA,130613.60,3611.0396477,N,07544.9829324,W,1,24,0.6,1.136,M,-39.962,M,0.0,*61
###2023-11-09 13:06:13.433326$GPGSV,2,1,07,05,21,089,41,10,17,292,43,13,25,045,40,15,62,036,46*71
###2023-11-09 13:06:13.435572$GPGSV,2,2,07,18,77,282,47,23,49,314,46,24,49,137,46,,,,*48
###2023-11-09 13:06:13.438161$GLGSV,2,1,05,70,50,016,35,71,48,288,49,80,17,091,43,85,58,203,48*69
###2023-11-09 13:06:13.439772$GLGSV,2,2,05,86,52,309,47,,,,,,,,,,,,*50
###2023-11-09 13:06:13.442351$GAGSV,1,1,04,07,72,255,45,08,49,042,45,13,64,160,44,26,56,311,45*6D
###2023-11-09 13:06:13.444939$GBGSV,2,1,06,11,24,180,40,14,65,006,45,24,19,133,42,26,23,082,42*64
###2023-11-09 13:06:13.446878$GBGSV,2,2,06,28,43,289,46,33,58,302,47,,,,,,,,*6E
###2023-11-09 13:06:13.448356$GNVTG,310.58,T,,M,0.58,N,1.08,K,A*28
###2023-11-09 13:06:13.529737$GNGGA,130613.70,3611.0396618,N,07544.9829204,W,1,24,0.6,1.101,M,-39.962,M,0.0,*6C
###2023-11-09 13:06:13.532308$GPGSV,2,1,07,05,21,089,41,10,17,292,43,13,25,045,41,15,62,036,46*70
###2023-11-09 13:06:13.534548$GPGSV,2,2,07,18,77,282,47,23,49,314,45,24,49,137,46,,,,*4B
###2023-11-09 13:06:13.537125$GLGSV,2,1,05,70,50,016,35,71,48,288,49,80,17,091,43,85,58,203,48*69
###2023-11-09 13:06:13.538718$GLGSV,2,2,05,86,52,309,47,,,,,,,,,,,,*50
###2023-11-09 13:06:13.541269$GAGSV,1,1,04,07,72,255,45,08,49,042,45,13,64,160,44,26,56,311,45*6D
###2023-11-09 13:06:13.543840$GBGSV,2,1,06,11,24,180,40,14,65,006,45,24,19,133,42,26,23,082,42*64
###2023-11-09 13:06:13.545773$GBGSV,2,2,06,28,43,289,46,33,58,302,48,,,,,,,,*61
###2023-11-09 13:06:13.547250$GNVTG,310.58,T,,M,0.68,N,1.26,K,A*27
###2023-11-09 13:06:13.628772$GNGGA,130613.80,3611.0396742,N,07544.9829033,W,1,24,0.6,1.070,M,-39.962,M,0.0,*6C
###2023-11-09 13:06:13.631372$GPGSV,2,1,07,05,21,089,41,10,17,292,43,13,25,045,41,15,62,036,46*70
###2023-11-09 13:06:13.633638$GPGSV,2,2,07,18,77,282,47,23,49,314,45,24,49,137,46,,,,*4B
###2023-11-09 13:06:13.636234$GLGSV,2,1,05,70,50,016,35,71,48,288,49,80,17,091,44,85,58,203,48*6E
###2023-11-09 13:06:13.637871$GLGSV,2,2,05,86,52,309,48,,,,,,,,,,,,*5F
###2023-11-09 13:06:13.640472$GAGSV,1,1,04,07,72,255,45,08,49,042,45,13,64,160,44,26,56,311,45*6D
###2023-11-09 13:06:13.643055$GBGSV,2,1,06,11,24,180,40,14,65,006,45,24,19,133,42,26,23,082,42*64
###2023-11-09 13:06:13.644997$GBGSV,2,2,06,28,43,289,46,33,58,302,48,,,,,,,,*61
###2023-11-09 13:06:13.646466$GNVTG,310.58,T,,M,0.66,N,1.22,K,A*2D
###2023-11-09 13:06:13.731654$GNGGA,130613.90,3611.0396834,N,07544.9828827,W,1,24,0.6,1.037,M,-39.962,M,0.0,*6C
###2023-11-09 13:06:13.734257$GPGSV,2,1,07,05,21,089,42,10,17,292,43,13,25,045,41,15,62,036,47*72
###2023-11-09 13:06:13.736513$GPGSV,2,2,07,18,77,282,47,23,49,314,45,24,49,137,46,,,,*4B
###2023-11-09 13:06:13.739114$GLGSV,2,1,05,70,50,016,35,71,48,288,49,80,17,091,44,85,58,203,48*6E
###2023-11-09 13:06:13.740728$GLGSV,2,2,05,86,52,309,47,,,,,,,,,,,,*50
###2023-11-09 13:06:13.743306$GAGSV,1,1,04,07,72,255,45,08,49,042,45,13,64,160,44,26,56,311,45*6D
###2023-11-09 13:06:13.745893$GBGSV,2,1,06,11,24,180,40,14,65,006,45,24,19,133,42,26,23,082,42*64
###2023-11-09 13:06:13.747877$GBGSV,2,2,06,28,43,289,46,33,58,302,48,,,,,,,,*61
###2023-11-09 13:06:13.749395$GNVTG,310.58,T,,M,0.72,N,1.33,K,A*28
###2023-11-09 13:06:13.831878$GNGGA,130614.00,3611.0396897,N,07544.9828603,W,1,24,0.6,1.008,M,-39.962,M,0.0,*6F
###2023-11-09 13:06:13.834467$GPGSV,2,1,07,05,21,089,42,10,17,292,44,13,25,045,41,15,62,036,47*75
###2023-11-09 13:06:13.836697$GPGSV,2,2,07,18,77,282,47,23,49,314,45,24,49,137,46,,,,*4B
###2023-11-09 13:06:13.839284$GLGSV,2,1,05,70,50,016,35,71,48,288,49,80,17,091,44,85,58,203,48*6E
###2023-11-09 13:06:13.840891$GLGSV,2,2,05,86,52,309,47,,,,,,,,,,,,*50
###2023-11-09 13:06:13.843453$GAGSV,1,1,04,07,72,255,45,08,49,042,45,13,64,160,44,26,56,311,45*6D
###2023-11-09 13:06:13.846028$GBGSV,2,1,06,11,24,180,40,14,65,006,45,24,19,133,42,26,23,082,43*65
###2023-11-09 13:06:13.847981$GBGSV,2,2,06,28,43,289,46,33,58,302,47,,,,,,,,*6E
###2023-11-09 13:06:13.849434$GNVTG,310.58,T,,M,0.66,N,1.22,K,A*2D
###2023-11-09 13:06:13.934375$GNGGA,130614.10,3611.0396921,N,07544.9828380,W,1,24,0.6,0.983,M,-39.962,M,0.0,*67
###2023-11-09 13:06:13.936983$GPGSV,2,1,07,05,21,089,42,10,17,292,44,13,25,045,41,15,62,036,47*75
###2023-11-09 13:06:13.939238$GPGSV,2,2,07,18,77,282,47,23,49,314,45,24,49,137,46,,,,*4B
###2023-11-09 13:06:13.941806$GLGSV,2,1,05,70,50,016,35,71,48,288,49,80,17,091,44,85,58,203,48*6E
###2023-11-09 13:06:13.943419$GLGSV,2,2,05,86,52,309,47,,,,,,,,,,,,*50
###2023-11-09 13:06:13.946288$GAGSV,1,1,04,07,72,255,45,08,49,042,45,13,64,160,44,26,56,311,45*6D
###2023-11-09 13:06:13.948902$GBGSV,2,1,06,11,24,180,40,14,65,006,45,24,19,133,41,26,23,082,44*61
###2023-11-09 13:06:13.950857$GBGSV,2,2,06,28,43,289,46,33,58,302,47,,,,,,,,*6E
###2023-11-09 13:06:13.952328$GNVTG,310.58,T,,M,0.66,N,1.22,K,A*2D
###2023-11-09 13:06:14.033720$GNGGA,130614.20,3611.0396930,N,07544.9828150,W,1,24,0.6,0.954,M,-39.962,M,0.0,*61
###2023-11-09 13:06:14.036305$GPGSV,2,1,07,05,21,089,42,10,17,292,44,13,25,045,41,15,62,036,47*75
###2023-11-09 13:06:14.038578$GPGSV,2,2,07,18,77,282,47,23,49,314,45,24,49,137,46,,,,*4B
###2023-11-09 13:06:14.041142$GLGSV,2,1,05,70,50,016,35,71,48,288,49,80,17,091,44,85,58,203,48*6E
###2023-11-09 13:06:14.042756$GLGSV,2,2,05,86,52,309,47,,,,,,,,,,,,*50
###2023-11-09 13:06:14.045325$GAGSV,1,1,04,07,72,255,45,08,49,042,45,13,64,160,44,26,56,311,45*6D
