###2023-11-09 13:07:42.541024$GLGSV,2,2,05,86,52,309,47,,,,,,,,,,,,*50
###2023-11-09 13:07:42.543601$GAGSV,1,1,04,07,72,257,45,08,49,042,44,13,64,160,45,26,56,310,45*6E
###2023-11-09 13:07:42.546185$GBGSV,2,1,06,11,23,180,40,14,65,008,46,24,20,132,42,26,23,082,43*64
###2023-11-09 13:07:42.548154$GBGSV,2,2,06,28,43,289,47,33,58,302,47,,,,,,,,*6F
###2023-11-09 13:07:42.549634$GNVTG,129.39,T,,M,3.83,N,7.09,K,A*25
###2023-11-09 13:07:42.628610$GNGGA,130742.80,3611.0544625,N,07544.9719038,W,1,24,0.6,0.855,M,-39.961,M,0.0,*6A
###2023-11-09 13:07:42.631191$GPGSV,2,1,07,05,21,090,41,10,18,292,44,13,24,045,42,15,62,037,46*73
###2023-11-09 13:07:42.633424$GPGSV,2,2,07,18,77,281,46,23,50,315,46,24,49,136,45,,,,*41
###2023-11-09 13:07:42.635980$GLGSV,2,1,05,70,50,016,35,71,48,288,48,80,17,091,43,85,58,203,48*68
###2023-11-09 13:07:42.637589$GLGSV,2,2,05,86,52,309,47,,,,,,,,,,,,*50
###2023-11-09 13:07:42.640137$GAGSV,1,1,04,07,72,257,45,08,49,042,44,13,64,160,45,26,56,310,45*6E
###2023-11-09 13:07:42.642709$GBGSV,2,1,06,11,23,180,42,14,65,008,46,24,20,132,42,26,23,082,43*66
###2023-11-09 13:07:42.644630$GBGSV,2,2,06,28,43,289,47,33,58,302,47,,,,,,,,*6F
###2023-11-09 13:07:42.646083$GNVTG,126.29,T,,M,3.69,N,6.84,K,A*2B
###2023-11-09 13:07:42.727405$GNGGA,130742.90,3611.0544053,N,07544.9717972,W,1,24,0.6,0.804,M,-39.961,M,0.0,*61
###2023-11-09 13:07:42.730021$GPGSV,2,1,07,05,21,090,41,10,18,292,44,13,24,045,42,15,62,037,46*73
###2023-11-09 13:07:42.732283$GPGSV,2,2,07,18,77,281,46,23,50,315,45,24,49,136,45,,,,*42
###2023-11-09 13:07:42.734863$GLGSV,2,1,05,70,50,016,35,71,48,288,48,80,17,091,43,85,58,203,49*69
###2023-11-09 13:07:42.736469$GLGSV,2,2,05,86,52,309,47,,,,,,,,,,,,*50
###2023-11-09 13:07:42.739051$GAGSV,1,1,04,07,72,257,45,08,49,042,44,13,64,160,45,26,56,310,45*6E
###2023-11-09 13:07:42.741634$GBGSV,2,1,06,11,23,180,42,14,65,008,46,24,20,132,43,26,23,082,43*67
###2023-11-09 13:07:42.743561$GBGSV,2,2,06,28,43,289,47,33,58,302,47,,,,,,,,*6F
###2023-11-09 13:07:42.745017$GNVTG,120.72,T,,M,3.81,N,7.06,K,A*2E
###2023-11-09 13:07:42.832358$GNGGA,130743.00,3611.0543569,N,07544.9716793,W,1,24,0.6,0.788,M,-39.961,M,0.0,*69
###2023-11-09 13:07:42.834942$GPGSV,2,1,07,05,21,090,40,10,18,292,44,13,24,045,42,15,62,037,46*72
###2023-11-09 13:07:42.837215$GPGSV,2,2,07,18,77,281,46,23,50,315,46,24,49,136,45,,,,*41
###2023-11-09 13:07:42.839790$GLGSV,2,1,05,70,50,016,35,71,48,288,49,80,17,091,43,85,58,203,49*68
###2023-11-09 13:07:42.841403$GLGSV,2,2,05,86,52,309,47,,,,,,,,,,,,*50
###2023-11-09 13:07:42.843959$GAGSV,1,1,04,07,72,257,45,08,49,042,43,13,64,160,45,26,56,310,44*68
###2023-11-09 13:07:42.846542$GBGSV,2,1,06,11,23,180,42,14,65,008,46,24,20,132,43,26,23,082,41*65
###2023-11-09 13:07:42.848496$GBGSV,2,2,06,28,43,289,47,33,58,302,47,,,,,,,,*6F
###2023-11-09 13:07:42.849962$GNVTG,113.20,T,,M,3.95,N,7.31,K,A*28
###2023-11-09 13:07:42.929357$GNGGA,130743.10,3611.0543137,N,07544.9715534,W,1,24,0.6,0.787,M,-39.961,M,0.0,*64
###2023-11-09 13:07:42.931928$GPGSV,2,1,07,05,21,090,40,10,18,292,44,13,24,045,41,15,62,037,45*72
###2023-11-09 13:07:42.934169$GPGSV,2,2,07,18,77,281,46,23,50,315,45,24,49,136,45,,,,*42
###2023-11-09 13:07:42.936736$GLGSV,2,1,05,70,50,016,35,71,48,288,49,80,17,091,43,85,58,203,49*68
###2023-11-09 13:07:42.938341$GLGSV,2,2,05,86,52,309,47,,,,,,,,,,,,*50
###2023-11-09 13:07:42.940888$GAGSV,1,1,04,07,72,257,45,08,49,042,43,13,64,160,45,26,56,310,44*68
###2023-11-09 13:07:42.943439$GBGSV,2,1,06,11,23,180,42,14,65,008,46,24,20,132,43,26,23,081,41*66
###2023-11-09 13:07:42.945363$GBGSV,2,2,06,28,43,289,48,33,58,302,47,,,,,,,,*60
###2023-11-09 13:07:42.946821$GNVTG,112.77,T,,M,4.06,N,7.52,K,A*23
###2023-11-09 13:07:43.032239$GNGGA,130743.20,3611.0542697,N,07544.9714258,W,1,24,0.6,0.781,M,-39.961,M,0.0,*61
###2023-11-09 13:07:43.034834$GPGSV,2,1,07,05,21,090,40,10,18,292,44,13,24,045,41,15,62,037,45*72
###2023-11-09 13:07:43.037108$GPGSV,2,2,07,18,77,281,47,23,50,315,46,24,49,136,45,,,,*40
###2023-11-09 13:07:43.039673$GLGSV,2,1,05,70,50,016,35,71,48,288,49,80,17,091,43,85,58,203,49*68
###2023-11-09 13:07:43.041275$GLGSV,2,2,05,86,52,309,47,,,,,,,,,,,,*50
###2023-11-09 13:07:43.043837$GAGSV,1,1,04,07,72,257,45,08,49,042,43,13,64,160,45,26,56,310,45*69
###2023-11-09 13:07:43.046407$GBGSV,2,1,06,11,23,180,42,14,65,008,46,24,20,132,43,26,23,081,41*66
###2023-11-09 13:07:43.048350$GBGSV,2,2,06,28,43,289,48,33,58,302,47,,,,,,,,*60
###2023-11-09 13:07:43.049814$GNVTG,113.31,T,,M,4.04,N,7.49,K,A*28
###2023-11-09 13:07:43.129486$GNGGA,130743.30,3611.0542261,N,07544.9712989,W,1,24,0.6,0.778,M,-39.961,M,0.0,*6A
###2023-11-09 13:07:43.132061$GPGSV,2,1,07,05,21,090,40,10,18,292,44,13,24,045,41,15,62,037,46*71
###2023-11-09 13:07:43.134309$GPGSV,2,2,07,18,77,281,47,23,50,315,46,24,49,136,45,,,,*40
###2023-11-09 13:07:43.136878$GLGSV,2,1,05,70,50,016,35,71,48,288,49,80,17,091,43,85,58,203,49*68
###2023-11-09 13:07:43.138500$GLGSV,2,2,05,86,52,309,48,,,,,,,,,,,,*5F
###2023-11-09 13:07:43.141069$GAGSV,1,1,04,07,72,257,45,08,49,042,43,13,64,160,45,26,56,310,45*69
###2023-11-09 13:07:43.143648$GBGSV,2,1,06,11,23,180,42,14,65,008,46,24,20,132,43,26,23,081,41*66
###2023-11-09 13:07:43.145584$GBGSV,2,2,06,28,43,289,48,33,58,302,47,,,,,,,,*60
###2023-11-09 13:07:43.147060$GNVTG,112.62,T,,M,4.02,N,7.45,K,A*25
###2023-11-09 13:07:43.230223$GNGGA,130743.40,3611.0541833,N,07544.9711687,W,1,24,0.6,0.789,M,-39.961,M,0.0,*6F
###2023-11-09 13:07:43.232809$GPGSV,2,1,07,05,21,090,40,10,18,292,44,13,24,045,41,15,62,037,46*71
###2023-11-09 13:07:43.235044$GPGSV,2,2,07,18,77,281,47,23,50,315,46,24,49,136,45,,,,*40
###2023-11-09 13:07:43.237627$GLGSV,2,1,05,70,50,016,35,71,48,288,49,80,17,091,43,85,58,203,49*68
###2023-11-09 13:07:43.239222$GLGSV,2,2,05,86,52,309,48,,,,,,,,,,,,*5F
###2023-11-09 13:07:43.241766$GAGSV,1,1,04,07,72,257,45,08,49,042,43,13,64,160,45,26,56,310,45*69
###2023-11-09 13:07:43.244308$GBGSV,2,1,06,11,23,180,41,14,65,008,46,24,20,132,42,26,23,081,41*64
###2023-11-09 13:07:43.246228$GBGSV,2,2,06,28,43,289,47,33,58,302,47,,,,,,,,*6F
###2023-11-09 13:07:43.247692$GNVTG,111.35,T,,M,4.20,N,7.78,K,A*2A
###2023-11-09 13:07:43.328370$GNGGA,130743.50,3611.0541383,N,07544.9710318,W,1,24,0.6,0.797,M,-39.961,M,0.0,*63
###2023-11-09 13:07:43.330969$GPGSV,2,1,07,05,21,090,40,10,18,292,44,13,24,045,41,15,62,037,46*71
###2023-11-09 13:07:43.333220$GPGSV,2,2,07,18,77,281,47,23,50,315,46,24,49,136,45,,,,*40
###2023-11-09 13:07:43.335797$GLGSV,2,1,05,70,50,016,35,71,48,288,49,80,17,091,43,85,58,203,48*69
###2023-11-09 13:07:43.337423$GLGSV,2,2,05,86,52,309,48,,,,,,,,,,,,*5F
###2023-11-09 13:07:43.339984$GAGSV,1,1,04,07,72,257,45,08,49,042,44,13,64,160,45,26,56,310,45*6E
###2023-11-09 13:07:43.342568$GBGSV,2,1,06,11,23,180,41,14,65,008,46,24,20,132,41,26,23,081,43*65
###2023-11-09 13:07:43.344511$GBGSV,2,2,06,28,43,289,47,33,58,302,47,,,,,,,,*6F
###2023-11-09 13:07:43.345981$GNVTG,112.62,T,,M,4.45,N,8.24,K,A*2E
###2023-11-09 13:07:43.429973$GNGGA,130743.60,3611.0540869,N,07544.9708930,W,1,24,0.6,0.793,M,-39.961,M,0.0,*63
###2023-11-09 13:07:43.432567$GPGSV,2,1,07,05,21,090,40,10,18,292,44,13,24,045,42,15,62,037,46*72
###2023-11-09 13:07:43.434826$GPGSV,2,2,07,18,77,281,47,23,50,315,46,24,49,136,45,,,,*40
###2023-11-09 13:07:43.437444$GLGSV,2,1,05,70,50,016,35,71,48,288,49,80,17,091,43,85,58,203,48*69
###2023-11-09 13:07:43.439054$GLGSV,2,2,05,86,52,309,48,,,,,,,,,,,,*5F
###2023-11-09 13:07:43.441623$GAGSV,1,1,04,07,72,257,45,08,49,042,44,13,64,160,45,26,56,310,45*6E
###2023-11-09 13:07:43.444208$GBGSV,2,1,06,11,23,180,41,14,65,008,46,24,20,132,40,26,23,081,43*64
###2023-11-09 13:07:43.446153$GBGSV,2,2,06,28,43,289,47,33,58,302,47,,,,,,,,*6F
###2023-11-09 13:07:43.447635$GNVTG,116.27,T,,M,4.49,N,8.32,K,A*20
###2023-11-09 13:07:43.528478$GNGGA,130743.70,3611.0540281,N,07544.9707579,W,1,24,0.6,0.771,M,-39.961,M,0.0,*6C
###2023-11-09 13:07:43.531059$GPGSV,2,1,07,05,21,090,40,10,18,292,44,13,24,045,41,15,62,037,46*71
###2023-11-09 13:07:43.533298$GPGSV,2,2,07,18,77,281,47,23,50,315,45,24,49,136,45,,,,*43
###2023-11-09 13:07:43.535872$GLGSV,2,1,05,70,50,016,35,71,48,288,49,80,17,091,43,85,58,203,48*69
###2023-11-09 13:07:43.537794$GLGSV,2,2,05,86,52,309,48,,,,,,,,,,,,*5F
###2023-11-09 13:07:43.540366$GAGSV,1,1,04,07,72,257,45,08,49,042,44,13,64,160,45,26,56,310,45*6E
###2023-11-09 13:07:43.542931$GBGSV,2,1,06,11,23,180,41,14,65,008,46,24,20,132,40,26,23,081,42*65
###2023-11-09 13:07:43.544859$GBGSV,2,2,06,28,43,289,47,33,58,302,47,,,,,,,,*6F
###2023-11-09 13:07:43.546316$GNVTG,119.89,T,,M,4.49,N,8.32,K,A*2B
###2023-11-09 13:07:43.627648$GNGGA,130743.80,3611.0539632,N,07544.9706286,W,1,24,0.6,0.733,M,-39.961,M,0.0,*61
###2023-11-09 13:07:43.630252$GPGSV,2,1,07,05,21,090,40,10,18,292,44,13,24,045,40,15,62,037,46*70
###2023-11-09 13:07:43.632506$GPGSV,2,2,07,18,77,281,47,23,50,315,45,24,49,136,45,,,,*43
###2023-11-09 13:07:43.635074$GLGSV,2,1,05,70,50,016,35,71,48,288,49,80,17,091,43,85,58,203,49*68
###2023-11-09 13:07:43.636681$GLGSV,2,2,05,86,52,309,48,,,,,,,,,,,,*5F
