###2023-11-09 13:08:50.532723$GPGSV,2,1,07,05,20,090,42,10,19,293,44,13,24,045,39,15,61,037,45*7D
###2023-11-09 13:08:50.535001$GPGSV,2,2,07,18,78,277,47,23,50,316,44,24,50,135,46,,,,*4F
###2023-11-09 13:08:50.537609$GLGSV,2,1,05,70,50,017,35,71,48,290,49,80,18,090,44,85,57,203,49*66
###2023-11-09 13:08:50.539234$GLGSV,2,2,05,86,53,308,47,,,,,,,,,,,,*50
###2023-11-09 13:08:50.541814$GAGSV,1,1,04,07,72,258,45,08,48,043,44,13,64,160,45,26,57,310,44*61
###2023-11-09 13:08:50.544401$GBGSV,2,1,06,11,23,180,43,14,65,008,45,24,20,132,44,26,23,081,41*63
###2023-11-09 13:08:50.546334$GBGSV,2,2,06,28,43,287,47,33,59,304,46,,,,,,,,*67
###2023-11-09 13:08:50.547789$GNVTG,78.24,T,,M,5.23,N,9.68,K,A*19
###2023-11-09 13:08:50.629880$GNGGA,130850.80,3611.0185182,N,07544.9955193,W,1,24,0.6,0.789,M,-39.962,M,0.0,*6E
###2023-11-09 13:08:50.632482$GPGSV,2,1,07,05,20,090,42,10,19,293,45,13,24,045,39,15,61,037,45*7C
###2023-11-09 13:08:50.634742$GPGSV,2,2,07,18,78,277,47,23,50,316,44,24,50,135,46,,,,*4F
###2023-11-09 13:08:50.637339$GLGSV,2,1,05,70,50,017,35,71,48,290,48,80,18,090,43,85,57,203,49*60
###2023-11-09 13:08:50.638955$GLGSV,2,2,05,86,53,308,47,,,,,,,,,,,,*50
###2023-11-09 13:08:50.641516$GAGSV,1,1,04,07,72,258,45,08,48,043,44,13,64,160,45,26,57,310,44*61
###2023-11-09 13:08:50.644098$GBGSV,2,1,06,11,23,180,42,14,65,008,45,24,20,132,44,26,23,081,42*61
###2023-11-09 13:08:50.646028$GBGSV,2,2,06,28,43,287,47,33,59,304,47,,,,,,,,*66
###2023-11-09 13:08:50.647483$GNVTG,76.96,T,,M,5.21,N,9.65,K,A*11
###2023-11-09 13:08:50.729752$GNGGA,130850.90,3611.0185522,N,07544.9953456,W,1,24,0.6,0.831,M,-39.962,M,0.0,*67
###2023-11-09 13:08:50.732337$GPGSV,2,1,07,05,20,090,42,10,19,293,45,13,24,045,39,15,61,037,45*7C
###2023-11-09 13:08:50.734586$GPGSV,2,2,07,18,78,277,47,23,50,316,45,24,50,135,46,,,,*4E
###2023-11-09 13:08:50.737156$GLGSV,2,1,05,70,50,017,35,71,48,290,48,80,18,090,43,85,57,203,49*60
###2023-11-09 13:08:50.738755$GLGSV,2,2,05,86,53,308,47,,,,,,,,,,,,*50
###2023-11-09 13:08:50.741312$GAGSV,1,1,04,07,72,258,45,08,48,043,45,13,64,160,45,26,57,310,45*61
###2023-11-09 13:08:50.743881$GBGSV,2,1,06,11,23,180,42,14,65,008,45,24,20,132,43,26,23,081,42*66
###2023-11-09 13:08:50.745811$GBGSV,2,2,06,28,43,287,47,33,59,304,47,,,,,,,,*66
###2023-11-09 13:08:50.747246$GNVTG,75.78,T,,M,5.13,N,9.50,K,A*15
###2023-11-09 13:08:50.831881$GNGGA,130851.00,3611.0185859,N,07544.9951737,W,1,24,0.6,0.876,M,-39.962,M,0.0,*6B
###2023-11-09 13:08:50.834477$GPGSV,2,1,07,05,20,090,42,10,19,293,44,13,24,045,39,15,61,037,45*7D
###2023-11-09 13:08:50.836731$GPGSV,2,2,07,18,78,277,47,23,50,316,45,24,50,135,46,,,,*4E
###2023-11-09 13:08:50.839334$GLGSV,2,1,05,70,50,017,35,71,48,290,48,80,18,090,43,85,57,203,48*61
###2023-11-09 13:08:50.840947$GLGSV,2,2,05,86,53,308,48,,,,,,,,,,,,*5F
###2023-11-09 13:08:50.843511$GAGSV,1,1,04,07,72,258,45,08,48,043,45,13,64,160,44,26,57,310,45*60
###2023-11-09 13:08:50.846105$GBGSV,2,1,06,11,23,180,41,14,65,008,45,24,20,132,43,26,23,081,42*65
###2023-11-09 13:08:50.848059$GBGSV,2,2,06,28,43,287,48,33,59,304,48,,,,,,,,*66
###2023-11-09 13:08:50.849487$GNVTG,76.84,T,,M,5.09,N,9.43,K,A*1C
###2023-11-09 13:08:50.928889$GNGGA,130851.10,3611.0186153,N,07544.9950007,W,1,24,0.6,0.918,M,-39.962,M,0.0,*66
###2023-11-09 13:08:50.931478$GPGSV,2,1,07,05,20,090,41,10,19,293,44,13,24,045,40,15,61,037,45*70
###2023-11-09 13:08:50.933740$GPGSV,2,2,07,18,78,277,47,23,50,316,45,24,50,135,46,,,,*4E
###2023-11-09 13:08:50.936314$GLGSV,2,1,05,70,50,017,35,71,48,290,48,80,18,090,43,85,57,203,48*61
###2023-11-09 13:08:50.937938$GLGSV,2,2,05,86,53,308,48,,,,,,,,,,,,*5F
###2023-11-09 13:08:50.940510$GAGSV,1,1,04,07,72,258,45,08,48,043,45,13,64,160,44,26,57,310,45*60
###2023-11-09 13:08:50.943098$GBGSV,2,1,06,11,23,180,41,14,65,008,45,24,20,132,43,26,23,081,42*65
###2023-11-09 13:08:50.945041$GBGSV,2,2,06,28,43,287,47,33,59,304,48,,,,,,,,*69
###2023-11-09 13:08:50.946478$GNVTG,79.31,T,,M,5.13,N,9.50,K,A*14
###2023-11-09 13:08:51.030863$GNGGA,130851.20,3611.0186425,N,07544.9948280,W,1,24,0.6,0.947,M,-39.962,M,0.0,*6F
###2023-11-09 13:08:51.033446$GPGSV,2,1,07,05,20,090,42,10,19,293,44,13,24,045,40,15,61,037,45*73
###2023-11-09 13:08:51.035698$GPGSV,2,2,07,18,78,277,47,23,50,316,45,24,50,135,46,,,,*4E
###2023-11-09 13:08:51.038281$GLGSV,2,1,05,70,50,017,35,71,48,290,48,80,18,090,43,85,57,203,48*61
###2023-11-09 13:08:51.039891$GLGSV,2,2,05,86,53,308,48,,,,,,,,,,,,*5F
###2023-11-09 13:08:51.042440$GAGSV,1,1,04,07,72,258,45,08,48,043,44,13,64,160,44,26,57,310,45*61
###2023-11-09 13:08:51.045013$GBGSV,2,1,06,11,23,180,41,14,65,008,45,24,20,132,43,26,23,081,42*65
###2023-11-09 13:08:51.046955$GBGSV,2,2,06,28,43,287,47,33,59,304,47,,,,,,,,*66
###2023-11-09 13:08:51.048384$GNVTG,78.69,T,,M,5.03,N,9.32,K,A*1D
###2023-11-09 13:08:51.129536$GNGGA,130851.30,3611.0186707,N,07544.9946599,W,1,24,0.6,0.975,M,-39.962,M,0.0,*6D
###2023-11-09 13:08:51.132147$GPGSV,2,1,07,05,20,090,42,10,19,293,44,13,24,045,40,15,61,037,45*73
###2023-11-09 13:08:51.134410$GPGSV,2,2,07,18,78,277,47,23,50,316,45,24,50,135,46,,,,*4E
###2023-11-09 13:08:51.137009$GLGSV,2,1,05,70,50,017,35,71,48,290,48,80,18,090,43,85,57,203,49*60
###2023-11-09 13:08:51.138623$GLGSV,2,2,05,86,53,308,48,,,,,,,,,,,,*5F
###2023-11-09 13:08:51.141198$GAGSV,1,1,04,07,72,258,45,08,48,043,44,13,64,160,44,26,57,310,45*61
###2023-11-09 13:08:51.143782$GBGSV,2,1,06,11,23,180,42,14,65,008,44,24,20,132,44,26,23,081,41*63
###2023-11-09 13:08:51.145712$GBGSV,2,2,06,28,43,287,47,33,59,304,47,,,,,,,,*66
###2023-11-09 13:08:51.147169$GNVTG,77.84,T,,M,4.86,N,9.00,K,A*1C
###2023-11-09 13:08:51.229642$GNGGA,130851.40,3611.0187034,N,07544.9944958,W,1,24,0.6,1.004,M,-39.962,M,0.0,*61
###2023-11-09 13:08:51.232239$GPGSV,2,1,07,05,20,090,42,10,19,293,44,13,24,045,40,15,61,037,45*73
###2023-11-09 13:08:51.234491$GPGSV,2,2,07,18,78,277,47,23,50,316,44,24,50,135,46,,,,*4F
###2023-11-09 13:08:51.237073$GLGSV,2,1,05,70,50,017,35,71,48,290,48,80,18,090,43,85,57,203,49*60
###2023-11-09 13:08:51.238687$GLGSV,2,2,05,86,53,308,47,,,,,,,,,,,,*50
###2023-11-09 13:08:51.241254$GAGSV,1,1,04,07,72,258,45,08,48,043,44,13,64,160,44,26,57,310,45*61
###2023-11-09 13:08:51.243828$GBGSV,2,1,06,11,23,180,42,14,65,008,44,24,20,132,44,26,23,081,41*63
###2023-11-09 13:08:51.245753$GBGSV,2,2,06,28,43,287,47,33,59,304,47,,,,,,,,*66
###2023-11-09 13:08:51.247192$GNVTG,74.59,T,,M,4.88,N,9.04,K,A*15
###2023-11-09 13:08:51.329869$GNGGA,130851.50,3611.0187422,N,07544.9943364,W,1,24,0.6,1.035,M,-39.962,M,0.0,*63
###2023-11-09 13:08:51.332453$GPGSV,2,1,07,05,20,090,42,10,19,293,44,13,24,045,40,15,61,037,45*73
###2023-11-09 13:08:51.334692$GPGSV,2,2,07,18,78,277,47,23,50,316,44,24,50,135,46,,,,*4F
###2023-11-09 13:08:51.337261$GLGSV,2,1,05,70,50,017,35,71,48,290,48,80,18,090,43,85,57,203,49*60
###2023-11-09 13:08:51.338866$GLGSV,2,2,05,86,53,308,47,,,,,,,,,,,,*50
###2023-11-09 13:08:51.341416$GAGSV,1,1,04,07,72,258,45,08,48,043,44,13,64,160,44,26,57,310,44*60
###2023-11-09 13:08:51.343982$GBGSV,2,1,06,11,23,180,42,14,65,008,44,24,20,132,44,26,23,081,41*63
###2023-11-09 13:08:51.345900$GBGSV,2,2,06,28,43,287,47,33,59,304,46,,,,,,,,*67
###2023-11-09 13:08:51.347329$GNVTG,71.88,T,,M,4.72,N,8.75,K,A*1E
###2023-11-09 13:08:51.428295$GNGGA,130851.60,3611.0187875,N,07544.9941814,W,1,24,0.6,1.072,M,-39.962,M,0.0,*63
###2023-11-09 13:08:51.430897$GPGSV,2,1,07,05,20,090,42,10,19,293,44,13,24,045,39,15,61,037,45*7D
###2023-11-09 13:08:51.433156$GPGSV,2,2,07,18,78,277,47,23,50,316,44,24,50,135,46,,,,*4F
###2023-11-09 13:08:51.435732$GLGSV,2,1,05,70,50,017,35,71,48,290,48,80,18,090,43,85,57,203,49*60
###2023-11-09 13:08:51.437358$GLGSV,2,2,05,86,53,308,47,,,,,,,,,,,,*50
###2023-11-09 13:08:51.439947$GAGSV,1,1,04,07,72,258,45,08,48,043,44,13,64,160,45,26,57,310,44*61
###2023-11-09 13:08:51.442532$GBGSV,2,1,06,11,23,180,42,14,65,008,44,24,20,132,44,26,23,081,41*63
###2023-11-09 13:08:51.444472$GBGSV,2,2,06,28,43,287,47,33,59,304,46,,,,,,,,*67
###2023-11-09 13:08:51.445903$GNVTG,68.09,T,,M,4.78,N,8.86,K,A*19
###2023-11-09 13:08:51.530495$GNGGA,130851.70,3611.0188370,N,07544.9940261,W,1,24,0.6,1.097,M,-39.962,M,0.0,*61
###2023-11-09 13:08:51.533094$GPGSV,2,1,07,05,20,090,41,10,19,293,44,13,24,045,39,15,61,037,45*7E
###2023-11-09 13:08:51.535665$GPGSV,2,2,07,18,78,277,47,23,50,316,44,24,50,135,45,,,,*4C
###2023-11-09 13:08:51.538295$GLGSV,2,1,05,70,50,017,35,71,48,290,48,80,18,090,43,85,57,203,49*60
###2023-11-09 13:08:51.539920$GLGSV,2,2,05,86,53,308,48,,,,,,,,,,,,*5F
###2023-11-09 13:08:51.542505$GAGSV,1,1,04,07,72,258,45,08,48,043,44,13,64,160,45,26,57,310,45*60
###2023-11-09 13:08:51.545116$GBGSV,2,1,06,11,23,180,42,14,65,008,44,24,20,132,44,26,23,081,41*63
###2023-11-09 13:08:51.547088$GBGSV,2,2,06,28,43,287,47,33,59,304,47,,,,,,,,*66
###2023-11-09 13:08:51.548531$GNVTG,68.63,T,,M,4.86,N,9.00,K,A*1B
###2023-11-09 13:08:51.628640$GNGGA,130851.80,3611.0188839,N,07544.9938680,W,1,24,0.6,1.103,M,-39.962,M,0.0,*60
###2023-11-09 13:08:51.631230$GPGSV,2,1,07,05,20,090,41,10,19,293,45,13,24,045,41,15,61,037,45*70
