###2023-11-09 13:08:20.532361$GPGSV,2,1,07,05,20,090,43,10,18,292,43,13,24,045,41,15,62,037,46*74
###2023-11-09 13:08:20.534637$GPGSV,2,2,07,18,77,281,46,23,50,315,46,24,49,136,44,,,,*40
###2023-11-09 13:08:20.537241$GLGSV,2,1,05,70,50,017,37,71,48,290,49,80,18,090,45,85,57,203,47*6B
###2023-11-09 13:08:20.538867$GLGSV,2,2,05,86,53,308,49,,,,,,,,,,,,*5E
###2023-11-09 13:08:20.541441$GAGSV,1,1,04,07,72,258,44,08,49,042,45,13,64,160,44,26,56,310,45*60
###2023-11-09 13:08:20.544024$GBGSV,2,1,06,11,23,180,40,14,65,008,46,24,20,132,42,26,23,081,44*60
###2023-11-09 13:08:20.545969$GBGSV,2,2,06,28,43,287,47,33,59,304,48,,,,,,,,*69
###2023-11-09 13:08:20.547492$GNVTG,243.29,T,,M,5.68,N,10.51,K,A*13
###2023-11-09 13:08:20.630393$GNGGA,130820.80,3611.0368699,N,07545.0121471,W,1,24,0.6,1.187,M,-39.962,M,0.0,*66
###2023-11-09 13:08:20.633001$GPGSV,2,1,07,05,20,090,44,10,18,292,43,13,24,045,41,15,62,037,46*73
###2023-11-09 13:08:20.635271$GPGSV,2,2,07,18,77,281,46,23,50,315,46,24,49,136,45,,,,*41
###2023-11-09 13:08:20.637884$GLGSV,2,1,05,70,50,017,37,71,48,290,49,80,18,090,45,85,57,203,47*6B
###2023-11-09 13:08:20.639512$GLGSV,2,2,05,86,53,308,48,,,,,,,,,,,,*5F
###2023-11-09 13:08:20.642099$GAGSV,1,1,04,07,72,258,44,08,49,042,45,13,64,160,45,26,56,310,45*61
###2023-11-09 13:08:20.644695$GBGSV,2,1,06,11,23,180,40,14,65,008,46,24,20,132,42,26,23,081,44*60
###2023-11-09 13:08:20.646644$GBGSV,2,2,06,28,43,287,47,33,59,304,48,,,,,,,,*69
###2023-11-09 13:08:20.648214$GNVTG,245.92,T,,M,5.73,N,10.62,K,A*1F
###2023-11-09 13:08:20.729005$GNGGA,130820.90,3611.0368051,N,07545.0123296,W,1,24,0.6,1.199,M,-39.962,M,0.0,*67
###2023-11-09 13:08:20.731595$GPGSV,2,1,07,05,20,090,44,10,18,292,42,13,24,045,41,15,62,037,46*72
###2023-11-09 13:08:20.733845$GPGSV,2,2,07,18,77,281,46,23,50,315,46,24,49,136,45,,,,*41
###2023-11-09 13:08:20.736413$GLGSV,2,1,05,70,50,017,36,71,48,290,49,80,18,090,45,85,57,203,47*6A
###2023-11-09 13:08:20.738024$GLGSV,2,2,05,86,53,308,48,,,,,,,,,,,,*5F
###2023-11-09 13:08:20.740587$GAGSV,1,1,04,07,72,258,44,08,49,042,45,13,64,160,45,26,56,310,45*61
###2023-11-09 13:08:20.743168$GBGSV,2,1,06,11,23,180,40,14,65,008,46,24,20,132,43,26,23,081,44*61
###2023-11-09 13:08:20.745104$GBGSV,2,2,06,28,43,287,47,33,59,304,48,,,,,,,,*69
###2023-11-09 13:08:20.746598$GNVTG,246.69,T,,M,5.81,N,10.76,K,A*10
###2023-11-09 13:08:20.831751$GNGGA,130821.00,3611.0367380,N,07545.0125145,W,1,24,0.6,1.194,M,-39.962,M,0.0,*69
###2023-11-09 13:08:20.834356$GPGSV,2,1,07,05,20,090,44,10,18,292,42,13,24,045,41,15,62,037,46*72
###2023-11-09 13:08:20.836622$GPGSV,2,2,07,18,77,281,46,23,50,315,46,24,49,136,45,,,,*41
###2023-11-09 13:08:20.839228$GLGSV,2,1,05,70,50,017,36,71,48,290,49,80,18,090,45,85,57,203,48*65
###2023-11-09 13:08:20.840847$GLGSV,2,2,05,86,53,308,48,,,,,,,,,,,,*5F
###2023-11-09 13:08:20.843411$GAGSV,1,1,04,07,72,258,44,08,49,042,45,13,64,160,45,26,56,310,45*61
###2023-11-09 13:08:20.846005$GBGSV,2,1,06,11,23,180,40,14,65,008,46,24,20,132,43,26,23,081,44*61
###2023-11-09 13:08:20.847966$GBGSV,2,2,06,28,43,287,47,33,59,304,48,,,,,,,,*69
###2023-11-09 13:08:20.849472$GNVTG,245.01,T,,M,5.91,N,10.94,K,A*10
###2023-11-09 13:08:20.930490$GNGGA,130821.10,3611.0366664,N,07545.0126972,W,1,24,0.6,1.172,M,-39.962,M,0.0,*61
###2023-11-09 13:08:20.933089$GPGSV,2,1,07,05,20,090,44,10,18,292,43,13,24,045,41,15,62,037,46*73
###2023-11-09 13:08:20.935355$GPGSV,2,2,07,18,77,281,46,23,50,315,45,24,49,136,45,,,,*42
###2023-11-09 13:08:20.937954$GLGSV,2,1,05,70,50,017,37,71,48,290,48,80,18,090,45,85,57,203,48*65
###2023-11-09 13:08:20.939569$GLGSV,2,2,05,86,53,308,48,,,,,,,,,,,,*5F
###2023-11-09 13:08:20.942163$GAGSV,1,1,04,07,72,258,44,08,49,042,45,13,64,160,45,26,57,310,44*61
###2023-11-09 13:08:20.944768$GBGSV,2,1,06,11,23,180,40,14,65,008,46,24,20,132,43,26,23,081,44*61
###2023-11-09 13:08:20.946716$GBGSV,2,2,06,28,43,287,47,33,59,304,47,,,,,,,,*66
###2023-11-09 13:08:20.948235$GNVTG,243.21,T,,M,5.83,N,10.80,K,A*12
###2023-11-09 13:08:21.031376$GNGGA,130821.20,3611.0365891,N,07545.0128722,W,1,24,0.6,1.148,M,-39.962,M,0.0,*69
###2023-11-09 13:08:21.033970$GPGSV,2,1,07,05,20,090,44,10,18,292,43,13,24,045,41,15,62,037,46*73
###2023-11-09 13:08:21.036226$GPGSV,2,2,07,18,77,281,46,23,50,315,45,24,49,136,46,,,,*41
###2023-11-09 13:08:21.038814$GLGSV,2,1,05,70,50,017,37,71,48,290,48,80,18,090,45,85,57,203,48*65
###2023-11-09 13:08:21.040418$GLGSV,2,2,05,86,53,308,48,,,,,,,,,,,,*5F
###2023-11-09 13:08:21.042972$GAGSV,1,1,04,07,72,258,44,08,49,042,45,13,64,160,45,26,57,310,44*61
###2023-11-09 13:08:21.045537$GBGSV,2,1,06,11,23,180,42,14,65,008,46,24,20,132,44,26,23,081,44*64
###2023-11-09 13:08:21.047474$GBGSV,2,2,06,28,43,287,47,33,59,304,47,,,,,,,,*66
###2023-11-09 13:08:21.048968$GNVTG,239.52,T,,M,5.73,N,10.62,K,A*18
###2023-11-09 13:08:21.129503$GNGGA,130821.30,3611.0365054,N,07545.0130415,W,1,24,0.6,1.132,M,-39.962,M,0.0,*6A
###2023-11-09 13:08:21.132105$GPGSV,2,1,07,05,20,090,44,10,18,292,42,13,24,045,41,15,62,037,46*72
###2023-11-09 13:08:21.134362$GPGSV,2,2,07,18,77,281,46,23,50,315,45,24,49,136,46,,,,*41
###2023-11-09 13:08:21.136952$GLGSV,2,1,05,70,50,017,36,71,48,290,48,80,18,090,46,85,57,203,48*67
###2023-11-09 13:08:21.138571$GLGSV,2,2,05,86,53,308,48,,,,,,,,,,,,*5F
###2023-11-09 13:08:21.141151$GAGSV,1,1,04,07,72,258,44,08,49,042,45,13,64,160,45,26,57,310,44*61
###2023-11-09 13:08:21.143724$GBGSV,2,1,06,11,23,180,42,14,65,008,46,24,20,132,44,26,23,081,44*64
###2023-11-09 13:08:21.145662$GBGSV,2,2,06,28,43,287,47,33,59,304,47,,,,,,,,*66
###2023-11-09 13:08:21.147182$GNVTG,237.57,T,,M,5.77,N,10.69,K,A*1C
###2023-11-09 13:08:21.230492$GNGGA,130821.40,3611.0364220,N,07545.0132119,W,1,24,0.6,1.125,M,-39.962,M,0.0,*60
###2023-11-09 13:08:21.233082$GPGSV,2,1,07,05,20,090,44,10,18,292,42,13,24,045,41,15,62,037,46*72
###2023-11-09 13:08:21.235336$GPGSV,2,2,07,18,77,281,46,23,50,315,45,24,49,136,46,,,,*41
###2023-11-09 13:08:21.237930$GLGSV,2,1,05,70,50,017,36,71,48,290,48,80,18,090,46,85,57,203,48*67
###2023-11-09 13:08:21.239545$GLGSV,2,2,05,86,53,308,47,,,,,,,,,,,,*50
###2023-11-09 13:08:21.242118$GAGSV,1,1,04,07,72,258,44,08,49,042,45,13,64,160,45,26,57,310,44*61
###2023-11-09 13:08:21.244690$GBGSV,2,1,06,11,23,180,42,14,65,008,46,24,20,132,44,26,23,081,46*66
###2023-11-09 13:08:21.246617$GBGSV,2,2,06,28,43,287,46,33,59,304,47,,,,,,,,*67
###2023-11-09 13:08:21.248131$GNVTG,239.98,T,,M,5.77,N,10.69,K,A*11
###2023-11-09 13:08:21.329609$GNGGA,130821.50,3611.0363453,N,07545.0133855,W,1,24,0.6,1.126,M,-39.962,M,0.0,*67
###2023-11-09 13:08:21.332186$GPGSV,2,1,07,05,20,090,44,10,18,292,43,13,24,045,41,15,62,037,46*73
###2023-11-09 13:08:21.334425$GPGSV,2,2,07,18,77,281,46,23,50,315,45,24,49,136,46,,,,*41
###2023-11-09 13:08:21.337006$GLGSV,2,1,05,70,50,017,36,71,48,290,48,80,18,090,46,85,57,203,48*67
###2023-11-09 13:08:21.338609$GLGSV,2,2,05,86,53,308,47,,,,,,,,,,,,*50
###2023-11-09 13:08:21.341166$GAGSV,1,1,04,07,72,258,44,08,49,042,45,13,64,160,45,26,57,310,44*61
###2023-11-09 13:08:21.343726$GBGSV,2,1,06,11,23,180,42,14,65,008,46,24,20,132,44,26,23,081,46*66
###2023-11-09 13:08:21.345653$GBGSV,2,2,06,28,43,287,46,33,59,304,47,,,,,,,,*67
###2023-11-09 13:08:21.347162$GNVTG,242.63,T,,M,5.71,N,10.58,K,A*1D
###2023-11-09 13:08:21.429513$GNGGA,130821.60,3611.0362721,N,07545.0135614,W,1,24,0.6,1.123,M,-39.962,M,0.0,*6B
###2023-11-09 13:08:21.432111$GPGSV,2,1,07,05,20,090,44,10,18,292,43,13,24,045,41,15,62,037,46*73
###2023-11-09 13:08:21.434359$GPGSV,2,2,07,18,77,281,46,23,50,315,45,24,49,136,45,,,,*42
###2023-11-09 13:08:21.436947$GLGSV,2,1,05,70,50,017,36,71,48,290,48,80,18,090,46,85,57,203,48*67
###2023-11-09 13:08:21.438562$GLGSV,2,2,05,86,53,308,48,,,,,,,,,,,,*5F
###2023-11-09 13:08:21.441132$GAGSV,1,1,04,07,72,258,44,08,49,042,45,13,64,160,45,26,57,310,44*61
###2023-11-09 13:08:21.443715$GBGSV,2,1,06,11,23,180,42,14,65,008,46,24,20,132,44,26,23,081,46*66
###2023-11-09 13:08:21.445662$GBGSV,2,2,06,28,43,287,47,33,59,304,48,,,,,,,,*69
###2023-11-09 13:08:21.447192$GNVTG,242.75,T,,M,5.73,N,10.62,K,A*11
###2023-11-09 13:08:21.530489$GNGGA,130821.70,3611.0361972,N,07545.0137328,W,1,24,0.6,1.117,M,-39.962,M,0.0,*6E
###2023-11-09 13:08:21.533387$GPGSV,2,1,07,05,20,090,44,10,18,292,44,13,24,045,41,15,62,037,46*74
###2023-11-09 13:08:21.535639$GPGSV,2,2,07,18,77,281,46,23,50,315,45,24,49,136,45,,,,*42
###2023-11-09 13:08:21.538245$GLGSV,2,1,05,70,50,017,37,71,48,290,48,80,18,090,46,85,57,203,48*66
###2023-11-09 13:08:21.539869$GLGSV,2,2,05,86,53,308,48,,,,,,,,,,,,*5F
###2023-11-09 13:08:21.542450$GAGSV,1,1,04,07,72,258,44,08,49,042,45,13,64,160,45,26,57,310,44*61
###2023-11-09 13:08:21.545032$GBGSV,2,1,06,11,23,180,40,14,65,008,46,24,20,132,43,26,23,081,45*60
###2023-11-09 13:08:21.546988$GBGSV,2,2,06,28,43,287,47,33,59,304,47,,,,,,,,*66
###2023-11-09 13:08:21.548496$GNVTG,240.44,T,,M,5.54,N,10.26,K,A*14
###2023-11-09 13:08:21.629773$GNGGA,130821.80,3611.0361184,N,07545.0138980,W,1,24,0.6,1.112,M,-39.962,M,0.0,*62
###2023-11-09 13:08:21.632365$GPGSV,2,1,07,05,20,090,44,10,18,292,44,13,24,045,41,15,62,037,46*74
