###2023-11-09 13:10:28.735156$GPGSV,2,1,07,05,20,091,43,10,19,294,43,13,23,045,42,15,60,038,45*78
###2023-11-09 13:10:28.737494$GPGSV,2,2,07,18,78,277,46,23,50,316,46,24,50,134,46,,,,*4D
###2023-11-09 13:10:28.740086$GLGSV,2,1,05,70,49,019,36,71,48,291,48,80,19,089,46,85,56,202,47*66
###2023-11-09 13:10:28.741707$GLGSV,2,2,05,86,54,306,48,,,,,,,,,,,,*56
###2023-11-09 13:10:28.744280$GAGSV,1,1,04,07,73,259,45,08,48,043,44,13,63,161,44,26,57,310,45*67
###2023-11-09 13:10:28.746867$GBGSV,2,1,06,11,22,180,42,14,65,009,46,24,21,132,45,26,23,080,46*67
###2023-11-09 13:10:28.748834$GBGSV,2,2,06,28,43,286,47,33,59,305,47,,,,,,,,*66
###2023-11-09 13:10:28.750307$GNVTG,328.45,T,,M,3.62,N,6.70,K,A*2D
###2023-11-09 13:10:28.833501$GNGGA,131029.00,3611.0580640,N,07544.8699475,W,1,24,0.6,0.620,M,-39.960,M,0.0,*6A
###2023-11-09 13:10:28.836096$GPGSV,2,1,07,05,20,091,43,10,19,294,42,13,23,045,42,15,60,038,46*7A
###2023-11-09 13:10:28.838363$GPGSV,2,2,07,18,78,277,46,23,50,316,46,24,50,134,46,,,,*4D
###2023-11-09 13:10:28.840936$GLGSV,2,1,05,70,49,019,35,71,48,291,48,80,19,089,46,85,56,202,48*6A
###2023-11-09 13:10:28.842543$GLGSV,2,2,05,86,54,306,48,,,,,,,,,,,,*56
###2023-11-09 13:10:28.845110$GAGSV,1,1,04,07,73,259,45,08,48,043,44,13,63,161,44,26,57,310,45*67
###2023-11-09 13:10:28.847705$GBGSV,2,1,06,11,22,180,42,14,65,009,46,24,21,132,45,26,23,080,46*67
###2023-11-09 13:10:28.849650$GBGSV,2,2,06,28,43,286,47,33,59,305,47,,,,,,,,*66
###2023-11-09 13:10:28.851115$GNVTG,328.11,T,,M,3.62,N,6.70,K,A*2C
###2023-11-09 13:10:28.932493$GNGGA,131029.10,3611.0581497,N,07544.8700137,W,1,24,0.6,0.616,M,-39.960,M,0.0,*65
###2023-11-09 13:10:28.935099$GPGSV,2,1,07,05,20,091,43,10,19,294,42,13,23,045,42,15,60,038,46*7A
###2023-11-09 13:10:28.937493$GPGSV,2,2,07,18,78,272,46,23,50,316,46,24,50,134,46,,,,*48
###2023-11-09 13:10:28.940078$GLGSV,2,1,05,70,49,019,35,71,48,291,48,80,19,089,45,85,56,202,48*69
###2023-11-09 13:10:28.941687$GLGSV,2,2,05,86,54,306,48,,,,,,,,,,,,*56
###2023-11-09 13:10:28.944257$GAGSV,1,1,04,07,73,259,45,08,48,043,44,13,63,161,44,26,57,310,45*67
###2023-11-09 13:10:28.946837$GBGSV,2,1,06,11,22,180,42,14,65,009,46,24,21,132,45,26,23,080,46*67
###2023-11-09 13:10:28.948789$GBGSV,2,2,06,28,43,286,47,33,59,305,47,,,,,,,,*66
###2023-11-09 13:10:28.950262$GNVTG,327.72,T,,M,3.67,N,6.80,K,A*2C
###2023-11-09 13:10:29.034498$GNGGA,131029.20,3611.0582361,N,07544.8700796,W,1,24,0.6,0.615,M,-39.960,M,0.0,*65
###2023-11-09 13:10:29.037110$GPGSV,2,1,07,05,20,091,43,10,19,294,42,13,23,045,42,15,60,038,46*7A
###2023-11-09 13:10:29.039358$GPGSV,2,2,07,18,78,272,46,23,50,316,46,24,50,134,46,,,,*48
###2023-11-09 13:10:29.041945$GLGSV,2,1,05,70,49,019,35,71,48,291,48,80,19,089,45,85,56,202,48*69
###2023-11-09 13:10:29.043561$GLGSV,2,2,05,86,54,306,48,,,,,,,,,,,,*56
###2023-11-09 13:10:29.046139$GAGSV,1,1,04,07,73,259,45,08,48,043,44,13,63,161,44,26,57,310,46*64
###2023-11-09 13:10:29.048739$GBGSV,2,1,06,11,22,180,42,14,65,009,46,24,21,132,45,26,23,080,45*64
###2023-11-09 13:10:29.050682$GBGSV,2,2,06,28,43,286,47,33,59,305,47,,,,,,,,*66
###2023-11-09 13:10:29.052151$GNVTG,328.20,T,,M,3.67,N,6.80,K,A*24
###2023-11-09 13:10:29.131357$GNGGA,131029.30,3611.0583248,N,07544.8701457,W,1,24,0.6,0.603,M,-39.960,M,0.0,*67
###2023-11-09 13:10:29.133937$GPGSV,2,1,07,05,20,091,43,10,19,294,42,13,23,045,41,15,60,038,46*79
###2023-11-09 13:10:29.136179$GPGSV,2,2,07,18,78,272,46,23,50,316,46,24,50,134,46,,,,*48
###2023-11-09 13:10:29.138756$GLGSV,2,1,05,70,49,019,35,71,48,291,48,80,19,089,45,85,56,202,48*69
###2023-11-09 13:10:29.140355$GLGSV,2,2,05,86,54,306,48,,,,,,,,,,,,*56
###2023-11-09 13:10:29.142904$GAGSV,1,1,04,07,73,259,45,08,48,043,43,13,63,161,44,26,57,310,46*63
###2023-11-09 13:10:29.145470$GBGSV,2,1,06,11,22,180,43,14,65,009,46,24,21,132,45,26,23,080,44*64
###2023-11-09 13:10:29.147405$GBGSV,2,2,06,28,43,286,47,33,59,305,47,,,,,,,,*66
###2023-11-09 13:10:29.148857$GNVTG,329.00,T,,M,3.79,N,7.02,K,A*23
###2023-11-09 13:10:29.231236$GNGGA,131029.40,3611.0584170,N,07544.8702091,W,1,24,0.6,0.594,M,-39.960,M,0.0,*6F
###2023-11-09 13:10:29.233831$GPGSV,2,1,07,05,20,091,42,10,19,294,42,13,23,045,40,15,60,038,46*79
###2023-11-09 13:10:29.236094$GPGSV,2,2,07,18,78,272,46,23,50,316,46,24,50,134,46,,,,*48
###2023-11-09 13:10:29.238700$GLGSV,2,1,05,70,49,019,35,71,48,291,49,80,19,089,45,85,56,202,49*69
###2023-11-09 13:10:29.240307$GLGSV,2,2,05,86,54,306,48,,,,,,,,,,,,*56
###2023-11-09 13:10:29.242876$GAGSV,1,1,04,07,73,259,45,08,48,043,44,13,63,161,44,26,57,310,45*67
###2023-11-09 13:10:29.245454$GBGSV,2,1,06,11,22,180,43,14,65,009,45,24,21,132,45,26,23,080,44*67
###2023-11-09 13:10:29.247398$GBGSV,2,2,06,28,43,286,47,33,59,305,47,,,,,,,,*66
###2023-11-09 13:10:29.248872$GNVTG,331.92,T,,M,3.85,N,7.13,K,A*22
###2023-11-09 13:10:29.332111$GNGGA,131029.50,3611.0585155,N,07544.8702661,W,1,24,0.6,0.587,M,-39.960,M,0.0,*63
###2023-11-09 13:10:29.334701$GPGSV,2,1,07,05,20,091,42,10,19,294,42,13,23,045,41,15,60,038,46*78
###2023-11-09 13:10:29.336969$GPGSV,2,2,07,18,78,272,46,23,50,316,46,24,50,134,46,,,,*48
###2023-11-09 13:10:29.339543$GLGSV,2,1,05,70,49,019,35,71,48,291,49,80,19,089,45,85,56,202,48*68
###2023-11-09 13:10:29.341148$GLGSV,2,2,05,86,54,306,48,,,,,,,,,,,,*56
###2023-11-09 13:10:29.343719$GAGSV,1,1,04,07,73,259,46,08,48,043,44,13,63,161,44,26,57,310,45*64
###2023-11-09 13:10:29.346310$GBGSV,2,1,06,11,22,180,43,14,65,009,45,24,21,132,45,26,23,080,44*67
###2023-11-09 13:10:29.348276$GBGSV,2,2,06,28,43,286,47,33,59,305,47,,,,,,,,*66
###2023-11-09 13:10:29.349754$GNVTG,337.04,T,,M,4.00,N,7.42,K,A*25
###2023-11-09 13:10:29.431107$GNGGA,131029.60,3611.0586201,N,07544.8703181,W,1,24,0.6,0.585,M,-39.960,M,0.0,*6B
###2023-11-09 13:10:29.433691$GPGSV,2,1,07,05,20,091,43,10,19,294,42,13,23,045,42,15,60,038,46*7A
###2023-11-09 13:10:29.435941$GPGSV,2,2,07,18,78,272,46,23,50,316,46,24,50,134,46,,,,*48
###2023-11-09 13:10:29.438550$GLGSV,2,1,05,70,49,019,35,71,48,291,48,80,19,089,45,85,56,202,48*69
###2023-11-09 13:10:29.440154$GLGSV,2,2,05,86,54,306,48,,,,,,,,,,,,*56
###2023-11-09 13:10:29.442719$GAGSV,1,1,04,07,73,259,45,08,48,043,45,13,63,161,44,26,57,310,45*66
###2023-11-09 13:10:29.445298$GBGSV,2,1,06,11,22,180,43,14,65,009,45,24,21,132,45,26,23,080,45*66
###2023-11-09 13:10:29.447242$GBGSV,2,2,06,28,43,286,47,33,59,305,47,,,,,,,,*66
###2023-11-09 13:10:29.448700$GNVTG,338.55,T,,M,4.12,N,7.63,K,A*2E
###2023-11-09 13:10:29.531628$GNGGA,131029.70,3611.0587257,N,07544.8703750,W,1,24,0.6,0.591,M,-39.960,M,0.0,*67
###2023-11-09 13:10:29.534234$GPGSV,2,1,07,05,20,091,45,10,19,294,41,13,23,045,43,15,60,038,46*7E
###2023-11-09 13:10:29.536493$GPGSV,2,2,07,18,78,272,46,23,50,316,46,24,50,134,46,,,,*48
###2023-11-09 13:10:29.539088$GLGSV,2,1,05,70,49,019,35,71,48,291,48,80,19,089,46,85,56,202,48*6A
###2023-11-09 13:10:29.540702$GLGSV,2,2,05,86,54,306,48,,,,,,,,,,,,*56
###2023-11-09 13:10:29.543277$GAGSV,1,1,04,07,73,259,45,08,48,043,45,13,63,161,44,26,57,310,45*66
###2023-11-09 13:10:29.545855$GBGSV,2,1,06,11,22,180,41,14,65,009,46,24,21,132,45,26,23,080,46*64
###2023-11-09 13:10:29.547807$GBGSV,2,2,06,28,43,286,47,33,59,305,47,,,,,,,,*66
###2023-11-09 13:10:29.549276$GNVTG,333.51,T,,M,4.22,N,7.81,K,A*2E
###2023-11-09 13:10:29.631110$GNGGA,131029.80,3611.0588284,N,07544.8704457,W,1,24,0.6,0.589,M,-39.960,M,0.0,*63
###2023-11-09 13:10:29.633698$GPGSV,2,1,07,05,20,091,45,10,19,294,41,13,23,045,44,15,60,038,46*79
###2023-11-09 13:10:29.635959$GPGSV,2,2,07,18,78,272,46,23,50,316,46,24,50,134,46,,,,*48
###2023-11-09 13:10:29.638555$GLGSV,2,1,05,70,49,019,35,71,48,291,48,80,19,089,46,85,56,202,48*6A
###2023-11-09 13:10:29.640165$GLGSV,2,2,05,86,54,306,48,,,,,,,,,,,,*56
###2023-11-09 13:10:29.642734$GAGSV,1,1,04,07,73,259,45,08,48,043,45,13,63,161,44,26,57,310,45*66
###2023-11-09 13:10:29.645316$GBGSV,2,1,06,11,22,180,41,14,65,009,46,24,21,132,45,26,23,080,46*64
###2023-11-09 13:10:29.647267$GBGSV,2,2,06,28,43,286,47,33,59,305,47,,,,,,,,*66
###2023-11-09 13:10:29.648730$GNVTG,327.89,T,,M,4.28,N,7.92,K,A*26
###2023-11-09 13:10:29.733605$GNGGA,131029.90,3611.0589269,N,07544.8705283,W,1,24,0.6,0.584,M,-39.960,M,0.0,*63
###2023-11-09 13:10:29.736479$GPGSV,2,1,07,05,20,091,44,10,19,294,41,13,23,045,44,15,60,038,46*78
###2023-11-09 13:10:29.738747$GPGSV,2,2,07,18,78,272,46,23,50,316,46,24,50,134,46,,,,*48
###2023-11-09 13:10:29.741302$GLGSV,2,1,05,70,49,019,35,71,48,291,48,80,19,089,46,85,56,202,48*6A
###2023-11-09 13:10:29.742903$GLGSV,2,2,05,86,54,306,48,,,,,,,,,,,,*56
###2023-11-09 13:10:29.745459$GAGSV,1,1,04,07,73,259,45,08,48,043,45,13,63,161,44,26,57,310,45*66
###2023-11-09 13:10:29.748039$GBGSV,2,1,06,11,22,180,41,14,65,009,46,24,21,132,44,26,23,080,46*65
###2023-11-09 13:10:29.749965$GBGSV,2,2,06,28,43,286,47,33,59,305,47,,,,,,,,*66
###2023-11-09 13:10:29.751418$GNVTG,323.61,T,,M,4.33,N,8.03,K,A*29
###2023-11-09 13:10:29.834757$GNGGA,131030.00,3611.0590231,N,07544.8706183,W,1,24,0.6,0.581,M,-39.960,M,0.0,*62
###2023-11-09 13:10:29.837370$GPGSV,2,1,07,05,20,091,44,10,19,294,42,13,23,045,43,15,60,038,46*7C
