###2023-11-09 13:08:46.047649$GBGSV,2,1,06,11,23,180,41,14,65,008,45,24,20,132,42,26,23,081,43*65
###2023-11-09 13:08:46.049619$GBGSV,2,2,06,28,43,287,47,33,59,304,47,,,,,,,,*66
###2023-11-09 13:08:46.051096$GNVTG,107.76,T,,M,4.28,N,7.92,K,A*26
###2023-11-09 13:08:46.130861$GNGGA,130846.30,3611.0193811,N,07545.0030518,W,1,24,0.6,0.956,M,-39.962,M,0.0,*6F
###2023-11-09 13:08:46.133465$GPGSV,2,1,07,05,20,090,40,10,19,293,43,13,24,045,39,15,61,037,45*78
###2023-11-09 13:08:46.135727$GPGSV,2,2,07,18,78,277,46,23,50,316,45,24,50,135,47,,,,*4E
###2023-11-09 13:08:46.138320$GLGSV,2,1,05,70,50,017,35,71,48,290,48,80,18,090,41,85,57,203,49*62
###2023-11-09 13:08:46.139947$GLGSV,2,2,05,86,53,308,47,,,,,,,,,,,,*50
###2023-11-09 13:08:46.142538$GAGSV,1,1,04,07,72,258,45,08,48,043,44,13,64,160,45,26,57,310,44*61
###2023-11-09 13:08:46.145133$GBGSV,2,1,06,11,23,180,43,14,65,008,45,24,20,132,43,26,23,081,42*67
###2023-11-09 13:08:46.147090$GBGSV,2,2,06,28,43,287,47,33,59,304,47,,,,,,,,*66
###2023-11-09 13:08:46.148570$GNVTG,102.75,T,,M,4.33,N,8.03,K,A*2D
###2023-11-09 13:08:46.229879$GNGGA,130846.40,3611.0193613,N,07545.0029054,W,1,24,0.6,0.919,M,-39.962,M,0.0,*6A
###2023-11-09 13:08:46.232458$GPGSV,2,1,07,05,20,090,40,10,19,293,43,13,24,045,39,15,61,037,45*78
###2023-11-09 13:08:46.234699$GPGSV,2,2,07,18,78,277,46,23,50,316,45,24,50,135,46,,,,*4F
###2023-11-09 13:08:46.237270$GLGSV,2,1,05,70,50,017,35,71,48,290,48,80,18,090,41,85,57,203,49*62
###2023-11-09 13:08:46.238867$GLGSV,2,2,05,86,53,308,47,,,,,,,,,,,,*50
###2023-11-09 13:08:46.241426$GAGSV,1,1,04,07,72,258,45,08,48,043,43,13,64,160,45,26,57,310,44*66
###2023-11-09 13:08:46.243992$GBGSV,2,1,06,11,23,180,43,14,65,008,45,24,20,132,44,26,23,081,42*60
###2023-11-09 13:08:46.245920$GBGSV,2,2,06,28,43,287,47,33,59,304,47,,,,,,,,*66
###2023-11-09 13:08:46.247356$GNVTG,96.62,T,,M,4.33,N,8.03,K,A*17
###2023-11-09 13:08:46.329400$GNGGA,130846.50,3611.0193503,N,07545.0027582,W,1,24,0.6,0.895,M,-39.962,M,0.0,*6C
###2023-11-09 13:08:46.332001$GPGSV,2,1,07,05,20,090,42,10,19,293,43,13,24,045,41,15,61,037,45*75
###2023-11-09 13:08:46.334263$GPGSV,2,2,07,18,78,277,46,23,50,316,45,24,50,135,46,,,,*4F
###2023-11-09 13:08:46.336848$GLGSV,2,1,05,70,50,017,35,71,48,290,48,80,18,090,43,85,57,203,49*60
###2023-11-09 13:08:46.338470$GLGSV,2,2,05,86,53,308,47,,,,,,,,,,,,*50
###2023-11-09 13:08:46.341042$GAGSV,1,1,04,07,72,258,45,08,48,043,43,13,64,160,45,26,57,310,44*66
###2023-11-09 13:08:46.343621$GBGSV,2,1,06,11,23,180,43,14,65,008,45,24,20,132,44,26,23,081,42*60
###2023-11-09 13:08:46.345561$GBGSV,2,2,06,28,43,287,46,33,59,304,47,,,,,,,,*67
###2023-11-09 13:08:46.347017$GNVTG,94.34,T,,M,4.28,N,7.92,K,A*1B
###2023-11-09 13:08:46.430884$GNGGA,130846.60,3611.0193395,N,07545.0026110,W,1,24,0.6,0.888,M,-39.962,M,0.0,*64
###2023-11-09 13:08:46.433493$GPGSV,2,1,07,05,20,090,42,10,19,293,44,13,24,045,42,15,61,037,45*71
###2023-11-09 13:08:46.435756$GPGSV,2,2,07,18,78,277,46,23,50,316,45,24,50,135,46,,,,*4F
###2023-11-09 13:08:46.438357$GLGSV,2,1,05,70,50,017,35,71,48,290,48,80,18,090,44,85,57,203,49*67
###2023-11-09 13:08:46.439969$GLGSV,2,2,05,86,53,308,47,,,,,,,,,,,,*50
###2023-11-09 13:08:46.442534$GAGSV,1,1,04,07,72,258,45,08,48,043,43,13,64,160,44,26,57,310,44*67
###2023-11-09 13:08:46.445117$GBGSV,2,1,06,11,23,180,43,14,65,008,45,24,20,132,44,26,23,081,43*61
###2023-11-09 13:08:46.447078$GBGSV,2,2,06,28,43,287,46,33,59,304,47,,,,,,,,*67
###2023-11-09 13:08:46.448514$GNVTG,96.36,T,,M,4.33,N,8.03,K,A*16
###2023-11-09 13:08:46.529885$GNGGA,130846.70,3611.0193236,N,07545.0024641,W,1,24,0.6,0.898,M,-39.962,M,0.0,*6D
###2023-11-09 13:08:46.532466$GPGSV,2,1,07,05,20,090,42,10,19,293,44,13,24,045,43,15,61,037,46*73
###2023-11-09 13:08:46.534707$GPGSV,2,2,07,18,78,277,46,23,50,316,45,24,50,135,46,,,,*4F
###2023-11-09 13:08:46.537285$GLGSV,2,1,05,70,50,017,35,71,48,290,49,80,18,090,44,85,57,203,49*66
###2023-11-09 13:08:46.538889$GLGSV,2,2,05,86,53,308,48,,,,,,,,,,,,*5F
###2023-11-09 13:08:46.541454$GAGSV,1,1,04,07,72,258,45,08,48,043,44,13,64,160,44,26,57,310,44*60
###2023-11-09 13:08:46.544023$GBGSV,2,1,06,11,23,180,41,14,65,008,45,24,20,132,43,26,23,081,44*63
###2023-11-09 13:08:46.545948$GBGSV,2,2,06,28,43,287,47,33,59,304,47,,,,,,,,*66
###2023-11-09 13:08:46.547380$GNVTG,99.23,T,,M,4.30,N,7.96,K,A*1D
###2023-11-09 13:08:46.628887$GNGGA,130846.80,3611.0192987,N,07545.0023174,W,1,24,0.6,0.927,M,-39.962,M,0.0,*61
###2023-11-09 13:08:46.631490$GPGSV,2,1,07,05,20,090,42,10,19,293,44,13,24,045,43,15,61,037,46*73
###2023-11-09 13:08:46.633744$GPGSV,2,2,07,18,78,277,46,23,50,316,46,24,50,135,46,,,,*4C
###2023-11-09 13:08:46.636321$GLGSV,2,1,05,70,50,017,36,71,48,290,49,80,18,090,43,85,57,203,49*62
###2023-11-09 13:08:46.637943$GLGSV,2,2,05,86,53,308,48,,,,,,,,,,,,*5F
###2023-11-09 13:08:46.640520$GAGSV,1,1,04,07,72,258,45,08,48,043,44,13,64,160,44,26,57,310,44*60
###2023-11-09 13:08:46.643115$GBGSV,2,1,06,11,23,180,41,14,65,008,45,24,20,132,43,26,23,081,44*63
###2023-11-09 13:08:46.645066$GBGSV,2,2,06,28,43,287,47,33,59,304,47,,,,,,,,*66
###2023-11-09 13:08:46.646533$GNVTG,104.62,T,,M,4.43,N,8.21,K,A*2A
###2023-11-09 13:08:46.729793$GNGGA,130846.90,3611.0192651,N,07545.0021690,W,1,24,0.6,0.954,M,-39.962,M,0.0,*6F
###2023-11-09 13:08:46.732406$GPGSV,2,1,07,05,20,090,42,10,19,293,43,13,24,045,43,15,61,037,46*74
###2023-11-09 13:08:46.734673$GPGSV,2,2,07,18,78,277,46,23,50,316,46,24,50,135,46,,,,*4C
###2023-11-09 13:08:46.737280$GLGSV,2,1,05,70,50,017,36,71,48,290,49,80,18,090,43,85,57,203,48*63
###2023-11-09 13:08:46.738900$GLGSV,2,2,05,86,53,308,48,,,,,,,,,,,,*5F
###2023-11-09 13:08:46.741480$GAGSV,1,1,04,07,72,258,45,08,48,043,44,13,64,160,44,26,57,310,44*60
###2023-11-09 13:08:46.744076$GBGSV,2,1,06,11,23,180,41,14,65,008,45,24,20,132,43,26,23,081,44*63
###2023-11-09 13:08:46.746021$GBGSV,2,2,06,28,43,287,47,33,59,304,47,,,,,,,,*66
###2023-11-09 13:08:46.747509$GNVTG,106.87,T,,M,4.55,N,8.42,K,A*21
###2023-11-09 13:08:46.833358$GNGGA,130847.00,3611.0192276,N,07545.0020198,W,1,24,0.6,0.960,M,-39.962,M,0.0,*6F
###2023-11-09 13:08:46.835948$GPGSV,2,1,07,05,20,090,42,10,19,293,43,13,24,045,42,15,61,037,45*76
###2023-11-09 13:08:46.838220$GPGSV,2,2,07,18,78,277,46,23,50,316,46,24,50,135,46,,,,*4C
###2023-11-09 13:08:46.840789$GLGSV,2,1,05,70,50,017,36,71,48,290,49,80,18,090,42,85,57,203,48*62
###2023-11-09 13:08:46.842395$GLGSV,2,2,05,86,53,308,48,,,,,,,,,,,,*5F
###2023-11-09 13:08:46.844958$GAGSV,1,1,04,07,72,258,45,08,48,043,44,13,64,160,44,26,57,310,44*60
###2023-11-09 13:08:46.847548$GBGSV,2,1,06,11,23,180,41,14,65,008,45,24,20,132,43,26,23,081,43*64
###2023-11-09 13:08:46.849481$GBGSV,2,2,06,28,43,287,47,33,59,304,48,,,,,,,,*69
###2023-11-09 13:08:46.850943$GNVTG,107.81,T,,M,4.57,N,8.46,K,A*20
###2023-11-09 13:08:46.930868$GNGGA,130847.10,3611.0191892,N,07545.0018711,W,1,24,0.6,0.942,M,-39.962,M,0.0,*61
###2023-11-09 13:08:46.933470$GPGSV,2,1,07,05,20,090,40,10,19,293,43,13,24,045,42,15,61,037,45*74
###2023-11-09 13:08:46.935738$GPGSV,2,2,07,18,78,277,46,23,50,316,45,24,50,135,46,,,,*4F
###2023-11-09 13:08:46.938330$GLGSV,2,1,05,70,50,017,35,71,48,290,48,80,18,090,42,85,57,203,49*61
###2023-11-09 13:08:46.939945$GLGSV,2,2,05,86,53,308,48,,,,,,,,,,,,*5F
###2023-11-09 13:08:46.942522$GAGSV,1,1,04,07,72,258,45,08,48,043,44,13,64,160,44,26,57,310,44*60
###2023-11-09 13:08:46.945112$GBGSV,2,1,06,11,23,180,43,14,65,008,45,24,20,132,43,26,23,081,42*67
###2023-11-09 13:08:46.947066$GBGSV,2,2,06,28,43,287,47,33,59,304,48,,,,,,,,*69
###2023-11-09 13:08:46.948536$GNVTG,107.88,T,,M,4.53,N,8.39,K,A*25
###2023-11-09 13:08:47.032994$GNGGA,130847.20,3611.0191550,N,07545.0017230,W,1,24,0.6,0.920,M,-39.962,M,0.0,*6C
###2023-11-09 13:08:47.035603$GPGSV,2,1,07,05,20,090,40,10,19,293,43,13,24,045,40,15,61,037,45*76
###2023-11-09 13:08:47.037893$GPGSV,2,2,07,18,78,277,46,23,50,316,45,24,50,135,46,,,,*4F
###2023-11-09 13:08:47.040483$GLGSV,2,1,05,70,50,017,35,71,48,290,48,80,18,090,42,85,57,203,49*61
###2023-11-09 13:08:47.042092$GLGSV,2,2,05,86,53,308,47,,,,,,,,,,,,*50
###2023-11-09 13:08:47.044669$GAGSV,1,1,04,07,72,258,45,08,48,043,44,13,64,160,45,26,57,310,44*61
###2023-11-09 13:08:47.047570$GBGSV,2,1,06,11,23,180,43,14,65,008,45,24,20,132,44,26,23,081,42*60
###2023-11-09 13:08:47.049530$GBGSV,2,2,06,28,43,287,47,33,59,304,47,,,,,,,,*66
###2023-11-09 13:08:47.051001$GNVTG,104.22,T,,M,4.43,N,8.21,K,A*2E
###2023-11-09 13:08:47.129775$GNGGA,130847.30,3611.0191322,N,07545.0015729,W,1,24,0.6,0.904,M,-39.962,M,0.0,*67
###2023-11-09 13:08:47.132365$GPGSV,2,1,07,05,20,090,40,10,19,293,43,13,24,045,40,15,61,037,45*76
###2023-11-09 13:08:47.134610$GPGSV,2,2,07,18,78,277,46,23,50,316,45,24,50,135,46,,,,*4F
###2023-11-09 13:08:47.137198$GLGSV,2,1,05,70,50,017,35,71,48,290,48,80,18,090,41,85,57,203,49*62
###2023-11-09 13:08:47.138796$GLGSV,2,2,05,86,53,308,47,,,,,,,,,,,,*50
###2023-11-09 13:08:47.141356$GAGSV,1,1,04,07,72,258,45,08,48,043,44,13,64,160,45,26,57,310,44*61
###2023-11-09 13:08:47.143937$GBGSV,2,1,06,11,23,180,44,14,65,008,45,24,20,132,44,26,23,081,40*65
