###2023-11-09 13:05:55.142788$GLGSV,2,2,05,86,52,311,47,,,,,,,,,,,,*59
###2023-11-09 13:05:55.145368$GAGSV,1,1,04,07,72,255,45,08,49,042,44,13,64,160,44,26,56,311,45*6C
###2023-11-09 13:05:55.147969$GBGSV,2,1,06,11,24,180,41,14,65,006,45,24,19,133,42,26,23,082,42*65
###2023-11-09 13:05:55.149914$GBGSV,2,2,06,28,43,289,47,33,58,302,47,,,,,,,,*6F
###2023-11-09 13:05:55.151345$GNVTG,27.79,T,,M,0.31,N,0.58,K,A*17
###2023-11-09 13:05:55.231352$GNGGA,130555.40,3611.0378755,N,07544.9857285,W,1,24,0.6,1.141,M,-39.962,M,0.0,*62
###2023-11-09 13:05:55.233921$GPGSV,2,1,07,05,21,089,42,10,17,292,44,13,25,045,42,15,62,036,46*77
###2023-11-09 13:05:55.236157$GPGSV,2,2,07,18,77,285,47,23,49,314,46,24,49,137,46,,,,*4F
###2023-11-09 13:05:55.238736$GLGSV,2,1,05,70,51,015,35,71,47,286,48,80,17,092,44,85,59,204,48*69
###2023-11-09 13:05:55.240345$GLGSV,2,2,05,86,52,311,47,,,,,,,,,,,,*59
###2023-11-09 13:05:55.242895$GAGSV,1,1,04,07,72,255,45,08,49,042,44,13,64,160,44,26,56,311,45*6C
###2023-11-09 13:05:55.245450$GBGSV,2,1,06,11,24,180,41,14,65,006,45,24,19,133,41,26,23,082,43*67
###2023-11-09 13:05:55.247379$GBGSV,2,2,06,28,43,289,46,33,58,302,47,,,,,,,,*6E
###2023-11-09 13:05:55.248794$GNVTG,27.79,T,,M,0.19,N,0.36,K,A*15
###2023-11-09 13:05:55.332360$GNGGA,130555.50,3611.0378732,N,07544.9857250,W,1,24,0.6,1.135,M,-39.962,M,0.0,*69
###2023-11-09 13:05:55.334966$GPGSV,2,1,07,05,21,089,42,10,17,292,44,13,25,045,42,15,62,036,46*77
###2023-11-09 13:05:55.337241$GPGSV,2,2,07,18,77,285,47,23,49,314,46,24,49,137,46,,,,*4F
###2023-11-09 13:05:55.339821$GLGSV,2,1,05,70,51,015,35,71,47,286,48,80,17,092,44,85,59,204,48*69
###2023-11-09 13:05:55.341437$GLGSV,2,2,05,86,52,311,47,,,,,,,,,,,,*59
###2023-11-09 13:05:55.344009$GAGSV,1,1,04,07,72,255,45,08,49,042,44,13,64,160,44,26,56,311,45*6C
###2023-11-09 13:05:55.346594$GBGSV,2,1,06,11,24,180,41,14,65,006,45,24,19,133,41,26,23,082,43*67
###2023-11-09 13:05:55.348545$GBGSV,2,2,06,28,43,289,46,33,58,302,47,,,,,,,,*6E
###2023-11-09 13:05:55.349974$GNVTG,27.79,T,,M,0.19,N,0.36,K,A*15
###2023-11-09 13:05:55.433241$GNGGA,130555.60,3611.0378655,N,07544.9857241,W,1,24,0.6,1.132,M,-39.962,M,0.0,*6D
###2023-11-09 13:05:55.435835$GPGSV,2,1,07,05,21,089,42,10,17,292,44,13,25,045,42,15,62,036,46*77
###2023-11-09 13:05:55.438112$GPGSV,2,2,07,18,77,285,47,23,49,314,46,24,49,137,46,,,,*4F
###2023-11-09 13:05:55.440693$GLGSV,2,1,05,70,51,015,35,71,47,286,48,80,17,092,44,85,59,204,48*69
###2023-11-09 13:05:55.442301$GLGSV,2,2,05,86,52,311,47,,,,,,,,,,,,*59
###2023-11-09 13:05:55.444868$GAGSV,1,1,04,07,72,255,45,08,49,042,44,13,64,160,44,26,56,311,45*6C
###2023-11-09 13:05:55.447463$GBGSV,2,1,06,11,24,180,41,14,65,006,45,24,19,133,42,26,23,082,43*64
###2023-11-09 13:05:55.449401$GBGSV,2,2,06,28,43,289,47,33,58,302,47,,,,,,,,*6F
###2023-11-09 13:05:55.450832$GNVTG,27.79,T,,M,0.33,N,0.61,K,A*1F
###2023-11-09 13:05:55.532481$GNGGA,130555.70,3611.0378563,N,07544.9857229,W,1,24,0.6,1.132,M,-39.962,M,0.0,*64
###2023-11-09 13:05:55.535061$GPGSV,2,1,07,05,21,089,42,10,17,292,44,13,25,045,42,15,62,036,46*77
###2023-11-09 13:05:55.537337$GPGSV,2,2,07,18,77,285,47,23,49,314,45,24,49,137,46,,,,*4C
###2023-11-09 13:05:55.539898$GLGSV,2,1,05,70,51,015,35,71,47,286,49,80,17,092,44,85,59,204,48*68
###2023-11-09 13:05:55.541504$GLGSV,2,2,05,86,52,311,47,,,,,,,,,,,,*59
###2023-11-09 13:05:55.544078$GAGSV,1,1,04,07,72,255,45,08,49,042,44,13,64,160,44,26,56,311,45*6C
###2023-11-09 13:05:55.546666$GBGSV,2,1,06,11,24,180,41,14,65,006,45,24,19,133,42,26,23,082,42*65
###2023-11-09 13:05:55.548620$GBGSV,2,2,06,28,43,289,47,33,58,302,47,,,,,,,,*6F
###2023-11-09 13:05:55.550065$GNVTG,27.79,T,,M,0.31,N,0.58,K,A*17
###2023-11-09 13:05:55.631254$GNGGA,130555.80,3611.0378507,N,07544.9857177,W,1,24,0.6,1.140,M,-39.962,M,0.0,*64
###2023-11-09 13:05:55.633869$GPGSV,2,1,07,05,21,089,41,10,17,292,44,13,25,045,41,15,62,036,46*77
###2023-11-09 13:05:55.636128$GPGSV,2,2,07,18,77,285,47,23,49,314,45,24,49,137,45,,,,*4F
###2023-11-09 13:05:55.638740$GLGSV,2,1,05,70,51,015,35,71,47,286,49,80,17,092,43,85,59,204,48*6F
###2023-11-09 13:05:55.640357$GLGSV,2,2,05,86,52,311,47,,,,,,,,,,,,*59
###2023-11-09 13:05:55.642929$GAGSV,1,1,04,07,72,255,45,08,49,042,44,13,64,160,44,26,56,311,45*6C
###2023-11-09 13:05:55.645508$GBGSV,2,1,06,11,24,180,41,14,65,006,45,24,19,133,42,26,23,082,42*65
###2023-11-09 13:05:55.647459$GBGSV,2,2,06,28,43,289,47,33,58,302,47,,,,,,,,*6F
###2023-11-09 13:05:55.648894$GNVTG,27.79,T,,M,0.27,N,0.50,K,A*18
###2023-11-09 13:05:55.735372$GNGGA,130555.90,3611.0378511,N,07544.9857064,W,1,24,0.6,1.153,M,-39.962,M,0.0,*63
###2023-11-09 13:05:55.737980$GPGSV,2,1,07,05,21,089,41,10,17,292,44,13,25,045,41,15,62,036,46*77
###2023-11-09 13:05:55.740239$GPGSV,2,2,07,18,77,285,47,23,49,314,45,24,49,137,45,,,,*4F
###2023-11-09 13:05:55.742827$GLGSV,2,1,05,70,51,015,35,71,47,286,49,80,17,092,43,85,59,204,48*6F
###2023-11-09 13:05:55.744430$GLGSV,2,2,05,86,52,311,47,,,,,,,,,,,,*59
###2023-11-09 13:05:55.747035$GAGSV,1,1,04,07,72,255,45,08,49,042,44,13,64,160,44,26,56,311,45*6C
###2023-11-09 13:05:55.749621$GBGSV,2,1,06,11,24,180,41,14,65,006,45,24,19,133,42,26,23,082,42*65
###2023-11-09 13:05:55.751559$GBGSV,2,2,06,28,43,289,47,33,58,302,47,,,,,,,,*6F
###2023-11-09 13:05:55.752993$GNVTG,27.79,T,,M,0.43,N,0.79,K,A*11
###2023-11-09 13:05:55.837852$GNGGA,130556.00,3611.0378530,N,07544.9856929,W,1,24,0.6,1.169,M,-39.962,M,0.0,*62
###2023-11-09 13:05:55.840440$GPGSV,2,1,07,05,21,089,41,10,17,292,44,13,25,045,41,15,62,036,46*77
###2023-11-09 13:05:55.842687$GPGSV,2,2,07,18,77,285,47,23,49,314,45,24,49,137,46,,,,*4C
###2023-11-09 13:05:55.845242$GLGSV,2,1,05,70,51,015,35,71,47,286,49,80,17,092,43,85,59,204,48*6F
###2023-11-09 13:05:55.846841$GLGSV,2,2,05,86,52,311,47,,,,,,,,,,,,*59
###2023-11-09 13:05:55.849403$GAGSV,1,1,04,07,72,255,45,08,49,042,43,13,64,160,44,26,56,311,45*6B
###2023-11-09 13:05:55.851993$GBGSV,2,1,06,11,24,180,41,14,65,006,45,24,19,133,42,26,23,082,42*65
###2023-11-09 13:05:55.853939$GBGSV,2,2,06,28,43,289,47,33,58,302,47,,,,,,,,*6F
###2023-11-09 13:05:55.855370$GNVTG,27.79,T,,M,0.39,N,0.72,K,A*17
###2023-11-09 13:05:55.944228$GNGGA,130556.10,3611.0378530,N,07544.9856827,W,1,24,0.6,1.181,M,-39.962,M,0.0,*6A
###2023-11-09 13:05:55.946813$GPGSV,2,1,07,05,21,089,41,10,17,292,44,13,25,045,42,15,62,036,46*74
###2023-11-09 13:05:55.949085$GPGSV,2,2,07,18,77,285,47,23,49,314,45,24,49,137,46,,,,*4C
###2023-11-09 13:05:55.951663$GLGSV,2,1,05,70,51,015,35,71,47,286,48,80,17,092,43,85,59,204,48*6E
###2023-11-09 13:05:55.953263$GLGSV,2,2,05,86,52,311,47,,,,,,,,,,,,*59
###2023-11-09 13:05:55.955823$GAGSV,1,1,04,07,72,255,45,08,49,042,44,13,64,160,44,26,56,311,45*6C
###2023-11-09 13:05:55.958419$GBGSV,2,1,06,11,24,180,41,14,65,006,45,24,19,133,42,26,23,082,43*64
###2023-11-09 13:05:55.960347$GBGSV,2,2,06,28,43,289,47,33,58,302,47,,,,,,,,*6F
###2023-11-09 13:05:55.961772$GNVTG,27.79,T,,M,0.23,N,0.43,K,A*1E
###2023-11-09 13:05:56.039122$GNGGA,130556.20,3611.0378497,N,07544.9856766,W,1,24,0.6,1.188,M,-39.962,M,0.0,*66
###2023-11-09 13:05:56.041715$GPGSV,2,1,07,05,21,089,41,10,17,292,44,13,25,045,42,15,62,036,46*74
###2023-11-09 13:05:56.043970$GPGSV,2,2,07,18,77,285,47,23,49,314,45,24,49,137,45,,,,*4F
###2023-11-09 13:05:56.046532$GLGSV,2,1,05,70,51,015,35,71,47,286,48,80,17,092,44,85,59,204,48*69
###2023-11-09 13:05:56.048164$GLGSV,2,2,05,86,52,311,47,,,,,,,,,,,,*59
###2023-11-09 13:05:56.050742$GAGSV,1,1,04,07,72,255,45,08,49,042,45,13,64,160,44,26,56,311,45*6D
###2023-11-09 13:05:56.053329$GBGSV,2,1,06,11,24,180,40,14,65,006,45,24,19,133,42,26,23,082,43*65
###2023-11-09 13:05:56.055267$GBGSV,2,2,06,28,43,289,47,33,58,302,47,,,,,,,,*6F
###2023-11-09 13:05:56.056695$GNVTG,27.79,T,,M,0.25,N,0.47,K,A*1C
###2023-11-09 13:05:56.136469$GNGGA,130556.30,3611.0378431,N,07544.9856721,W,1,24,0.6,1.187,M,-39.962,M,0.0,*67
###2023-11-09 13:05:56.139068$GPGSV,2,1,07,05,21,089,41,10,17,292,43,13,25,045,42,15,62,036,46*73
###2023-11-09 13:05:56.141303$GPGSV,2,2,07,18,77,285,47,23,49,314,45,24,49,137,45,,,,*4F
###2023-11-09 13:05:56.143859$GLGSV,2,1,05,70,51,015,35,71,47,286,48,80,17,092,44,85,59,204,48*69
###2023-11-09 13:05:56.145456$GLGSV,2,2,05,86,52,311,47,,,,,,,,,,,,*59
###2023-11-09 13:05:56.148329$GAGSV,1,1,04,07,72,255,45,08,49,042,45,13,64,160,44,26,56,311,45*6D
###2023-11-09 13:05:56.150910$GBGSV,2,1,06,11,24,180,39,14,65,006,45,24,19,133,42,26,23,082,43*6B
###2023-11-09 13:05:56.152864$GBGSV,2,2,06,28,43,289,47,33,58,302,47,,,,,,,,*6F
###2023-11-09 13:05:56.154297$GNVTG,27.79,T,,M,0.29,N,0.54,K,A*12
###2023-11-09 13:05:56.232356$GNGGA,130556.40,3611.0378358,N,07544.9856674,W,1,24,0.6,1.189,M,-39.962,M,0.0,*67
###2023-11-09 13:05:56.234953$GPGSV,2,1,07,05,21,089,41,10,17,292,43,13,25,045,42,15,62,036,46*73
###2023-11-09 13:05:56.237224$GPGSV,2,2,07,18,77,285,47,23,49,314,45,24,49,137,45,,,,*4F
###2023-11-09 13:05:56.239791$GLGSV,2,1,05,70,51,015,35,71,47,286,48,80,17,092,44,85,59,204,48*69
###2023-11-09 13:05:56.241399$GLGSV,2,2,05,86,52,311,47,,,,,,,,,,,,*59
