###2023-11-09 13:09:46.337213$GLGSV,2,1,05,70,50,017,37,71,48,290,49,80,18,090,44,85,57,203,49*64
###2023-11-09 13:09:46.338853$GLGSV,2,2,05,86,53,308,48,,,,,,,,,,,,*5F
###2023-11-09 13:09:46.341429$GAGSV,1,1,04,07,73,259,45,08,48,043,44,13,63,161,45,26,57,310,45*66
###2023-11-09 13:09:46.344009$GBGSV,2,1,06,11,22,180,40,14,65,009,44,24,21,132,43,26,23,080,43*64
###2023-11-09 13:09:46.345934$GBGSV,2,2,06,28,43,286,46,33,59,305,47,,,,,,,,*67
###2023-11-09 13:09:46.347386$GNVTG,43.30,T,,M,3.85,N,7.13,K,A*1C
###2023-11-09 13:09:46.429928$GNGGA,130946.60,3611.0364356,N,07544.9175394,W,1,24,0.6,0.930,M,-39.961,M,0.0,*60
###2023-11-09 13:09:46.432526$GPGSV,2,1,07,05,20,090,42,10,19,293,44,13,24,045,40,15,61,037,45*73
###2023-11-09 13:09:46.434797$GPGSV,2,2,07,18,78,277,47,23,50,316,46,24,50,134,46,,,,*4C
###2023-11-09 13:09:46.437404$GLGSV,2,1,05,70,50,017,37,71,48,290,48,80,18,090,44,85,57,203,49*65
###2023-11-09 13:09:46.439023$GLGSV,2,2,05,86,53,308,48,,,,,,,,,,,,*5F
###2023-11-09 13:09:46.441603$GAGSV,1,1,04,07,73,259,45,08,48,043,44,13,63,161,45,26,57,310,45*66
###2023-11-09 13:09:46.444187$GBGSV,2,1,06,11,22,180,40,14,65,009,44,24,21,132,43,26,23,080,42*65
###2023-11-09 13:09:46.446137$GBGSV,2,2,06,28,43,286,46,33,59,305,47,,,,,,,,*67
###2023-11-09 13:09:46.447590$GNVTG,45.60,T,,M,3.97,N,7.34,K,A*19
###2023-11-09 13:09:46.529267$GNGGA,130946.70,3611.0365136,N,07544.9174420,W,1,24,0.6,0.886,M,-39.961,M,0.0,*61
###2023-11-09 13:09:46.531841$GPGSV,2,1,07,05,20,090,42,10,19,293,44,13,24,045,40,15,61,037,45*73
###2023-11-09 13:09:46.534091$GPGSV,2,2,07,18,78,277,47,23,50,316,45,24,50,134,46,,,,*4F
###2023-11-09 13:09:46.536658$GLGSV,2,1,05,70,50,017,37,71,48,290,48,80,18,090,44,85,57,203,49*65
###2023-11-09 13:09:46.538271$GLGSV,2,2,05,86,53,308,48,,,,,,,,,,,,*5F
###2023-11-09 13:09:46.540827$GAGSV,1,1,04,07,73,259,45,08,48,043,44,13,63,161,45,26,57,310,45*66
###2023-11-09 13:09:46.543407$GBGSV,2,1,06,11,22,180,41,14,65,009,44,24,21,132,43,26,23,080,42*64
###2023-11-09 13:09:46.545349$GBGSV,2,2,06,28,43,286,45,33,59,305,47,,,,,,,,*64
###2023-11-09 13:09:46.546775$GNVTG,45.59,T,,M,3.97,N,7.34,K,A*13
###2023-11-09 13:09:46.629263$GNGGA,130946.80,3611.0365939,N,07544.9173465,W,1,24,0.6,0.829,M,-39.961,M,0.0,*6A
###2023-11-09 13:09:46.631853$GPGSV,2,1,07,05,20,090,43,10,19,293,44,13,24,045,40,15,61,037,46*71
###2023-11-09 13:09:46.634097$GPGSV,2,2,07,18,78,277,47,23,50,316,45,24,50,134,46,,,,*4F
###2023-11-09 13:09:46.636678$GLGSV,2,1,05,70,50,017,37,71,48,290,47,80,18,090,45,85,57,203,49*6B
###2023-11-09 13:09:46.638296$GLGSV,2,2,05,86,53,308,48,,,,,,,,,,,,*5F
###2023-11-09 13:09:46.640874$GAGSV,1,1,04,07,73,259,45,08,48,043,44,13,63,161,45,26,57,310,45*66
###2023-11-09 13:09:46.643442$GBGSV,2,1,06,11,22,180,41,14,65,009,44,24,21,132,44,26,23,080,42*63
###2023-11-09 13:09:46.645374$GBGSV,2,2,06,28,43,286,45,33,59,305,47,,,,,,,,*64
###2023-11-09 13:09:46.646797$GNVTG,42.79,T,,M,4.00,N,7.42,K,A*1E
###2023-11-09 13:09:46.730513$GNGGA,130946.90,3611.0366770,N,07544.9172542,W,1,24,0.6,0.784,M,-39.961,M,0.0,*66
###2023-11-09 13:09:46.733106$GPGSV,2,1,07,05,20,090,43,10,19,293,43,13,24,045,40,15,61,037,45*75
###2023-11-09 13:09:46.735366$GPGSV,2,2,07,18,78,277,47,23,50,316,45,24,50,134,46,,,,*4F
###2023-11-09 13:09:46.737973$GLGSV,2,1,05,70,50,017,37,71,48,290,48,80,18,090,45,85,57,203,49*64
###2023-11-09 13:09:46.739587$GLGSV,2,2,05,86,53,308,48,,,,,,,,,,,,*5F
###2023-11-09 13:09:46.742153$GAGSV,1,1,04,07,73,259,45,08,48,043,44,13,63,161,45,26,57,310,45*66
###2023-11-09 13:09:46.744729$GBGSV,2,1,06,11,22,180,42,14,65,009,44,24,21,132,44,26,23,080,43*61
###2023-11-09 13:09:46.746660$GBGSV,2,2,06,28,43,286,45,33,59,305,47,,,,,,,,*64
###2023-11-09 13:09:46.748111$GNVTG,41.45,T,,M,3.98,N,7.38,K,A*19
###2023-11-09 13:09:46.832217$GNGGA,130947.00,3611.0367618,N,07544.9171611,W,1,24,0.6,0.756,M,-39.961,M,0.0,*69
###2023-11-09 13:09:46.834781$GPGSV,2,1,07,05,20,090,43,10,19,293,43,13,24,045,40,15,61,037,45*75
###2023-11-09 13:09:46.837025$GPGSV,2,2,07,18,78,277,47,23,50,316,45,24,50,134,46,,,,*4F
###2023-11-09 13:09:46.839582$GLGSV,2,1,05,70,50,017,37,71,48,290,48,80,18,090,45,85,57,203,48*65
###2023-11-09 13:09:46.841182$GLGSV,2,2,05,86,53,308,48,,,,,,,,,,,,*5F
###2023-11-09 13:09:46.843724$GAGSV,1,1,04,07,73,259,45,08,48,043,44,13,63,161,45,26,57,310,45*66
###2023-11-09 13:09:46.846271$GBGSV,2,1,06,11,22,180,42,14,65,009,44,24,21,132,44,26,23,080,43*61
###2023-11-09 13:09:46.848216$GBGSV,2,2,06,28,43,286,45,33,59,305,47,,,,,,,,*64
###2023-11-09 13:09:46.849638$GNVTG,42.12,T,,M,4.14,N,7.67,K,A*11
###2023-11-09 13:09:46.930376$GNGGA,130947.10,3611.0368479,N,07544.9170633,W,1,24,0.6,0.741,M,-39.961,M,0.0,*65
###2023-11-09 13:09:46.932977$GPGSV,2,1,07,05,20,090,43,10,19,293,44,13,24,045,40,15,61,037,45*72
###2023-11-09 13:09:46.935231$GPGSV,2,2,07,18,78,277,47,23,50,316,45,24,50,134,46,,,,*4F
###2023-11-09 13:09:46.937814$GLGSV,2,1,05,70,50,017,37,71,48,290,48,80,18,090,45,85,57,203,48*65
###2023-11-09 13:09:46.939425$GLGSV,2,2,05,86,53,308,48,,,,,,,,,,,,*5F
###2023-11-09 13:09:46.941983$GAGSV,1,1,04,07,73,259,45,08,48,043,44,13,63,161,45,26,57,310,45*66
###2023-11-09 13:09:46.944566$GBGSV,2,1,06,11,22,180,42,14,65,009,44,24,21,132,44,26,23,080,43*61
###2023-11-09 13:09:46.946494$GBGSV,2,2,06,28,43,286,45,33,59,305,47,,,,,,,,*64
###2023-11-09 13:09:46.947939$GNVTG,43.33,T,,M,4.22,N,7.81,K,A*1E
###2023-11-09 13:09:47.032235$GNGGA,130947.20,3611.0369350,N,07544.9169616,W,1,24,0.6,0.728,M,-39.961,M,0.0,*6B
###2023-11-09 13:09:47.034814$GPGSV,2,1,07,05,20,090,43,10,19,293,44,13,24,045,40,15,61,037,45*72
###2023-11-09 13:09:47.037085$GPGSV,2,2,07,18,78,277,47,23,50,316,46,24,50,134,46,,,,*4C
###2023-11-09 13:09:47.039653$GLGSV,2,1,05,70,50,017,36,71,48,290,48,80,18,090,44,85,57,203,48*65
###2023-11-09 13:09:47.041257$GLGSV,2,2,05,86,53,308,48,,,,,,,,,,,,*5F
###2023-11-09 13:09:47.043833$GAGSV,1,1,04,07,73,259,45,08,48,043,44,13,63,161,45,26,57,310,45*66
###2023-11-09 13:09:47.046415$GBGSV,2,1,06,11,22,180,42,14,65,009,44,24,21,132,43,26,23,080,43*66
###2023-11-09 13:09:47.048391$GBGSV,2,2,06,28,43,286,45,33,59,305,47,,,,,,,,*64
###2023-11-09 13:09:47.049821$GNVTG,43.70,T,,M,4.33,N,8.03,K,A*1C
###2023-11-09 13:09:47.129877$GNGGA,130947.30,3611.0370233,N,07544.9168590,W,1,24,0.6,0.714,M,-39.961,M,0.0,*65
###2023-11-09 13:09:47.132449$GPGSV,2,1,07,05,20,090,43,10,19,293,45,13,24,045,40,15,61,037,45*73
###2023-11-09 13:09:47.134675$GPGSV,2,2,07,18,78,277,47,23,50,316,45,24,50,134,46,,,,*4F
###2023-11-09 13:09:47.137243$GLGSV,2,1,05,70,50,017,36,71,48,290,47,80,18,090,45,85,57,203,48*6B
###2023-11-09 13:09:47.138844$GLGSV,2,2,05,86,53,308,48,,,,,,,,,,,,*5F
###2023-11-09 13:09:47.141405$GAGSV,1,1,04,07,73,259,45,08,48,043,44,13,63,161,45,26,57,310,45*66
###2023-11-09 13:09:47.143977$GBGSV,2,1,06,11,22,180,42,14,65,009,44,24,21,132,43,26,23,080,43*66
###2023-11-09 13:09:47.145893$GBGSV,2,2,06,28,43,286,46,33,59,305,47,,,,,,,,*67
###2023-11-09 13:09:47.147327$GNVTG,43.04,T,,M,4.33,N,8.03,K,A*1F
###2023-11-09 13:09:47.229277$GNGGA,130947.40,3611.0371148,N,07544.9167579,W,1,24,0.6,0.705,M,-39.961,M,0.0,*64
###2023-11-09 13:09:47.231877$GPGSV,2,1,07,05,20,090,43,10,19,293,44,13,24,045,40,15,61,037,46*71
###2023-11-09 13:09:47.234127$GPGSV,2,2,07,18,78,277,47,23,50,316,45,24,50,134,46,,,,*4F
###2023-11-09 13:09:47.236693$GLGSV,2,1,05,70,50,017,36,71,48,290,47,80,18,090,45,85,57,203,48*6B
###2023-11-09 13:09:47.238314$GLGSV,2,2,05,86,53,308,48,,,,,,,,,,,,*5F
###2023-11-09 13:09:47.240885$GAGSV,1,1,04,07,73,259,45,08,48,043,44,13,63,161,45,26,57,310,45*66
###2023-11-09 13:09:47.243456$GBGSV,2,1,06,11,22,180,42,14,65,009,44,24,21,132,43,26,23,080,43*66
###2023-11-09 13:09:47.245381$GBGSV,2,2,06,28,43,286,46,33,59,305,47,,,,,,,,*67
###2023-11-09 13:09:47.246805$GNVTG,40.90,T,,M,4.45,N,8.24,K,A*15
###2023-11-09 13:09:47.330615$GNGGA,130947.50,3611.0372094,N,07544.9166572,W,1,24,0.6,0.700,M,-39.961,M,0.0,*69
###2023-11-09 13:09:47.333195$GPGSV,2,1,07,05,20,090,43,10,19,293,45,13,24,045,40,15,61,037,46*70
###2023-11-09 13:09:47.335447$GPGSV,2,2,07,18,78,277,47,23,50,316,45,24,50,134,46,,,,*4F
###2023-11-09 13:09:47.338163$GLGSV,2,1,05,70,50,017,36,71,48,290,47,80,18,090,45,85,57,203,48*6B
###2023-11-09 13:09:47.340089$GLGSV,2,2,05,86,53,308,48,,,,,,,,,,,,*5F
###2023-11-09 13:09:47.342666$GAGSV,1,1,04,07,73,259,45,08,48,043,44,13,63,161,45,26,57,310,45*66
###2023-11-09 13:09:47.345249$GBGSV,2,1,06,11,22,180,42,14,65,009,44,24,21,132,43,26,23,080,43*66
###2023-11-09 13:09:47.347209$GBGSV,2,2,06,28,43,286,46,33,59,305,47,,,,,,,,*67
###2023-11-09 13:09:47.348642$GNVTG,40.88,T,,M,4.49,N,8.32,K,A*17
###2023-11-09 13:09:47.428873$GNGGA,130947.60,3611.0373047,N,07544.9165554,W,1,24,0.6,0.701,M,-39.961,M,0.0,*63
###2023-11-09 13:09:47.431447$GPGSV,2,1,07,05,20,090,43,10,19,293,44,13,24,045,40,15,61,037,46*71
###2023-11-09 13:09:47.433693$GPGSV,2,2,07,18,78,277,47,23,50,316,45,24,50,134,46,,,,*4F
###2023-11-09 13:09:47.436250$GLGSV,2,1,05,70,50,017,36,71,48,290,48,80,18,090,45,85,57,203,48*64
