###2023-11-09 13:07:10.241843$GBGSV,2,1,06,11,24,180,42,14,65,006,45,24,19,133,44,26,23,082,43*61
###2023-11-09 13:07:10.243775$GBGSV,2,2,06,28,43,289,47,33,58,302,47,,,,,,,,*6F
###2023-11-09 13:07:10.245196$GNVTG,17.37,T,,M,1.13,N,2.09,K,A*19
###2023-11-09 13:07:10.326357$GNGGA,130710.50,3611.0509463,N,07544.9777587,W,1,24,0.6,0.991,M,-39.961,M,0.0,*69
###2023-11-09 13:07:10.328979$GPGSV,2,1,07,05,21,090,42,10,18,292,42,13,24,045,42,15,62,037,46*76
###2023-11-09 13:07:10.331240$GPGSV,2,2,07,18,77,281,47,23,50,315,45,24,49,136,46,,,,*40
###2023-11-09 13:07:10.333806$GLGSV,2,1,05,70,50,016,36,71,48,288,48,80,17,091,44,85,58,203,48*6C
###2023-11-09 13:07:10.335410$GLGSV,2,2,05,86,52,309,48,,,,,,,,,,,,*5F
###2023-11-09 13:07:10.338000$GAGSV,1,1,04,07,72,257,45,08,49,042,44,13,64,160,44,26,56,311,45*6E
###2023-11-09 13:07:10.340582$GBGSV,2,1,06,11,24,180,42,14,65,006,45,24,19,133,44,26,23,082,43*61
###2023-11-09 13:07:10.342512$GBGSV,2,2,06,28,43,289,47,33,58,302,47,,,,,,,,*6F
###2023-11-09 13:07:10.343941$GNVTG,14.25,T,,M,1.05,N,1.94,K,A*19
###2023-11-09 13:07:10.427268$GNGGA,130710.60,3611.0509740,N,07544.9777502,W,1,24,0.6,0.986,M,-39.961,M,0.0,*63
###2023-11-09 13:07:10.429863$GPGSV,2,1,07,05,21,090,42,10,18,292,42,13,24,045,42,15,62,037,46*76
###2023-11-09 13:07:10.432120$GPGSV,2,2,07,18,77,281,47,23,50,315,45,24,49,136,46,,,,*40
###2023-11-09 13:07:10.434681$GLGSV,2,1,05,70,50,016,36,71,48,288,48,80,17,091,44,85,58,203,48*6C
###2023-11-09 13:07:10.436286$GLGSV,2,2,05,86,52,309,48,,,,,,,,,,,,*5F
###2023-11-09 13:07:10.438860$GAGSV,1,1,04,07,72,257,45,08,49,042,44,13,64,160,44,26,56,311,45*6E
###2023-11-09 13:07:10.441438$GBGSV,2,1,06,11,24,180,42,14,65,006,45,24,19,133,44,26,23,082,43*61
###2023-11-09 13:07:10.443374$GBGSV,2,2,06,28,43,289,47,33,58,302,47,,,,,,,,*6F
###2023-11-09 13:07:10.444805$GNVTG,14.43,T,,M,1.01,N,1.87,K,A*1F
###2023-11-09 13:07:10.527283$GNGGA,130710.70,3611.0510006,N,07544.9777418,W,1,24,0.6,0.983,M,-39.961,M,0.0,*60
###2023-11-09 13:07:10.529897$GPGSV,2,1,07,05,21,090,42,10,18,292,42,13,24,045,42,15,62,037,46*76
###2023-11-09 13:07:10.532165$GPGSV,2,2,07,18,77,281,47,23,50,315,45,24,49,136,46,,,,*40
###2023-11-09 13:07:10.534731$GLGSV,2,1,05,70,50,016,35,71,48,288,48,80,17,091,44,85,58,203,48*6F
###2023-11-09 13:07:10.536338$GLGSV,2,2,05,86,52,309,48,,,,,,,,,,,,*5F
###2023-11-09 13:07:10.538919$GAGSV,1,1,04,07,72,257,45,08,49,042,44,13,64,160,44,26,56,311,45*6E
###2023-11-09 13:07:10.541488$GBGSV,2,1,06,11,24,180,42,14,65,006,45,24,19,133,44,26,23,082,43*61
###2023-11-09 13:07:10.543408$GBGSV,2,2,06,28,43,289,47,33,58,302,47,,,,,,,,*6F
###2023-11-09 13:07:10.544836$GNVTG,14.43,T,,M,0.95,N,1.76,K,A*1D
###2023-11-09 13:07:10.628273$GNGGA,130710.80,3611.0510279,N,07544.9777342,W,1,24,0.6,0.981,M,-39.961,M,0.0,*6F
###2023-11-09 13:07:10.630883$GPGSV,2,1,07,05,21,090,42,10,18,292,43,13,24,045,42,15,62,037,46*77
###2023-11-09 13:07:10.633144$GPGSV,2,2,07,18,77,281,47,23,50,315,45,24,49,136,46,,,,*40
###2023-11-09 13:07:10.635721$GLGSV,2,1,05,70,50,016,35,71,48,288,48,80,17,091,44,85,58,203,48*6F
###2023-11-09 13:07:10.637343$GLGSV,2,2,05,86,52,309,47,,,,,,,,,,,,*50
###2023-11-09 13:07:10.639921$GAGSV,1,1,04,07,72,257,45,08,49,042,44,13,64,160,44,26,56,311,45*6E
###2023-11-09 13:07:10.642507$GBGSV,2,1,06,11,24,180,42,14,65,006,45,24,19,133,44,26,23,082,43*61
###2023-11-09 13:07:10.644445$GBGSV,2,2,06,28,43,289,47,33,58,302,47,,,,,,,,*6F
###2023-11-09 13:07:10.645875$GNVTG,11.56,T,,M,1.03,N,1.91,K,A*1B
###2023-11-09 13:07:10.727369$GNGGA,130710.90,3611.0510579,N,07544.9777264,W,1,24,0.6,0.979,M,-39.961,M,0.0,*6B
###2023-11-09 13:07:10.729970$GPGSV,2,1,07,05,21,090,42,10,18,292,44,13,24,045,42,15,62,037,46*70
###2023-11-09 13:07:10.732228$GPGSV,2,2,07,18,77,281,47,23,50,315,45,24,49,136,46,,,,*40
###2023-11-09 13:07:10.734809$GLGSV,2,1,05,70,50,016,35,71,48,288,48,80,17,091,43,85,58,203,48*68
###2023-11-09 13:07:10.736415$GLGSV,2,2,05,86,52,309,47,,,,,,,,,,,,*50
###2023-11-09 13:07:10.738997$GAGSV,1,1,04,07,72,257,45,08,49,042,44,13,64,160,44,26,56,311,45*6E
###2023-11-09 13:07:10.741586$GBGSV,2,1,06,11,24,180,42,14,65,006,45,24,19,133,44,26,23,082,43*61
###2023-11-09 13:07:10.743525$GBGSV,2,2,06,28,43,289,47,33,58,302,47,,,,,,,,*6F
###2023-11-09 13:07:10.744952$GNVTG,11.83,T,,M,1.15,N,2.12,K,A*1C
###2023-11-09 13:07:10.831235$GNGGA,130711.00,3611.0510908,N,07544.9777173,W,1,24,0.6,0.978,M,-39.961,M,0.0,*6D
###2023-11-09 13:07:10.833814$GPGSV,2,1,07,05,21,090,42,10,18,292,43,13,24,045,42,15,62,037,46*77
###2023-11-09 13:07:10.836061$GPGSV,2,2,07,18,77,281,47,23,50,315,45,24,49,136,46,,,,*40
###2023-11-09 13:07:10.838643$GLGSV,2,1,05,70,50,016,35,71,48,288,47,80,17,091,43,85,58,203,49*66
###2023-11-09 13:07:10.840250$GLGSV,2,2,05,86,52,309,47,,,,,,,,,,,,*50
###2023-11-09 13:07:10.842816$GAGSV,1,1,04,07,72,257,45,08,49,042,44,13,64,160,44,26,56,311,45*6E
###2023-11-09 13:07:10.845388$GBGSV,2,1,06,11,24,180,42,14,65,006,45,24,19,133,44,26,23,082,43*61
###2023-11-09 13:07:10.847326$GBGSV,2,2,06,28,43,289,47,33,58,302,47,,,,,,,,*6F
###2023-11-09 13:07:10.848751$GNVTG,13.71,T,,M,1.26,N,2.34,K,A*17
###2023-11-09 13:07:10.930239$GNGGA,130711.10,3611.0511243,N,07544.9777060,W,1,24,0.6,0.974,M,-39.961,M,0.0,*66
###2023-11-09 13:07:10.932838$GPGSV,2,1,07,05,21,090,42,10,18,292,43,13,24,045,42,15,62,037,46*77
###2023-11-09 13:07:10.935098$GPGSV,2,2,07,18,77,281,47,23,50,315,45,24,49,136,46,,,,*40
###2023-11-09 13:07:10.937689$GLGSV,2,1,05,70,50,016,35,71,48,288,47,80,17,091,43,85,58,203,49*66
###2023-11-09 13:07:10.939300$GLGSV,2,2,05,86,52,309,47,,,,,,,,,,,,*50
###2023-11-09 13:07:10.941879$GAGSV,1,1,04,07,72,257,45,08,49,042,44,13,64,160,44,26,56,311,45*6E
###2023-11-09 13:07:10.944463$GBGSV,2,1,06,11,24,180,42,14,65,006,45,24,19,133,44,26,23,082,43*61
###2023-11-09 13:07:10.946400$GBGSV,2,2,06,28,43,289,47,33,58,302,47,,,,,,,,*6F
###2023-11-09 13:07:10.947844$GNVTG,17.47,T,,M,1.22,N,2.27,K,A*10
###2023-11-09 13:07:11.033255$GNGGA,130711.20,3611.0511560,N,07544.9776923,W,1,24,0.6,0.968,M,-39.961,M,0.0,*61
###2023-11-09 13:07:11.035859$GPGSV,2,1,07,05,21,090,42,10,18,292,43,13,24,045,42,15,62,037,46*77
###2023-11-09 13:07:11.038132$GPGSV,2,2,07,18,77,281,47,23,50,315,45,24,49,136,46,,,,*40
###2023-11-09 13:07:11.040714$GLGSV,2,1,05,70,50,016,35,71,48,288,47,80,17,091,43,85,58,203,48*67
###2023-11-09 13:07:11.042322$GLGSV,2,2,05,86,52,309,47,,,,,,,,,,,,*50
###2023-11-09 13:07:11.044883$GAGSV,1,1,04,07,72,257,45,08,49,042,44,13,64,160,44,26,56,311,45*6E
###2023-11-09 13:07:11.047478$GBGSV,2,1,06,11,24,180,42,14,65,006,45,24,19,133,43,26,23,082,43*66
###2023-11-09 13:07:11.049414$GBGSV,2,2,06,28,43,289,47,33,58,302,47,,,,,,,,*6F
###2023-11-09 13:07:11.050841$GNVTG,20.70,T,,M,1.19,N,2.20,K,A*1F
###2023-11-09 13:07:11.128493$GNGGA,130711.30,3611.0511841,N,07544.9776768,W,1,24,0.6,0.952,M,-39.961,M,0.0,*66
###2023-11-09 13:07:11.131065$GPGSV,2,1,07,05,21,090,42,10,18,292,43,13,24,045,42,15,62,037,46*77
###2023-11-09 13:07:11.133293$GPGSV,2,2,07,18,77,281,47,23,50,315,45,24,49,136,46,,,,*40
###2023-11-09 13:07:11.135848$GLGSV,2,1,05,70,50,016,35,71,48,288,47,80,17,091,43,85,58,203,47*68
###2023-11-09 13:07:11.137456$GLGSV,2,2,05,86,52,309,47,,,,,,,,,,,,*50
###2023-11-09 13:07:11.140021$GAGSV,1,1,04,07,72,257,45,08,49,042,44,13,64,160,45,26,56,311,45*6F
###2023-11-09 13:07:11.142585$GBGSV,2,1,06,11,24,180,42,14,65,006,45,24,19,133,43,26,23,082,43*66
###2023-11-09 13:07:11.144508$GBGSV,2,2,06,28,43,289,47,33,58,302,47,,,,,,,,*6F
###2023-11-09 13:07:11.145929$GNVTG,28.53,T,,M,1.03,N,1.91,K,A*14
###2023-11-09 13:07:11.228397$GNGGA,130711.40,3611.0512070,N,07544.9776596,W,1,24,0.6,0.930,M,-39.961,M,0.0,*6F
###2023-11-09 13:07:11.230974$GPGSV,2,1,07,05,21,090,42,10,18,292,43,13,24,045,42,15,62,037,46*77
###2023-11-09 13:07:11.233227$GPGSV,2,2,07,18,77,281,47,23,50,315,45,24,49,136,46,,,,*40
###2023-11-09 13:07:11.235794$GLGSV,2,1,05,70,50,016,35,71,48,288,47,80,17,091,43,85,58,203,47*68
###2023-11-09 13:07:11.237403$GLGSV,2,2,05,86,52,309,47,,,,,,,,,,,,*50
###2023-11-09 13:07:11.239960$GAGSV,1,1,04,07,72,257,45,08,49,042,44,13,64,160,45,26,56,311,45*6F
###2023-11-09 13:07:11.242530$GBGSV,2,1,06,11,24,180,42,14,65,006,45,24,19,133,42,26,23,082,43*67
###2023-11-09 13:07:11.244783$GBGSV,2,2,06,28,43,289,47,33,58,302,47,,,,,,,,*6F
###2023-11-09 13:07:11.246224$GNVTG,28.53,T,,M,0.89,N,1.66,K,A*1F
###2023-11-09 13:07:11.330233$GNGGA,130711.50,3611.0512268,N,07544.9776384,W,1,24,0.6,0.913,M,-39.961,M,0.0,*61
###2023-11-09 13:07:11.332829$GPGSV,2,1,07,05,21,090,42,10,18,292,43,13,24,045,42,15,62,037,46*77
###2023-11-09 13:07:11.335079$GPGSV,2,2,07,18,77,281,47,23,50,315,45,24,49,136,46,,,,*40
###2023-11-09 13:07:11.337784$GLGSV,2,1,05,70,50,016,35,71,48,288,47,80,17,091,43,85,58,203,48*67
###2023-11-09 13:07:11.339394$GLGSV,2,2,05,86,52,309,47,,,,,,,,,,,,*50
###2023-11-09 13:07:11.341957$GAGSV,1,1,04,07,72,257,45,08,49,042,44,13,64,160,45,26,56,311,45*6F
###2023-11-09 13:07:11.344536$GBGSV,2,1,06,11,24,180,42,14,65,006,46,24,19,133,42,26,23,082,42*65
