###2023-11-09 13:06:00.935519$GPGSV,2,1,07,05,21,089,42,10,17,292,44,13,25,045,41,15,62,036,46*74
###2023-11-09 13:06:00.937823$GPGSV,2,2,07,18,77,285,47,23,49,314,45,24,49,137,45,,,,*4F
###2023-11-09 13:06:00.940398$GLGSV,1,1,04,71,48,288,49,80,17,092,43,85,59,204,49,86,52,311,48*6A
###2023-11-09 13:06:00.942970$GAGSV,1,1,04,07,72,255,45,08,49,042,44,13,64,160,45,26,56,311,45*6D
###2023-11-09 13:06:00.945536$GBGSV,2,1,06,11,24,180,40,14,65,006,45,24,19,133,41,26,23,082,42*67
###2023-11-09 13:06:00.947482$GBGSV,2,2,06,28,43,289,47,33,58,302,47,,,,,,,,*6F
###2023-11-09 13:06:00.948912$GNVTG,69.63,T,,M,1.19,N,2.20,K,A*10
###2023-11-09 13:06:01.032741$GNGGA,130601.20,3611.0383617,N,07544.9840090,W,1,23,0.6,0.892,M,-39.962,M,0.0,*64
###2023-11-09 13:06:01.035340$GPGSV,2,1,07,05,21,089,42,10,17,292,44,13,25,045,41,15,62,036,46*74
###2023-11-09 13:06:01.037615$GPGSV,2,2,07,18,77,285,47,23,49,314,45,24,49,137,45,,,,*4F
###2023-11-09 13:06:01.040191$GLGSV,1,1,04,71,48,288,49,80,17,092,42,85,59,204,48,86,52,311,47*65
###2023-11-09 13:06:01.042758$GAGSV,1,1,04,07,72,255,45,08,49,042,44,13,64,160,45,26,56,311,45*6D
###2023-11-09 13:06:01.045336$GBGSV,2,1,06,11,24,180,40,14,65,006,45,24,19,133,42,26,23,082,43*65
###2023-11-09 13:06:01.047274$GBGSV,2,2,06,28,43,289,47,33,58,302,47,,,,,,,,*6F
###2023-11-09 13:06:01.048715$GNVTG,68.19,T,,M,1.21,N,2.23,K,A*14
###2023-11-09 13:06:01.161404$GNGGA,130601.30,3611.0383737,N,07544.9839722,W,1,23,0.6,0.900,M,-39.962,M,0.0,*6C
###2023-11-09 13:06:01.164004$GPGSV,2,1,07,05,21,089,42,10,17,292,44,13,25,045,41,15,62,036,46*74
###2023-11-09 13:06:01.166255$GPGSV,2,2,07,18,77,285,47,23,49,314,45,24,49,137,45,,,,*4F
###2023-11-09 13:06:01.168836$GLGSV,1,1,04,71,48,288,49,80,17,092,44,85,59,204,48,86,52,311,47*63
###2023-11-09 13:06:01.171400$GAGSV,1,1,04,07,72,255,45,08,49,042,44,13,64,160,45,26,56,311,45*6D
###2023-11-09 13:06:01.173973$GBGSV,2,1,06,11,24,180,40,14,65,006,45,24,19,133,42,26,23,082,43*65
###2023-11-09 13:06:01.175893$GBGSV,2,2,06,28,43,289,47,33,58,302,47,,,,,,,,*6F
###2023-11-09 13:06:01.177325$GNVTG,64.97,T,,M,1.11,N,2.05,K,A*19
###2023-11-09 13:06:01.230840$GNGGA,130601.40,3611.0383835,N,07544.9839403,W,1,23,0.6,0.909,M,-39.962,M,0.0,*6F
###2023-11-09 13:06:01.233406$GPGSV,2,1,07,05,21,089,42,10,17,292,44,13,25,045,41,15,62,036,46*74
###2023-11-09 13:06:01.235649$GPGSV,2,2,07,18,77,285,47,23,49,314,45,24,49,137,45,,,,*4F
###2023-11-09 13:06:01.238220$GLGSV,1,1,04,71,48,288,49,80,17,092,44,85,59,204,48,86,52,311,48*6C
###2023-11-09 13:06:01.240787$GAGSV,1,1,04,07,72,255,45,08,49,042,44,13,64,160,45,26,56,311,45*6D
###2023-11-09 13:06:01.243346$GBGSV,2,1,06,11,24,180,40,14,65,006,45,24,19,133,42,26,23,082,43*65
###2023-11-09 13:06:01.245270$GBGSV,2,2,06,28,43,289,47,33,58,302,47,,,,,,,,*6F
###2023-11-09 13:06:01.246688$GNVTG,64.97,T,,M,0.87,N,1.62,K,A*15
###2023-11-09 13:06:01.330607$GNGGA,130601.50,3611.0383893,N,07544.9839148,W,1,23,0.6,0.928,M,-39.962,M,0.0,*6B
###2023-11-09 13:06:01.333188$GPGSV,2,1,07,05,21,089,43,10,17,292,44,13,25,045,42,15,62,036,46*76
###2023-11-09 13:06:01.335426$GPGSV,2,2,07,18,77,285,47,23,49,314,45,24,49,137,45,,,,*4F
###2023-11-09 13:06:01.338007$GLGSV,1,1,04,71,48,288,49,80,17,092,44,85,59,204,48,86,52,311,48*6C
###2023-11-09 13:06:01.340577$GAGSV,1,1,04,07,72,255,45,08,49,042,45,13,64,160,45,26,56,311,45*6C
###2023-11-09 13:06:01.343145$GBGSV,2,1,06,11,24,180,40,14,65,006,45,24,19,133,43,26,23,082,44*63
###2023-11-09 13:06:01.345071$GBGSV,2,2,06,28,43,289,47,33,58,302,47,,,,,,,,*6F
###2023-11-09 13:06:01.346496$GNVTG,64.97,T,,M,0.66,N,1.22,K,A*1E
###2023-11-09 13:06:01.431958$GNGGA,130601.60,3611.0383930,N,07544.9838948,W,1,23,0.6,0.953,M,-39.962,M,0.0,*65
###2023-11-09 13:06:01.434539$GPGSV,2,1,07,05,21,089,43,10,17,292,44,13,25,045,42,15,62,036,46*76
###2023-11-09 13:06:01.436791$GPGSV,2,2,07,18,77,285,47,23,49,314,45,24,49,137,45,,,,*4F
###2023-11-09 13:06:01.439408$GLGSV,1,1,04,71,48,288,49,80,17,092,44,85,59,204,48,86,52,311,48*6C
###2023-11-09 13:06:01.441985$GAGSV,1,1,04,07,72,255,45,08,49,042,45,13,64,160,45,26,56,311,45*6C
###2023-11-09 13:06:01.444582$GBGSV,2,1,06,11,24,180,40,14,65,006,45,24,19,133,43,26,23,082,44*63
###2023-11-09 13:06:01.446514$GBGSV,2,2,06,28,43,289,47,33,58,302,47,,,,,,,,*6F
###2023-11-09 13:06:01.447952$GNVTG,64.97,T,,M,0.54,N,1.01,K,A*1E
###2023-11-09 13:06:01.530963$GNGGA,130601.70,3611.0383961,N,07544.9838788,W,1,23,0.6,0.996,M,-39.962,M,0.0,*6B
###2023-11-09 13:06:01.533524$GPGSV,2,1,07,05,21,089,43,10,17,292,44,13,25,045,42,15,62,036,45*75
###2023-11-09 13:06:01.535762$GPGSV,2,2,07,18,77,285,47,23,49,314,46,24,49,137,45,,,,*4C
###2023-11-09 13:06:01.538335$GLGSV,1,1,04,71,48,288,49,80,17,092,44,85,59,204,48,86,52,311,48*6C
###2023-11-09 13:06:01.540889$GAGSV,1,1,04,07,72,255,45,08,49,042,45,13,64,160,45,26,56,311,45*6C
###2023-11-09 13:06:01.543447$GBGSV,2,1,06,11,24,180,40,14,65,006,45,24,19,133,43,26,23,082,44*63
###2023-11-09 13:06:01.545368$GBGSV,2,2,06,28,43,289,47,33,58,302,47,,,,,,,,*6F
###2023-11-09 13:06:01.546788$GNVTG,64.97,T,,M,0.41,N,0.76,K,A*1B
###2023-11-09 13:06:01.630988$GNGGA,130601.80,3611.0384002,N,07544.9838668,W,1,23,0.6,1.048,M,-39.962,M,0.0,*6B
###2023-11-09 13:06:01.633588$GPGSV,2,1,07,05,21,089,43,10,17,292,43,13,25,045,42,15,62,036,45*72
###2023-11-09 13:06:01.635838$GPGSV,2,2,07,18,77,285,47,23,49,314,45,24,49,137,45,,,,*4F
###2023-11-09 13:06:01.638434$GLGSV,1,1,04,71,48,288,49,80,17,092,43,85,59,204,48,86,52,311,48*6B
###2023-11-09 13:06:01.641008$GAGSV,1,1,04,07,72,255,45,08,49,042,45,13,64,160,45,26,56,311,45*6C
###2023-11-09 13:06:01.643580$GBGSV,2,1,06,11,24,180,40,14,65,006,45,24,19,133,43,26,23,082,44*63
###2023-11-09 13:06:01.645512$GBGSV,2,2,06,28,43,289,47,33,58,302,47,,,,,,,,*6F
###2023-11-09 13:06:01.646950$GNVTG,64.97,T,,M,0.35,N,0.65,K,A*1A
###2023-11-09 13:06:01.731993$GNGGA,130601.90,3611.0384061,N,07544.9838595,W,1,23,0.6,1.101,M,-39.962,M,0.0,*62
###2023-11-09 13:06:01.734599$GPGSV,2,1,07,05,21,089,43,10,17,292,43,13,25,045,42,15,62,036,45*72
###2023-11-09 13:06:01.736848$GPGSV,2,2,07,18,77,285,47,23,49,314,45,24,49,137,45,,,,*4F
###2023-11-09 13:06:01.739434$GLGSV,1,1,04,71,48,288,49,80,17,092,43,85,59,204,48,86,52,311,48*6B
###2023-11-09 13:06:01.742002$GAGSV,1,1,04,07,72,255,45,08,49,042,44,13,64,160,45,26,56,311,45*6D
###2023-11-09 13:06:01.744575$GBGSV,2,1,06,11,24,180,40,14,65,006,45,24,19,133,44,26,23,082,44*64
###2023-11-09 13:06:01.746506$GBGSV,2,2,06,28,43,289,47,33,58,302,48,,,,,,,,*60
###2023-11-09 13:06:01.747946$GNVTG,64.97,T,,M,0.29,N,0.54,K,A*15
###2023-11-09 13:06:01.831954$GNGGA,130602.00,3611.0384124,N,07544.9838601,W,1,23,0.6,1.151,M,-39.962,M,0.0,*63
###2023-11-09 13:06:01.834529$GPGSV,2,1,07,05,21,089,43,10,17,292,42,13,25,045,42,15,62,036,45*73
###2023-11-09 13:06:01.836766$GPGSV,2,2,07,18,77,285,47,23,49,314,45,24,49,137,45,,,,*4F
###2023-11-09 13:06:01.839348$GLGSV,1,1,04,71,48,288,49,80,17,092,43,85,59,204,48,86,52,311,48*6B
###2023-11-09 13:06:01.841920$GAGSV,1,1,04,07,72,255,45,08,49,042,44,13,64,160,45,26,56,311,45*6D
###2023-11-09 13:06:01.844488$GBGSV,2,1,06,11,24,180,40,14,65,006,45,24,19,133,44,26,23,082,44*64
###2023-11-09 13:06:01.846407$GBGSV,2,2,06,28,43,289,48,33,58,302,48,,,,,,,,*6F
###2023-11-09 13:06:01.847835$GNVTG,64.97,T,,M,0.27,N,0.50,K,A*1F
###2023-11-09 13:06:01.933877$GNGGA,130602.10,3611.0384153,N,07544.9838713,W,1,23,0.6,1.208,M,-39.962,M,0.0,*6F
###2023-11-09 13:06:01.936475$GPGSV,2,1,07,05,21,089,41,10,17,292,42,13,25,045,42,15,62,036,46*72
###2023-11-09 13:06:01.938766$GPGSV,2,2,07,18,77,285,47,23,49,314,46,24,49,137,45,,,,*4C
###2023-11-09 13:06:01.941355$GLGSV,1,1,04,71,48,288,49,80,17,092,42,85,59,204,48,86,52,311,48*6A
###2023-11-09 13:06:01.943931$GAGSV,1,1,04,07,72,255,45,08,49,042,44,13,64,160,45,26,56,311,45*6D
###2023-11-09 13:06:01.946501$GBGSV,2,1,06,11,24,180,40,14,65,006,45,24,19,133,44,26,23,082,44*64
###2023-11-09 13:06:01.948453$GBGSV,2,2,06,28,43,289,48,33,58,302,48,,,,,,,,*6F
###2023-11-09 13:06:01.949885$GNVTG,64.97,T,,M,0.51,N,0.94,K,A*16
###2023-11-09 13:06:02.033101$GNGGA,130602.20,3611.0384146,N,07544.9838917,W,1,23,0.6,1.270,M,-39.962,M,0.0,*6D
###2023-11-09 13:06:02.035991$GPGSV,2,1,07,05,21,089,41,10,17,292,42,13,25,045,42,15,62,036,46*72
###2023-11-09 13:06:02.038281$GPGSV,2,2,07,18,77,285,47,23,49,314,46,24,49,137,45,,,,*4C
###2023-11-09 13:06:02.040859$GLGSV,1,1,04,71,48,288,50,80,17,092,42,85,59,204,49,86,52,311,48*63
###2023-11-09 13:06:02.043444$GAGSV,1,1,04,07,72,255,45,08,49,042,44,13,64,160,45,26,56,311,45*6D
###2023-11-09 13:06:02.046031$GBGSV,2,1,06,11,24,180,40,14,65,006,45,24,19,133,44,26,23,082,42*62
###2023-11-09 13:06:02.047982$GBGSV,2,2,06,28,43,289,48,33,58,302,48,,,,,,,,*6F
###2023-11-09 13:06:02.049422$GNVTG,64.97,T,,M,0.70,N,1.30,K,A*1A
###2023-11-09 13:06:02.134611$GNGGA,130602.30,3611.0384130,N,07544.9839200,W,1,23,0.6,1.335,M,-39.962,M,0.0,*61
###2023-11-09 13:06:02.137218$GPGSV,2,1,07,05,21,089,41,10,17,292,42,13,25,045,40,15,62,036,46*70
###2023-11-09 13:06:02.139478$GPGSV,2,2,07,18,77,285,46,23,49,314,46,24,49,137,45,,,,*4D
###2023-11-09 13:06:02.142061$GLGSV,1,1,04,71,48,288,49,80,17,092,42,85,59,204,49,86,52,311,48*6B
###2023-11-09 13:06:02.144637$GAGSV,1,1,04,07,72,255,45,08,49,042,44,13,64,160,45,26,56,311,45*6D
