###2023-11-09 13:08:29.430358$GNGGA,130829.60,3611.0282836,N,07545.0200846,W,1,24,0.6,0.751,M,-39.962,M,0.0,*6B
###2023-11-09 13:08:29.432966$GPGSV,2,1,07,05,20,090,42,10,19,293,44,13,24,045,42,15,61,037,46*72
###2023-11-09 13:08:29.435219$GPGSV,2,2,07,18,77,281,46,23,50,315,46,24,49,136,45,,,,*41
###2023-11-09 13:08:29.437843$GLGSV,2,1,05,70,50,017,36,71,48,290,49,80,18,090,44,85,57,203,49*65
###2023-11-09 13:08:29.439458$GLGSV,2,2,05,86,53,308,48,,,,,,,,,,,,*5F
###2023-11-09 13:08:29.442012$GAGSV,1,1,04,07,72,258,45,08,48,043,45,13,64,160,44,26,57,310,45*60
###2023-11-09 13:08:29.444586$GBGSV,2,1,06,11,23,180,39,14,65,008,45,24,20,132,43,26,23,081,43*6B
###2023-11-09 13:08:29.446519$GBGSV,2,2,06,28,43,287,47,33,59,304,48,,,,,,,,*69
###2023-11-09 13:08:29.448000$GNVTG,198.98,T,,M,4.82,N,8.93,K,A*2E
###2023-11-09 13:08:29.529397$GNGGA,130829.70,3611.0281561,N,07545.0201398,W,1,24,0.6,0.782,M,-39.962,M,0.0,*61
###2023-11-09 13:08:29.532007$GPGSV,2,1,07,05,20,090,42,10,19,293,44,13,24,045,42,15,61,037,46*72
###2023-11-09 13:08:29.534273$GPGSV,2,2,07,18,77,281,46,23,50,315,46,24,49,136,45,,,,*41
###2023-11-09 13:08:29.536854$GLGSV,2,1,05,70,50,017,36,71,48,290,49,80,18,090,44,85,57,203,49*65
###2023-11-09 13:08:29.538482$GLGSV,2,2,05,86,53,308,48,,,,,,,,,,,,*5F
###2023-11-09 13:08:29.541056$GAGSV,1,1,04,07,72,258,45,08,48,043,45,13,64,160,44,26,57,310,45*60
###2023-11-09 13:08:29.543642$GBGSV,2,1,06,11,23,180,39,14,65,008,45,24,20,132,43,26,23,081,44*6C
###2023-11-09 13:08:29.545584$GBGSV,2,2,06,28,43,287,47,33,59,304,48,,,,,,,,*69
###2023-11-09 13:08:29.547072$GNVTG,199.70,T,,M,4.84,N,8.96,K,A*2A
###2023-11-09 13:08:29.630493$GNGGA,130829.80,3611.0280289,N,07545.0201974,W,1,24,0.6,0.811,M,-39.962,M,0.0,*63
###2023-11-09 13:08:29.633083$GPGSV,2,1,07,05,20,090,43,10,19,293,44,13,24,045,42,15,61,037,46*73
###2023-11-09 13:08:29.635343$GPGSV,2,2,07,18,77,281,46,23,50,315,46,24,49,136,45,,,,*41
###2023-11-09 13:08:29.637935$GLGSV,2,1,05,70,50,017,36,71,48,290,49,80,18,090,45,85,57,203,49*64
###2023-11-09 13:08:29.639547$GLGSV,2,2,05,86,53,308,48,,,,,,,,,,,,*5F
###2023-11-09 13:08:29.642114$GAGSV,1,1,04,07,72,258,45,08,48,043,45,13,64,160,44,26,57,310,45*60
###2023-11-09 13:08:29.644689$GBGSV,2,1,06,11,23,180,39,14,65,008,46,24,20,132,44,26,23,081,44*68
###2023-11-09 13:08:29.646631$GBGSV,2,2,06,28,43,287,47,33,59,304,47,,,,,,,,*66
###2023-11-09 13:08:29.648116$GNVTG,200.67,T,,M,4.86,N,9.00,K,A*23
###2023-11-09 13:08:29.729480$GNGGA,130829.90,3611.0279031,N,07545.0202583,W,1,24,0.6,0.834,M,-39.962,M,0.0,*65
###2023-11-09 13:08:29.732061$GPGSV,2,1,07,05,20,090,43,10,19,293,43,13,24,045,43,15,61,037,46*75
###2023-11-09 13:08:29.734312$GPGSV,2,2,07,18,77,281,46,23,50,315,46,24,49,136,45,,,,*41
###2023-11-09 13:08:29.736872$GLGSV,2,1,05,70,50,017,36,71,48,290,48,80,18,090,45,85,57,203,49*65
###2023-11-09 13:08:29.738488$GLGSV,2,2,05,86,53,308,48,,,,,,,,,,,,*5F
###2023-11-09 13:08:29.741042$GAGSV,1,1,04,07,72,258,45,08,48,043,45,13,64,160,44,26,57,310,45*60
###2023-11-09 13:08:29.743603$GBGSV,2,1,06,11,23,180,40,14,65,008,46,24,20,132,44,26,23,081,44*66
###2023-11-09 13:08:29.745525$GBGSV,2,2,06,28,43,287,47,33,59,304,47,,,,,,,,*66
###2023-11-09 13:08:29.746995$GNVTG,202.29,T,,M,4.82,N,8.93,K,A*24
###2023-11-09 13:08:29.837019$GNGGA,130830.00,3611.0277768,N,07545.0203239,W,1,24,0.6,0.840,M,-39.962,M,0.0,*65
###2023-11-09 13:08:29.839613$GPGSV,2,1,07,05,20,090,44,10,19,293,42,13,24,045,43,15,61,037,46*73
###2023-11-09 13:08:29.841869$GPGSV,2,2,07,18,77,281,46,23,50,315,46,24,49,136,45,,,,*41
###2023-11-09 13:08:29.844434$GLGSV,2,1,05,70,50,017,36,71,48,290,48,80,18,090,46,85,57,203,49*66
###2023-11-09 13:08:29.846045$GLGSV,2,2,05,86,53,308,48,,,,,,,,,,,,*5F
###2023-11-09 13:08:29.848637$GAGSV,1,1,04,07,72,258,45,08,48,043,45,13,64,160,44,26,57,310,45*60
###2023-11-09 13:08:29.851219$GBGSV,2,1,06,11,23,180,40,14,65,008,46,24,20,132,44,26,23,081,44*66
###2023-11-09 13:08:29.853153$GBGSV,2,2,06,28,43,287,47,33,59,304,47,,,,,,,,*66
###2023-11-09 13:08:29.854624$GNVTG,203.45,T,,M,5.00,N,9.25,K,A*28
###2023-11-09 13:08:29.938379$GNGGA,130830.10,3611.0276507,N,07545.0203923,W,1,24,0.6,0.836,M,-39.962,M,0.0,*6F
###2023-11-09 13:08:29.940979$GPGSV,2,1,07,05,20,090,44,10,19,293,42,13,24,045,43,15,61,037,46*73
###2023-11-09 13:08:29.943233$GPGSV,2,2,07,18,77,281,46,23,50,315,46,24,49,136,45,,,,*41
###2023-11-09 13:08:29.945813$GLGSV,2,1,05,70,50,017,36,71,48,290,48,80,18,090,46,85,57,203,49*66
###2023-11-09 13:08:29.947440$GLGSV,2,2,05,86,53,308,48,,,,,,,,,,,,*5F
###2023-11-09 13:08:29.950016$GAGSV,1,1,04,07,72,258,45,08,48,043,45,13,64,160,44,26,57,310,45*60
###2023-11-09 13:08:29.952600$GBGSV,2,1,06,11,23,180,40,14,65,008,46,24,20,132,44,26,23,081,44*66
###2023-11-09 13:08:29.954546$GBGSV,2,2,06,28,43,287,47,33,59,304,47,,,,,,,,*66
###2023-11-09 13:08:29.956010$GNVTG,204.17,T,,M,4.88,N,9.04,K,A*2A
###2023-11-09 13:08:30.031343$GNGGA,130830.20,3611.0275265,N,07545.0204594,W,1,24,0.6,0.826,M,-39.962,M,0.0,*6A
###2023-11-09 13:08:30.033929$GPGSV,2,1,07,05,20,090,43,10,19,293,42,13,24,045,43,15,61,037,46*74
###2023-11-09 13:08:30.036192$GPGSV,2,2,07,18,77,281,46,23,50,315,46,24,49,136,45,,,,*41
###2023-11-09 13:08:30.038789$GLGSV,2,1,05,70,50,017,36,71,48,290,49,80,18,090,46,85,57,203,49*67
###2023-11-09 13:08:30.040396$GLGSV,2,2,05,86,53,308,48,,,,,,,,,,,,*5F
###2023-11-09 13:08:30.042953$GAGSV,1,1,04,07,72,258,45,08,48,043,45,13,64,160,44,26,57,310,45*60
###2023-11-09 13:08:30.045518$GBGSV,2,1,06,11,23,180,40,14,65,008,45,24,20,132,44,26,23,081,44*65
###2023-11-09 13:08:30.047463$GBGSV,2,2,06,28,43,287,47,33,59,304,47,,,,,,,,*66
###2023-11-09 13:08:30.048924$GNVTG,203.21,T,,M,4.84,N,8.96,K,A*2E
###2023-11-09 13:08:30.129525$GNGGA,130830.30,3611.0274032,N,07545.0205243,W,1,24,0.6,0.826,M,-39.962,M,0.0,*66
###2023-11-09 13:08:30.132132$GPGSV,2,1,07,05,20,090,43,10,19,293,43,13,24,045,43,15,61,037,46*75
###2023-11-09 13:08:30.134385$GPGSV,2,2,07,18,77,281,46,23,50,315,46,24,49,136,45,,,,*41
###2023-11-09 13:08:30.136966$GLGSV,2,1,05,70,50,017,36,71,48,290,49,80,18,090,45,85,57,203,49*64
###2023-11-09 13:08:30.138582$GLGSV,2,2,05,86,53,308,48,,,,,,,,,,,,*5F
###2023-11-09 13:08:30.141156$GAGSV,1,1,04,07,72,258,45,08,48,043,45,13,64,160,44,26,57,310,45*60
###2023-11-09 13:08:30.143726$GBGSV,2,1,06,11,23,180,40,14,65,008,45,24,20,132,44,26,23,081,44*65
###2023-11-09 13:08:30.145663$GBGSV,2,2,06,28,43,287,47,33,59,304,48,,,,,,,,*69
###2023-11-09 13:08:30.147141$GNVTG,202.78,T,,M,4.80,N,8.89,K,A*29
###2023-11-09 13:08:30.230247$GNGGA,130830.40,3611.0272777,N,07545.0205866,W,1,24,0.6,0.841,M,-39.962,M,0.0,*6D
###2023-11-09 13:08:30.232835$GPGSV,2,1,07,05,20,090,43,10,19,293,44,13,24,045,43,15,61,037,46*72
###2023-11-09 13:08:30.235093$GPGSV,2,2,07,18,77,281,46,23,50,315,46,24,49,136,45,,,,*41
###2023-11-09 13:08:30.237694$GLGSV,2,1,05,70,50,017,36,71,48,290,49,80,18,090,45,85,57,203,49*64
###2023-11-09 13:08:30.239306$GLGSV,2,2,05,86,53,308,48,,,,,,,,,,,,*5F
###2023-11-09 13:08:30.241884$GAGSV,1,1,04,07,72,258,45,08,48,043,45,13,64,160,44,26,57,310,45*60
###2023-11-09 13:08:30.244476$GBGSV,2,1,06,11,23,180,40,14,65,008,45,24,20,132,43,26,23,081,44*62
###2023-11-09 13:08:30.246416$GBGSV,2,2,06,28,43,287,47,33,59,304,48,,,,,,,,*69
###2023-11-09 13:08:30.247908$GNVTG,201.03,T,,M,4.94,N,9.14,K,A*26
###2023-11-09 13:08:30.330233$GNGGA,130830.50,3611.0271488,N,07545.0206452,W,1,24,0.6,0.846,M,-39.962,M,0.0,*63
###2023-11-09 13:08:30.332817$GPGSV,2,1,07,05,20,090,42,10,19,293,44,13,24,045,43,15,61,037,46*73
###2023-11-09 13:08:30.335068$GPGSV,2,2,07,18,77,281,46,23,50,315,46,24,49,136,45,,,,*41
###2023-11-09 13:08:30.337653$GLGSV,2,1,05,70,50,017,36,71,48,290,49,80,18,090,45,85,57,203,49*64
###2023-11-09 13:08:30.339256$GLGSV,2,2,05,86,53,308,48,,,,,,,,,,,,*5F
###2023-11-09 13:08:30.341822$GAGSV,1,1,04,07,72,258,45,08,48,043,45,13,64,160,44,26,57,310,45*60
###2023-11-09 13:08:30.344387$GBGSV,2,1,06,11,23,180,40,14,65,008,45,24,20,132,43,26,23,081,44*62
###2023-11-09 13:08:30.346313$GBGSV,2,2,06,28,43,287,47,33,59,304,48,,,,,,,,*69
###2023-11-09 13:08:30.347789$GNVTG,199.13,T,,M,4.94,N,9.14,K,A*25
###2023-11-09 13:08:30.429037$GNGGA,130830.60,3611.0270179,N,07545.0206959,W,1,24,0.6,0.837,M,-39.962,M,0.0,*6A
###2023-11-09 13:08:30.431660$GPGSV,2,1,07,05,20,090,42,10,19,293,44,13,24,045,43,15,61,037,46*73
###2023-11-09 13:08:30.433927$GPGSV,2,2,07,18,77,281,46,23,50,315,46,24,49,136,45,,,,*41
###2023-11-09 13:08:30.436515$GLGSV,2,1,05,70,50,017,36,71,48,290,49,80,18,090,45,85,57,203,49*64
###2023-11-09 13:08:30.438148$GLGSV,2,2,05,86,53,308,48,,,,,,,,,,,,*5F
###2023-11-09 13:08:30.440722$GAGSV,1,1,04,07,72,258,45,08,48,043,45,13,64,160,44,26,57,310,45*60
###2023-11-09 13:08:30.443310$GBGSV,2,1,06,11,23,180,40,14,65,008,45,24,20,132,43,26,23,081,44*62
###2023-11-09 13:08:30.445256$GBGSV,2,2,06,28,43,287,47,33,59,304,48,,,,,,,,*69
###2023-11-09 13:08:30.446728$GNVTG,195.46,T,,M,4.94,N,9.14,K,A*29
###2023-11-09 13:08:30.530383$GNGGA,130830.70,3611.0268874,N,07545.0207404,W,1,24,0.6,0.816,M,-39.962,M,0.0,*61
