###2023-11-09 13:09:45.234146$GPGSV,2,2,07,18,78,277,47,23,50,316,46,24,50,134,45,,,,*4F
###2023-11-09 13:09:45.236731$GLGSV,2,1,05,70,50,017,36,71,48,290,48,80,18,090,45,85,57,203,50*6D
###2023-11-09 13:09:45.238391$GLGSV,2,2,05,86,53,308,49,,,,,,,,,,,,*5E
###2023-11-09 13:09:45.240965$GAGSV,1,1,04,07,73,259,45,08,48,043,44,13,63,161,45,26,57,310,45*66
###2023-11-09 13:09:45.243545$GBGSV,2,1,06,11,22,180,43,14,65,009,44,24,21,132,45,26,23,080,43*61
###2023-11-09 13:09:45.245476$GBGSV,2,2,06,28,43,286,46,33,59,304,47,,,,,,,,*66
###2023-11-09 13:09:45.246919$GNVTG,56.96,T,,M,4.30,N,7.96,K,A*10
###2023-11-09 13:09:45.328113$GNGGA,130945.50,3611.0356515,N,07544.9186484,W,1,24,0.6,0.585,M,-39.961,M,0.0,*68
###2023-11-09 13:09:45.330689$GPGSV,2,1,07,05,20,090,43,10,19,293,44,13,24,045,39,15,61,037,45*7C
###2023-11-09 13:09:45.332932$GPGSV,2,2,07,18,78,277,47,23,50,316,46,24,50,134,45,,,,*4F
###2023-11-09 13:09:45.335492$GLGSV,2,1,05,70,50,017,37,71,48,290,48,80,18,090,45,85,57,203,49*64
###2023-11-09 13:09:45.337100$GLGSV,2,2,05,86,53,308,48,,,,,,,,,,,,*5F
###2023-11-09 13:09:45.339654$GAGSV,1,1,04,07,73,259,45,08,48,043,44,13,63,161,45,26,57,310,45*66
###2023-11-09 13:09:45.342218$GBGSV,2,1,06,11,22,180,43,14,65,009,44,24,21,132,45,26,23,080,43*61
###2023-11-09 13:09:45.344138$GBGSV,2,2,06,28,43,286,46,33,59,304,47,,,,,,,,*66
###2023-11-09 13:09:45.345555$GNVTG,56.88,T,,M,4.26,N,7.88,K,A*17
###2023-11-09 13:09:45.427633$GNGGA,130945.60,3611.0357159,N,07544.9185273,W,1,24,0.6,0.626,M,-39.961,M,0.0,*61
###2023-11-09 13:09:45.430235$GPGSV,2,1,07,05,20,090,43,10,19,293,44,13,24,045,40,15,61,037,46*71
###2023-11-09 13:09:45.432489$GPGSV,2,2,07,18,78,277,47,23,50,316,46,24,50,134,45,,,,*4F
###2023-11-09 13:09:45.435055$GLGSV,2,1,05,70,50,017,37,71,48,290,48,80,18,090,45,85,57,203,49*64
###2023-11-09 13:09:45.436667$GLGSV,2,2,05,86,53,308,49,,,,,,,,,,,,*5E
###2023-11-09 13:09:45.439254$GAGSV,1,1,04,07,73,259,45,08,48,043,44,13,63,161,45,26,57,310,45*66
###2023-11-09 13:09:45.441829$GBGSV,2,1,06,11,22,180,42,14,65,009,44,24,21,132,45,26,23,080,43*60
###2023-11-09 13:09:45.443759$GBGSV,2,2,06,28,43,286,46,33,59,304,47,,,,,,,,*66
###2023-11-09 13:09:45.445184$GNVTG,57.19,T,,M,4.20,N,7.78,K,A*17
###2023-11-09 13:09:45.527991$GNGGA,130945.70,3611.0357792,N,07544.9184086,W,1,24,0.6,0.661,M,-39.961,M,0.0,*6B
###2023-11-09 13:09:45.530578$GPGSV,2,1,07,05,20,090,43,10,19,293,44,13,24,045,40,15,61,037,46*71
###2023-11-09 13:09:45.532835$GPGSV,2,2,07,18,78,277,47,23,50,316,46,24,50,134,45,,,,*4F
###2023-11-09 13:09:45.535406$GLGSV,2,1,05,70,50,017,37,71,48,290,48,80,18,090,45,85,57,203,49*64
###2023-11-09 13:09:45.537038$GLGSV,2,2,05,86,53,308,49,,,,,,,,,,,,*5E
###2023-11-09 13:09:45.539599$GAGSV,1,1,04,07,73,259,45,08,48,043,44,13,63,161,45,26,57,310,45*66
###2023-11-09 13:09:45.542185$GBGSV,2,1,06,11,22,180,42,14,65,009,44,24,21,132,45,26,23,080,43*60
###2023-11-09 13:09:45.544137$GBGSV,2,2,06,28,43,286,46,33,59,304,47,,,,,,,,*66
###2023-11-09 13:09:45.545566$GNVTG,56.60,T,,M,4.08,N,7.56,K,A*1E
###2023-11-09 13:09:45.627984$GNGGA,130945.80,3611.0358427,N,07544.9182964,W,1,24,0.6,0.704,M,-39.961,M,0.0,*67
###2023-11-09 13:09:45.630563$GPGSV,2,1,07,05,20,090,42,10,19,293,44,13,24,045,40,15,61,037,45*73
###2023-11-09 13:09:45.632799$GPGSV,2,2,07,18,78,277,47,23,50,316,46,24,50,134,45,,,,*4F
###2023-11-09 13:09:45.635357$GLGSV,2,1,05,70,50,017,37,71,48,290,48,80,18,090,45,85,57,203,49*64
###2023-11-09 13:09:45.636968$GLGSV,2,2,05,86,53,308,49,,,,,,,,,,,,*5E
###2023-11-09 13:09:45.639538$GAGSV,1,1,04,07,73,259,45,08,48,043,44,13,63,161,45,26,57,310,45*66
###2023-11-09 13:09:45.642111$GBGSV,2,1,06,11,22,180,42,14,65,009,44,24,21,132,45,26,23,080,43*60
###2023-11-09 13:09:45.644036$GBGSV,2,2,06,28,43,286,46,33,59,304,47,,,,,,,,*66
###2023-11-09 13:09:45.645460$GNVTG,53.82,T,,M,3.91,N,7.24,K,A*15
###2023-11-09 13:09:45.728040$GNGGA,130945.90,3611.0359091,N,07544.9181919,W,1,24,0.6,0.762,M,-39.961,M,0.0,*67
###2023-11-09 13:09:45.730656$GPGSV,2,1,07,05,20,090,42,10,19,293,44,13,24,045,40,15,61,037,45*73
###2023-11-09 13:09:45.732907$GPGSV,2,2,07,18,78,277,47,23,50,316,46,24,50,134,45,,,,*4F
###2023-11-09 13:09:45.735475$GLGSV,2,1,05,70,50,017,37,71,48,290,49,80,18,090,45,85,57,203,49*65
###2023-11-09 13:09:45.737103$GLGSV,2,2,05,86,53,308,48,,,,,,,,,,,,*5F
###2023-11-09 13:09:45.739669$GAGSV,1,1,04,07,73,259,45,08,48,043,44,13,63,161,45,26,57,310,45*66
###2023-11-09 13:09:45.742240$GBGSV,2,1,06,11,22,180,42,14,65,009,44,24,21,132,44,26,23,080,43*61
###2023-11-09 13:09:45.744174$GBGSV,2,2,06,28,43,286,45,33,59,304,47,,,,,,,,*65
###2023-11-09 13:09:45.745601$GNVTG,50.31,T,,M,3.85,N,7.13,K,A*1F
###2023-11-09 13:09:45.832980$GNGGA,130946.00,3611.0359787,N,07544.9180920,W,1,24,0.6,0.824,M,-39.961,M,0.0,*6B
###2023-11-09 13:09:45.835575$GPGSV,2,1,07,05,20,090,42,10,19,293,44,13,24,045,40,15,61,037,45*73
###2023-11-09 13:09:45.837847$GPGSV,2,2,07,18,78,277,47,23,50,316,46,24,50,134,45,,,,*4F
###2023-11-09 13:09:45.840430$GLGSV,2,1,05,70,50,017,37,71,48,290,49,80,18,090,45,85,57,203,48*64
###2023-11-09 13:09:45.842036$GLGSV,2,2,05,86,53,308,48,,,,,,,,,,,,*5F
###2023-11-09 13:09:45.844590$GAGSV,1,1,04,07,73,259,45,08,48,043,44,13,63,161,45,26,57,310,45*66
###2023-11-09 13:09:45.847177$GBGSV,2,1,06,11,22,180,42,14,65,009,44,24,21,132,44,26,23,080,43*61
###2023-11-09 13:09:45.849109$GBGSV,2,2,06,28,43,286,45,33,59,304,47,,,,,,,,*65
###2023-11-09 13:09:45.850531$GNVTG,48.75,T,,M,3.83,N,7.09,K,A*1B
###2023-11-09 13:09:45.932844$GNGGA,130946.10,3611.0360498,N,07544.9179947,W,1,24,0.6,0.877,M,-39.961,M,0.0,*6C
###2023-11-09 13:09:45.935418$GPGSV,2,1,07,05,20,090,42,10,19,293,44,13,24,045,40,15,61,037,45*73
###2023-11-09 13:09:45.937674$GPGSV,2,2,07,18,78,277,47,23,50,316,46,24,50,134,45,,,,*4F
###2023-11-09 13:09:45.940231$GLGSV,2,1,05,70,50,017,37,71,48,290,48,80,18,090,45,85,57,203,48*65
###2023-11-09 13:09:45.941827$GLGSV,2,2,05,86,53,308,48,,,,,,,,,,,,*5F
###2023-11-09 13:09:45.944388$GAGSV,1,1,04,07,73,259,45,08,48,043,44,13,63,161,45,26,57,310,45*66
###2023-11-09 13:09:45.946954$GBGSV,2,1,06,11,22,180,42,14,65,009,44,24,21,132,44,26,23,080,43*61
###2023-11-09 13:09:45.948876$GBGSV,2,2,06,28,43,286,46,33,59,305,47,,,,,,,,*67
###2023-11-09 13:09:45.950293$GNVTG,47.55,T,,M,3.81,N,7.06,K,A*1B
###2023-11-09 13:09:46.031353$GNGGA,130946.20,3611.0361224,N,07544.9178992,W,1,24,0.6,0.915,M,-39.961,M,0.0,*63
###2023-11-09 13:09:46.033936$GPGSV,2,1,07,05,20,090,42,10,19,293,44,13,24,045,40,15,61,037,45*73
###2023-11-09 13:09:46.036183$GPGSV,2,2,07,18,78,277,47,23,50,316,46,24,50,134,45,,,,*4F
###2023-11-09 13:09:46.038760$GLGSV,2,1,05,70,50,017,36,71,48,290,48,80,18,090,45,85,57,203,48*64
###2023-11-09 13:09:46.040363$GLGSV,2,2,05,86,53,308,48,,,,,,,,,,,,*5F
###2023-11-09 13:09:46.042927$GAGSV,1,1,04,07,73,259,45,08,48,043,44,13,63,161,45,26,57,310,45*66
###2023-11-09 13:09:46.045510$GBGSV,2,1,06,11,22,180,42,14,65,009,44,24,21,132,43,26,23,080,43*66
###2023-11-09 13:09:46.047485$GBGSV,2,2,06,28,43,286,46,33,59,305,47,,,,,,,,*67
###2023-11-09 13:09:46.048914$GNVTG,46.38,T,,M,3.83,N,7.09,K,A*1C
###2023-11-09 13:09:46.130375$GNGGA,130946.30,3611.0361980,N,07544.9178079,W,1,24,0.6,0.936,M,-39.961,M,0.0,*6A
###2023-11-09 13:09:46.132968$GPGSV,2,1,07,05,20,090,42,10,19,293,44,13,24,045,40,15,61,037,45*73
###2023-11-09 13:09:46.135218$GPGSV,2,2,07,18,78,277,47,23,50,316,46,24,50,134,45,,,,*4F
###2023-11-09 13:09:46.137806$GLGSV,2,1,05,70,50,017,36,71,48,290,49,80,18,090,44,85,57,203,49*65
###2023-11-09 13:09:46.139411$GLGSV,2,2,05,86,53,308,48,,,,,,,,,,,,*5F
###2023-11-09 13:09:46.141967$GAGSV,1,1,04,07,73,259,45,08,48,043,44,13,63,161,45,26,57,310,45*66
###2023-11-09 13:09:46.144536$GBGSV,2,1,06,11,22,180,42,14,65,009,44,24,21,132,43,26,23,080,43*66
###2023-11-09 13:09:46.146463$GBGSV,2,2,06,28,43,286,46,33,59,305,47,,,,,,,,*67
###2023-11-09 13:09:46.147900$GNVTG,42.82,T,,M,3.73,N,6.91,K,A*16
###2023-11-09 13:09:46.229236$GNGGA,130946.40,3611.0362772,N,07544.9177217,W,1,24,0.6,0.949,M,-39.961,M,0.0,*60
###2023-11-09 13:09:46.231803$GPGSV,2,1,07,05,20,090,42,10,19,293,44,13,24,045,40,15,61,037,46*70
###2023-11-09 13:09:46.234072$GPGSV,2,2,07,18,78,277,47,23,50,316,46,24,50,134,45,,,,*4F
###2023-11-09 13:09:46.237028$GLGSV,2,1,05,70,50,017,37,71,48,290,49,80,18,090,44,85,57,203,49*64
###2023-11-09 13:09:46.238679$GLGSV,2,2,05,86,53,308,48,,,,,,,,,,,,*5F
###2023-11-09 13:09:46.241241$GAGSV,1,1,04,07,73,259,45,08,48,043,44,13,63,161,45,26,57,310,45*66
###2023-11-09 13:09:46.243806$GBGSV,2,1,06,11,22,180,42,14,65,009,44,24,21,132,43,26,23,080,43*66
###2023-11-09 13:09:46.245732$GBGSV,2,2,06,28,43,286,46,33,59,305,47,,,,,,,,*67
###2023-11-09 13:09:46.247176$GNVTG,40.47,T,,M,3.81,N,7.06,K,A*1F
###2023-11-09 13:09:46.329397$GNGGA,130946.50,3611.0363572,N,07544.9176337,W,1,24,0.6,0.951,M,-39.961,M,0.0,*69
###2023-11-09 13:09:46.331998$GPGSV,2,1,07,05,20,090,42,10,19,293,44,13,24,045,40,15,61,037,46*70
###2023-11-09 13:09:46.334250$GPGSV,2,2,07,18,78,277,47,23,50,316,46,24,50,134,45,,,,*4F
