###2023-11-09 13:07:23.641505$GAGSV,1,1,04,07,72,257,45,08,49,042,44,13,64,160,44,26,56,310,45*6F
###2023-11-09 13:07:23.644106$GBGSV,2,1,06,11,24,180,42,14,65,006,45,24,19,133,43,26,23,082,43*66
###2023-11-09 13:07:23.646043$GBGSV,2,2,06,28,43,289,47,33,58,302,48,,,,,,,,*60
###2023-11-09 13:07:23.647470$GNVTG,3.66,T,,M,0.62,N,1.15,K,A*21
###2023-11-09 13:07:23.729865$GNGGA,130723.90,3611.0536228,N,07544.9773120,W,1,24,0.6,1.268,M,-39.961,M,0.0,*61
###2023-11-09 13:07:23.732438$GPGSV,2,1,07,05,21,090,41,10,18,292,43,13,24,045,41,15,62,037,45*74
###2023-11-09 13:07:23.734685$GPGSV,2,2,07,18,77,281,47,23,50,315,45,24,49,136,46,,,,*40
###2023-11-09 13:07:23.737268$GLGSV,2,1,05,70,50,016,35,71,48,288,48,80,17,091,42,85,58,203,48*69
###2023-11-09 13:07:23.738870$GLGSV,2,2,05,86,52,309,47,,,,,,,,,,,,*50
###2023-11-09 13:07:23.741434$GAGSV,1,1,04,07,72,257,45,08,49,042,43,13,64,160,45,26,56,310,45*69
###2023-11-09 13:07:23.743999$GBGSV,2,1,06,11,24,180,42,14,65,006,45,24,19,133,43,26,23,082,43*66
###2023-11-09 13:07:23.745929$GBGSV,2,2,06,28,43,289,47,33,58,302,48,,,,,,,,*60
###2023-11-09 13:07:23.747323$GNVTG,3.66,T,,M,0.93,N,1.73,K,A*2F
###2023-11-09 13:07:23.835617$GNGGA,130724.00,3611.0536504,N,07544.9773210,W,1,24,0.6,1.281,M,-39.961,M,0.0,*61
###2023-11-09 13:07:23.838255$GPGSV,2,1,07,05,21,090,41,10,18,292,41,13,24,045,41,15,62,037,45*76
###2023-11-09 13:07:23.840521$GPGSV,2,2,07,18,77,281,47,23,50,315,45,24,49,136,46,,,,*40
###2023-11-09 13:07:23.843096$GLGSV,2,1,05,70,50,016,35,71,48,288,48,80,17,091,42,85,58,203,48*69
###2023-11-09 13:07:23.844699$GLGSV,2,2,05,86,52,309,47,,,,,,,,,,,,*50
###2023-11-09 13:07:23.847280$GAGSV,1,1,04,07,72,257,45,08,49,042,43,13,64,160,45,26,56,310,45*69
###2023-11-09 13:07:23.849872$GBGSV,2,1,06,11,24,180,42,14,65,006,45,24,19,133,43,26,23,082,43*66
###2023-11-09 13:07:23.851809$GBGSV,2,2,06,28,43,289,47,33,58,302,47,,,,,,,,*6F
###2023-11-09 13:07:23.853276$GNVTG,346.22,T,,M,1.11,N,2.05,K,A*24
###2023-11-09 13:07:23.938889$GNGGA,130724.10,3611.0536795,N,07544.9773303,W,1,24,0.6,1.287,M,-39.961,M,0.0,*6F
###2023-11-09 13:07:23.941472$GPGSV,2,1,07,05,21,090,41,10,18,292,41,13,24,045,43,15,62,037,45*74
###2023-11-09 13:07:23.943717$GPGSV,2,2,07,18,77,281,47,23,50,315,45,24,49,136,46,,,,*40
###2023-11-09 13:07:23.946281$GLGSV,2,1,05,70,50,016,35,71,48,288,48,80,17,091,42,85,58,203,48*69
###2023-11-09 13:07:23.947894$GLGSV,2,2,05,86,52,309,47,,,,,,,,,,,,*50
###2023-11-09 13:07:23.950451$GAGSV,1,1,04,07,72,257,45,08,49,042,43,13,64,160,45,26,56,310,45*69
###2023-11-09 13:07:23.953019$GBGSV,2,1,06,11,24,180,41,14,65,006,45,24,19,133,43,26,23,082,43*65
###2023-11-09 13:07:23.954957$GBGSV,2,2,06,28,43,289,47,33,58,302,47,,,,,,,,*6F
###2023-11-09 13:07:23.956421$GNVTG,344.35,T,,M,1.03,N,1.91,K,A*2D
###2023-11-09 13:07:24.033595$GNGGA,130724.20,3611.0537045,N,07544.9773401,W,1,24,0.6,1.292,M,-39.961,M,0.0,*66
###2023-11-09 13:07:24.036171$GPGSV,2,1,07,05,21,090,41,10,18,292,41,13,24,045,43,15,62,037,46*77
###2023-11-09 13:07:24.038424$GPGSV,2,2,07,18,77,281,47,23,50,315,45,24,49,136,46,,,,*40
###2023-11-09 13:07:24.040982$GLGSV,2,1,05,70,50,016,35,71,48,288,48,80,17,091,43,85,58,203,48*68
###2023-11-09 13:07:24.042579$GLGSV,2,2,05,86,52,309,47,,,,,,,,,,,,*50
###2023-11-09 13:07:24.045129$GAGSV,1,1,04,07,72,257,45,08,49,042,44,13,64,160,45,26,56,310,45*6E
###2023-11-09 13:07:24.047704$GBGSV,2,1,06,11,24,180,41,14,65,006,45,24,19,133,43,26,23,082,43*65
###2023-11-09 13:07:24.049634$GBGSV,2,2,06,28,43,289,47,33,58,302,47,,,,,,,,*6F
###2023-11-09 13:07:24.051091$GNVTG,344.35,T,,M,0.87,N,1.62,K,A*2C
###2023-11-09 13:07:24.130868$GNGGA,130724.30,3611.0537228,N,07544.9773513,W,1,24,0.6,1.285,M,-39.961,M,0.0,*6A
###2023-11-09 13:07:24.133472$GPGSV,2,1,07,05,21,090,42,10,18,292,42,13,24,045,43,15,62,037,46*77
###2023-11-09 13:07:24.135736$GPGSV,2,2,07,18,77,281,47,23,50,315,45,24,49,136,46,,,,*40
###2023-11-09 13:07:24.138331$GLGSV,2,1,05,70,50,016,35,71,48,288,48,80,17,091,44,85,58,203,48*6F
###2023-11-09 13:07:24.139949$GLGSV,2,2,05,86,52,309,48,,,,,,,,,,,,*5F
###2023-11-09 13:07:24.142520$GAGSV,1,1,04,07,72,257,45,08,49,042,44,13,64,160,45,26,56,310,45*6E
###2023-11-09 13:07:24.145090$GBGSV,2,1,06,11,24,180,41,14,65,006,45,24,19,133,43,26,23,082,43*65
###2023-11-09 13:07:24.147045$GBGSV,2,2,06,28,43,289,47,33,58,302,47,,,,,,,,*6F
###2023-11-09 13:07:24.148504$GNVTG,344.35,T,,M,0.66,N,1.22,K,A*27
###2023-11-09 13:07:24.232106$GNGGA,130724.40,3611.0537347,N,07544.9773638,W,1,24,0.6,1.272,M,-39.961,M,0.0,*67
###2023-11-09 13:07:24.234700$GPGSV,2,1,07,05,21,090,42,10,18,292,43,13,24,045,43,15,62,037,46*76
###2023-11-09 13:07:24.236974$GPGSV,2,2,07,18,77,281,47,23,50,315,45,24,49,136,46,,,,*40
###2023-11-09 13:07:24.239542$GLGSV,2,1,05,70,50,016,35,71,48,288,48,80,17,091,44,85,58,203,48*6F
###2023-11-09 13:07:24.241148$GLGSV,2,2,05,86,52,309,47,,,,,,,,,,,,*50
###2023-11-09 13:07:24.243706$GAGSV,1,1,04,07,72,257,45,08,49,042,44,13,64,160,45,26,56,310,45*6E
###2023-11-09 13:07:24.246277$GBGSV,2,1,06,11,24,180,41,14,65,006,45,24,19,133,43,26,23,082,43*65
###2023-11-09 13:07:24.248218$GBGSV,2,2,06,28,43,289,47,33,58,302,47,,,,,,,,*6F
###2023-11-09 13:07:24.249677$GNVTG,344.35,T,,M,0.52,N,0.97,K,A*2F
###2023-11-09 13:07:24.330847$GNGGA,130724.50,3611.0537450,N,07544.9773755,W,1,24,0.6,1.260,M,-39.961,M,0.0,*6E
###2023-11-09 13:07:24.333402$GPGSV,2,1,07,05,21,090,41,10,18,292,43,13,24,045,42,15,62,037,46*74
###2023-11-09 13:07:24.335636$GPGSV,2,2,07,18,77,281,47,23,50,315,45,24,49,136,46,,,,*40
###2023-11-09 13:07:24.338206$GLGSV,2,1,05,70,50,016,35,71,48,288,48,80,17,091,43,85,58,203,48*68
###2023-11-09 13:07:24.339805$GLGSV,2,2,05,86,52,309,47,,,,,,,,,,,,*50
###2023-11-09 13:07:24.342359$GAGSV,1,1,04,07,72,257,45,08,49,042,44,13,64,160,45,26,56,310,45*6E
###2023-11-09 13:07:24.344920$GBGSV,2,1,06,11,24,180,41,14,65,006,45,24,19,133,43,26,23,082,42*64
###2023-11-09 13:07:24.346835$GBGSV,2,2,06,28,43,289,47,33,58,302,47,,,,,,,,*6F
###2023-11-09 13:07:24.348299$GNVTG,344.35,T,,M,0.54,N,1.01,K,A*27
###2023-11-09 13:07:24.430998$GNGGA,130724.60,3611.0537578,N,07544.9773861,W,1,24,0.6,1.242,M,-39.961,M,0.0,*6E
###2023-11-09 13:07:24.433599$GPGSV,2,1,07,05,21,090,41,10,18,292,44,13,24,045,42,15,62,037,46*73
###2023-11-09 13:07:24.435861$GPGSV,2,2,07,18,77,281,47,23,50,315,45,24,49,136,46,,,,*40
###2023-11-09 13:07:24.438484$GLGSV,2,1,05,70,50,016,35,71,48,288,48,80,17,091,43,85,58,203,48*68
###2023-11-09 13:07:24.440102$GLGSV,2,2,05,86,52,309,47,,,,,,,,,,,,*50
###2023-11-09 13:07:24.442676$GAGSV,1,1,04,07,72,257,45,08,49,042,44,13,64,160,45,26,56,310,45*6E
###2023-11-09 13:07:24.445259$GBGSV,2,1,06,11,24,180,41,14,65,006,45,24,19,133,44,26,23,082,42*63
###2023-11-09 13:07:24.447212$GBGSV,2,2,06,28,43,289,47,33,58,302,47,,,,,,,,*6F
###2023-11-09 13:07:24.448685$GNVTG,344.35,T,,M,0.60,N,1.12,K,A*22
###2023-11-09 13:07:24.532133$GNGGA,130724.70,3611.0537745,N,07544.9773961,W,1,24,0.6,1.230,M,-39.961,M,0.0,*67
###2023-11-09 13:07:24.534732$GPGSV,2,1,07,05,21,090,41,10,18,292,44,13,24,045,41,15,62,037,46*70
###2023-11-09 13:07:24.537023$GPGSV,2,2,07,18,77,281,46,23,50,315,45,24,49,136,46,,,,*41
###2023-11-09 13:07:24.539601$GLGSV,2,1,05,70,50,016,35,71,48,288,48,80,17,091,43,85,58,203,48*68
###2023-11-09 13:07:24.541202$GLGSV,2,2,05,86,52,309,47,,,,,,,,,,,,*50
###2023-11-09 13:07:24.543767$GAGSV,1,1,04,07,72,257,45,08,49,042,44,13,64,160,44,26,56,310,45*6F
###2023-11-09 13:07:24.546353$GBGSV,2,1,06,11,24,180,42,14,65,006,45,24,19,133,44,26,23,082,42*60
###2023-11-09 13:07:24.548311$GBGSV,2,2,06,28,43,289,47,33,58,302,47,,,,,,,,*6F
###2023-11-09 13:07:24.549782$GNVTG,344.35,T,,M,0.78,N,1.44,K,A*28
###2023-11-09 13:07:24.631638$GNGGA,130724.80,3611.0537950,N,07544.9774050,W,1,24,0.6,1.225,M,-39.961,M,0.0,*6A
###2023-11-09 13:07:24.634236$GPGSV,2,1,07,05,21,090,41,10,18,292,44,13,24,045,40,15,62,037,45*72
###2023-11-09 13:07:24.636481$GPGSV,2,2,07,18,77,281,46,23,50,315,45,24,49,136,46,,,,*41
###2023-11-09 13:07:24.639075$GLGSV,2,1,05,70,50,016,35,71,48,288,48,80,17,091,43,85,58,203,48*68
###2023-11-09 13:07:24.640683$GLGSV,2,2,05,86,52,309,47,,,,,,,,,,,,*50
###2023-11-09 13:07:24.643546$GAGSV,1,1,04,07,72,257,45,08,49,042,44,13,64,160,44,26,56,310,45*6F
###2023-11-09 13:07:24.646125$GBGSV,2,1,06,11,24,180,42,14,65,006,45,24,19,133,44,26,23,082,42*60
###2023-11-09 13:07:24.648070$GBGSV,2,2,06,28,43,289,47,33,58,302,47,,,,,,,,*6F
###2023-11-09 13:07:24.649547$GNVTG,344.35,T,,M,0.84,N,1.55,K,A*2B
###2023-11-09 13:07:24.730017$GNGGA,130724.90,3611.0538194,N,07544.9774128,W,1,24,0.6,1.226,M,-39.961,M,0.0,*69
###2023-11-09 13:07:24.732616$GPGSV,2,1,07,05,21,090,41,10,18,292,44,13,24,045,42,15,62,037,46*73
###2023-11-09 13:07:24.734875$GPGSV,2,2,07,18,77,281,47,23,50,315,45,24,49,136,46,,,,*40
###2023-11-09 13:07:24.737467$GLGSV,2,1,05,70,50,016,35,71,48,288,48,80,17,091,43,85,58,203,48*68
###2023-11-09 13:07:24.739085$GLGSV,2,2,05,86,52,309,47,,,,,,,,,,,,*50
###2023-11-09 13:07:24.741657$GAGSV,1,1,04,07,72,257,45,08,49,042,44,13,64,160,44,26,56,310,45*6F
