###2023-11-09 13:09:37.435787$GPGSV,2,2,07,18,78,277,47,23,50,316,45,24,50,134,46,,,,*4F
###2023-11-09 13:09:37.438462$GLGSV,2,1,05,70,50,017,35,71,48,290,47,80,18,090,42,85,57,203,49*6E
###2023-11-09 13:09:37.440091$GLGSV,2,2,05,86,53,308,47,,,,,,,,,,,,*50
###2023-11-09 13:09:37.442650$GAGSV,1,1,04,07,73,259,45,08,48,043,44,13,63,161,45,26,57,310,45*66
###2023-11-09 13:09:37.445218$GBGSV,2,1,06,11,22,180,41,14,65,009,45,24,20,132,43,26,23,081,43*64
###2023-11-09 13:09:37.447167$GBGSV,2,2,06,28,43,287,47,33,59,304,47,,,,,,,,*66
###2023-11-09 13:09:37.448665$GNVTG,100.19,T,,M,7.06,N,13.07,K,A*1E
###2023-11-09 13:09:37.529506$GNGGA,130937.70,3611.0340025,N,07544.9362535,W,1,24,0.6,0.484,M,-39.961,M,0.0,*6D
###2023-11-09 13:09:37.532103$GPGSV,2,1,07,05,20,090,40,10,19,293,44,13,24,045,41,15,61,037,45*70
###2023-11-09 13:09:37.534358$GPGSV,2,2,07,18,78,277,47,23,50,316,45,24,50,134,46,,,,*4F
###2023-11-09 13:09:37.536921$GLGSV,2,1,05,70,50,017,35,71,48,290,47,80,18,090,42,85,57,203,49*6E
###2023-11-09 13:09:37.538523$GLGSV,2,2,05,86,53,308,47,,,,,,,,,,,,*50
###2023-11-09 13:09:37.541074$GAGSV,1,1,04,07,73,259,45,08,48,043,44,13,63,161,45,26,57,310,44*67
###2023-11-09 13:09:37.543636$GBGSV,2,1,06,11,22,180,43,14,65,009,45,24,20,132,45,26,23,081,43*60
###2023-11-09 13:09:37.545562$GBGSV,2,2,06,28,43,287,47,33,59,304,47,,,,,,,,*66
###2023-11-09 13:09:37.547024$GNVTG,99.54,T,,M,7.56,N,14.00,K,A*23
###2023-11-09 13:09:37.629510$GNGGA,130937.80,3611.0339693,N,07544.9359903,W,1,24,0.6,0.479,M,-39.961,M,0.0,*64
###2023-11-09 13:09:37.632103$GPGSV,2,1,07,05,20,090,40,10,19,293,44,13,24,045,40,15,61,037,45*71
###2023-11-09 13:09:37.634357$GPGSV,2,2,07,18,78,277,47,23,50,316,45,24,50,134,46,,,,*4F
###2023-11-09 13:09:37.636958$GLGSV,2,1,05,70,50,017,35,71,48,290,48,80,18,090,42,85,57,203,49*61
###2023-11-09 13:09:37.638573$GLGSV,2,2,05,86,53,308,46,,,,,,,,,,,,*51
###2023-11-09 13:09:37.641147$GAGSV,1,1,04,07,73,259,45,08,48,043,43,13,63,161,45,26,57,310,44*60
###2023-11-09 13:09:37.643732$GBGSV,2,1,06,11,22,180,43,14,65,009,45,24,20,132,45,26,23,081,42*61
###2023-11-09 13:09:37.645673$GBGSV,2,2,06,28,43,287,47,33,59,304,46,,,,,,,,*67
###2023-11-09 13:09:37.647154$GNVTG,97.88,T,,M,7.95,N,14.72,K,A*26
###2023-11-09 13:09:37.729511$GNGGA,130937.90,3611.0339429,N,07544.9357117,W,1,24,0.6,0.506,M,-39.961,M,0.0,*6C
###2023-11-09 13:09:37.732103$GPGSV,2,1,07,05,20,090,40,10,19,293,44,13,24,045,40,15,61,037,45*71
###2023-11-09 13:09:37.734361$GPGSV,2,2,07,18,78,277,47,23,50,316,44,24,50,134,45,,,,*4D
###2023-11-09 13:09:37.736945$GLGSV,2,1,05,70,50,017,35,71,48,290,48,80,18,090,42,85,57,203,49*61
###2023-11-09 13:09:37.738559$GLGSV,2,2,05,86,53,308,47,,,,,,,,,,,,*50
###2023-11-09 13:09:37.741129$GAGSV,1,1,04,07,73,259,45,08,48,043,43,13,63,161,45,26,57,310,44*60
###2023-11-09 13:09:37.743715$GBGSV,2,1,06,11,22,180,43,14,65,009,45,24,20,132,45,26,23,081,41*62
###2023-11-09 13:09:37.745651$GBGSV,2,2,06,28,43,287,48,33,59,304,47,,,,,,,,*69
###2023-11-09 13:09:37.747125$GNVTG,95.34,T,,M,8.40,N,15.55,K,A*20
###2023-11-09 13:09:37.832731$GNGGA,130938.00,3611.0339258,N,07544.9354185,W,1,24,0.6,0.571,M,-39.961,M,0.0,*62
###2023-11-09 13:09:37.835305$GPGSV,2,1,07,05,20,090,40,10,19,293,44,13,24,045,40,15,61,037,45*71
###2023-11-09 13:09:37.837563$GPGSV,2,2,07,18,78,277,46,23,50,316,44,24,50,134,45,,,,*4C
###2023-11-09 13:09:37.840116$GLGSV,2,1,05,70,50,017,35,71,48,290,48,80,18,090,43,85,57,203,48*61
###2023-11-09 13:09:37.841706$GLGSV,2,2,05,86,53,308,47,,,,,,,,,,,,*50
###2023-11-09 13:09:37.844258$GAGSV,1,1,04,07,73,259,45,08,48,043,43,13,63,161,45,26,57,310,44*60
###2023-11-09 13:09:37.846814$GBGSV,2,1,06,11,22,180,43,14,65,009,45,24,20,132,44,26,23,081,41*63
###2023-11-09 13:09:37.848748$GBGSV,2,2,06,28,43,287,48,33,59,304,47,,,,,,,,*69
###2023-11-09 13:09:37.850202$GNVTG,92.69,T,,M,8.75,N,16.20,K,A*28
###2023-11-09 13:09:37.931597$GNGGA,130938.10,3611.0339176,N,07544.9351113,W,1,24,0.6,0.645,M,-39.961,M,0.0,*62
###2023-11-09 13:09:37.934182$GPGSV,2,1,07,05,20,090,40,10,19,293,44,13,24,045,41,15,61,037,45*70
###2023-11-09 13:09:37.936425$GPGSV,2,2,07,18,78,277,46,23,50,316,45,24,50,134,45,,,,*4D
###2023-11-09 13:09:37.939010$GLGSV,2,1,05,70,50,017,35,71,48,290,48,80,18,090,43,85,57,203,48*61
###2023-11-09 13:09:37.940612$GLGSV,2,2,05,86,53,308,47,,,,,,,,,,,,*50
###2023-11-09 13:09:37.943173$GAGSV,1,1,04,07,73,259,45,08,48,043,44,13,63,161,44,26,57,310,44*66
###2023-11-09 13:09:37.945739$GBGSV,2,1,06,11,22,180,42,14,65,009,45,24,20,132,43,26,23,081,41*65
###2023-11-09 13:09:37.947676$GBGSV,2,2,06,28,43,287,48,33,59,304,48,,,,,,,,*66
###2023-11-09 13:09:37.949138$GNVTG,90.98,T,,M,9.17,N,16.99,K,A*23
###2023-11-09 13:09:38.034486$GNGGA,130938.20,3611.0339107,N,07544.9347896,W,1,24,0.6,0.714,M,-39.961,M,0.0,*61
###2023-11-09 13:09:38.037099$GPGSV,2,1,07,05,20,090,40,10,19,293,44,13,24,045,42,15,61,037,45*73
###2023-11-09 13:09:38.039351$GPGSV,2,2,07,18,78,277,46,23,50,316,45,24,50,134,45,,,,*4D
###2023-11-09 13:09:38.041921$GLGSV,2,1,05,70,50,017,35,71,48,290,49,80,18,090,43,85,57,203,48*60
###2023-11-09 13:09:38.043529$GLGSV,2,2,05,86,53,308,48,,,,,,,,,,,,*5F
###2023-11-09 13:09:38.046098$GAGSV,1,1,04,07,73,259,45,08,48,043,44,13,63,161,44,26,57,310,45*67
###2023-11-09 13:09:38.048685$GBGSV,2,1,06,11,22,180,40,14,65,009,46,24,20,132,42,26,23,081,42*66
###2023-11-09 13:09:38.050623$GBGSV,2,2,06,28,43,287,48,33,59,304,48,,,,,,,,*66
###2023-11-09 13:09:38.052084$GNVTG,91.89,T,,M,9.58,N,17.75,K,A*2A
###2023-11-09 13:09:38.134088$GNGGA,130938.30,3611.0338967,N,07544.9344533,W,1,24,0.6,0.766,M,-39.961,M,0.0,*6B
###2023-11-09 13:09:38.136659$GPGSV,2,1,07,05,20,090,38,10,19,293,45,13,24,045,41,15,61,037,45*7E
###2023-11-09 13:09:38.138909$GPGSV,2,2,07,18,78,277,46,23,50,316,45,24,50,134,45,,,,*4D
###2023-11-09 13:09:38.141463$GLGSV,2,1,05,70,50,017,35,71,48,290,49,80,18,090,41,85,57,203,48*62
###2023-11-09 13:09:38.143060$GLGSV,2,2,05,86,53,308,48,,,,,,,,,,,,*5F
###2023-11-09 13:09:38.145608$GAGSV,1,1,04,07,73,259,45,08,48,043,44,13,63,161,44,26,57,310,45*67
###2023-11-09 13:09:38.148177$GBGSV,2,1,06,11,22,180,39,14,65,009,46,24,20,132,40,26,23,081,42*6A
###2023-11-09 13:09:38.150099$GBGSV,2,2,06,28,43,287,48,33,59,304,48,,,,,,,,*66
###2023-11-09 13:09:38.151590$GNVTG,93.74,T,,M,10.07,N,18.65,K,A*16
###2023-11-09 13:09:38.230607$GNGGA,130938.40,3611.0338753,N,07544.9340988,W,1,24,0.6,0.786,M,-39.961,M,0.0,*63
###2023-11-09 13:09:38.233190$GPGSV,2,1,07,05,20,090,38,10,19,293,45,13,24,045,40,15,61,037,45*7F
###2023-11-09 13:09:38.235432$GPGSV,2,2,07,18,78,277,46,23,50,316,45,24,50,134,45,,,,*4D
###2023-11-09 13:09:38.238100$GLGSV,2,1,05,70,50,017,35,71,48,290,49,80,18,090,41,85,57,203,48*62
###2023-11-09 13:09:38.239720$GLGSV,2,2,05,86,53,308,47,,,,,,,,,,,,*50
###2023-11-09 13:09:38.242286$GAGSV,1,1,04,07,73,259,45,08,48,043,44,13,63,161,44,26,57,310,45*67
###2023-11-09 13:09:38.244853$GBGSV,2,1,06,11,22,180,39,14,65,009,46,24,20,132,40,26,23,081,42*6A
###2023-11-09 13:09:38.246786$GBGSV,2,2,06,28,43,287,48,33,59,304,48,,,,,,,,*66
###2023-11-09 13:09:38.248326$GNVTG,94.59,T,,M,10.67,N,19.76,K,A*1B
###2023-11-09 13:09:38.331614$GNGGA,130938.50,3611.0338514,N,07544.9337307,W,1,24,0.6,0.753,M,-39.961,M,0.0,*66
###2023-11-09 13:09:38.334194$GPGSV,2,1,07,05,20,090,40,10,19,293,44,13,24,045,39,15,61,037,45*7F
###2023-11-09 13:09:38.336439$GPGSV,2,2,07,18,78,277,46,23,50,316,45,24,50,134,46,,,,*4E
###2023-11-09 13:09:38.339027$GLGSV,2,1,05,70,50,017,35,71,48,290,48,80,18,090,41,85,57,203,48*63
###2023-11-09 13:09:38.340634$GLGSV,2,2,05,86,53,308,47,,,,,,,,,,,,*50
###2023-11-09 13:09:38.343200$GAGSV,1,1,04,07,73,259,45,08,48,043,44,13,63,161,44,26,57,310,45*67
###2023-11-09 13:09:38.345782$GBGSV,2,1,06,11,22,180,39,14,65,009,45,24,20,132,42,26,23,081,42*6B
###2023-11-09 13:09:38.347732$GBGSV,2,2,06,28,43,287,47,33,59,304,48,,,,,,,,*69
###2023-11-09 13:09:38.349228$GNVTG,94.43,T,,M,10.87,N,20.12,K,A*16
###2023-11-09 13:09:38.430027$GNGGA,130938.60,3611.0338299,N,07544.9333706,W,1,24,0.6,0.694,M,-39.961,M,0.0,*6C
###2023-11-09 13:09:38.432624$GPGSV,2,1,07,05,20,090,40,10,19,293,44,13,24,045,39,15,61,037,45*7F
###2023-11-09 13:09:38.435172$GPGSV,2,2,07,18,78,277,46,23,50,316,45,24,50,134,46,,,,*4E
###2023-11-09 13:09:38.437771$GLGSV,2,1,05,70,50,017,35,71,48,290,47,80,18,090,41,85,57,203,48*6C
###2023-11-09 13:09:38.439383$GLGSV,2,2,05,86,53,308,47,,,,,,,,,,,,*50
###2023-11-09 13:09:38.441946$GAGSV,1,1,04,07,73,259,45,08,48,043,44,13,63,161,44,26,57,310,44*66
###2023-11-09 13:09:38.444524$GBGSV,2,1,06,11,22,180,42,14,65,009,45,24,20,132,43,26,23,081,42*66
###2023-11-09 13:09:38.446460$GBGSV,2,2,06,28,43,287,46,33,59,304,47,,,,,,,,*67
###2023-11-09 13:09:38.447971$GNVTG,93.81,T,,M,10.19,N,18.86,K,A*1E
###2023-11-09 13:09:38.530527$GNGGA,130938.70,3611.0338170,N,07544.9330267,W,1,24,0.6,0.672,M,-39.961,M,0.0,*60
###2023-11-09 13:09:38.533136$GPGSV,2,1,07,05,20,090,38,10,19,293,44,13,24,045,37,15,61,037,44*7F
###2023-11-09 13:09:38.535396$GPGSV,2,2,07,18,78,277,46,23,50,316,45,24,50,134,46,,,,*4E
