###2023-11-09 13:09:50.746725$GBGSV,2,2,06,28,43,286,46,33,59,305,47,,,,,,,,*67
###2023-11-09 13:09:50.748218$GNVTG,46.11,T,,M,5.25,N,9.72,K,A*1F
###2023-11-09 13:09:50.832245$GNGGA,130951.00,3611.0406148,N,07544.9128121,W,1,24,0.6,0.416,M,-39.961,M,0.0,*63
###2023-11-09 13:09:50.834866$GPGSV,2,1,07,05,20,090,42,10,19,293,42,13,24,045,40,15,61,037,46*76
###2023-11-09 13:09:50.837153$GPGSV,2,2,07,18,78,277,46,23,50,316,46,24,50,134,46,,,,*4D
###2023-11-09 13:09:50.839729$GLGSV,2,1,05,70,50,017,36,71,48,290,46,80,18,090,44,85,57,203,48*6B
###2023-11-09 13:09:50.841342$GLGSV,2,2,05,86,53,308,47,,,,,,,,,,,,*50
###2023-11-09 13:09:50.843926$GAGSV,1,1,04,07,73,259,45,08,48,043,44,13,63,161,45,26,57,310,45*66
###2023-11-09 13:09:50.846532$GBGSV,2,1,06,11,22,180,41,14,65,009,44,24,21,132,44,26,23,080,43*62
###2023-11-09 13:09:50.848499$GBGSV,2,2,06,28,43,286,47,33,59,305,47,,,,,,,,*66
###2023-11-09 13:09:50.849933$GNVTG,45.89,T,,M,5.25,N,9.72,K,A*1D
###2023-11-09 13:09:50.929755$GNGGA,130951.10,3611.0407150,N,07544.9126803,W,1,24,0.6,0.446,M,-39.961,M,0.0,*68
###2023-11-09 13:09:50.932359$GPGSV,2,1,07,05,20,090,42,10,19,293,43,13,24,045,40,15,61,037,46*77
###2023-11-09 13:09:50.934614$GPGSV,2,2,07,18,78,277,47,23,50,316,46,24,50,134,46,,,,*4C
###2023-11-09 13:09:50.937194$GLGSV,2,1,05,70,50,017,36,71,48,290,47,80,18,090,43,85,57,203,48*6D
###2023-11-09 13:09:50.938798$GLGSV,2,2,05,86,53,308,48,,,,,,,,,,,,*5F
###2023-11-09 13:09:50.941377$GAGSV,1,1,04,07,73,259,46,08,48,043,44,13,63,161,45,26,57,310,45*65
###2023-11-09 13:09:50.943957$GBGSV,2,1,06,11,22,180,41,14,65,009,44,24,21,132,43,26,23,080,43*65
###2023-11-09 13:09:50.945892$GBGSV,2,2,06,28,43,286,47,33,59,305,47,,,,,,,,*66
###2023-11-09 13:09:50.947334$GNVTG,47.33,T,,M,5.23,N,9.68,K,A*13
###2023-11-09 13:09:51.032103$GNGGA,130951.20,3611.0408099,N,07544.9125432,W,1,24,0.6,0.473,M,-39.961,M,0.0,*6B
###2023-11-09 13:09:51.034680$GPGSV,2,1,07,05,20,090,42,10,19,293,43,13,24,045,40,15,61,037,46*77
###2023-11-09 13:09:51.036928$GPGSV,2,2,07,18,78,277,47,23,50,316,46,24,50,134,46,,,,*4C
###2023-11-09 13:09:51.039481$GLGSV,2,1,05,70,50,017,36,71,48,290,47,80,18,090,43,85,57,203,48*6D
###2023-11-09 13:09:51.041071$GLGSV,2,2,05,86,53,308,48,,,,,,,,,,,,*5F
###2023-11-09 13:09:51.043624$GAGSV,1,1,04,07,73,259,46,08,48,043,44,13,63,161,45,26,57,310,45*65
###2023-11-09 13:09:51.046188$GBGSV,2,1,06,11,22,180,41,14,65,009,44,24,21,132,43,26,23,080,43*65
###2023-11-09 13:09:51.048129$GBGSV,2,2,06,28,43,286,47,33,59,305,47,,,,,,,,*66
###2023-11-09 13:09:51.049546$GNVTG,51.30,T,,M,5.25,N,9.72,K,A*1A
###2023-11-09 13:09:51.130243$GNGGA,130951.30,3611.0409005,N,07544.9124004,W,1,24,0.6,0.500,M,-39.961,M,0.0,*6B
###2023-11-09 13:09:51.132849$GPGSV,2,1,07,05,20,090,42,10,19,293,43,13,24,045,40,15,61,037,46*77
###2023-11-09 13:09:51.135099$GPGSV,2,2,07,18,78,277,47,23,50,316,46,24,50,134,46,,,,*4C
###2023-11-09 13:09:51.137690$GLGSV,2,1,05,70,50,017,36,71,48,290,47,80,18,090,43,85,57,203,48*6D
###2023-11-09 13:09:51.139301$GLGSV,2,2,05,86,53,308,48,,,,,,,,,,,,*5F
###2023-11-09 13:09:51.141858$GAGSV,1,1,04,07,73,259,46,08,48,043,44,13,63,161,45,26,57,310,45*65
###2023-11-09 13:09:51.144421$GBGSV,2,1,06,11,22,180,41,14,65,009,44,24,21,132,43,26,23,080,43*65
###2023-11-09 13:09:51.146356$GBGSV,2,2,06,28,43,286,47,33,59,305,47,,,,,,,,*66
###2023-11-09 13:09:51.147797$GNVTG,52.48,T,,M,5.29,N,9.79,K,A*11
###2023-11-09 13:09:51.230248$GNGGA,130951.40,3611.0409902,N,07544.9122556,W,1,24,0.6,0.525,M,-39.961,M,0.0,*61
###2023-11-09 13:09:51.232827$GPGSV,2,1,07,05,20,090,42,10,19,293,42,13,24,045,40,15,61,037,46*76
###2023-11-09 13:09:51.235075$GPGSV,2,2,07,18,78,277,47,23,50,316,46,24,50,134,45,,,,*4F
###2023-11-09 13:09:51.237665$GLGSV,2,1,05,70,50,017,36,71,48,290,47,80,18,090,44,85,57,203,48*6A
###2023-11-09 13:09:51.239287$GLGSV,2,2,05,86,53,308,48,,,,,,,,,,,,*5F
###2023-11-09 13:09:51.241882$GAGSV,1,1,04,07,73,259,46,08,48,043,44,13,63,161,45,26,57,310,45*65
###2023-11-09 13:09:51.244475$GBGSV,2,1,06,11,22,180,42,14,65,009,44,24,21,132,43,26,23,080,43*66
###2023-11-09 13:09:51.246419$GBGSV,2,2,06,28,43,286,46,33,59,305,47,,,,,,,,*67
###2023-11-09 13:09:51.247871$GNVTG,52.47,T,,M,5.31,N,9.83,K,A*12
###2023-11-09 13:09:51.329761$GNGGA,130951.50,3611.0410817,N,07544.9121127,W,1,24,0.6,0.541,M,-39.961,M,0.0,*6E
###2023-11-09 13:09:51.332354$GPGSV,2,1,07,05,20,090,42,10,19,293,42,13,24,045,40,15,61,037,46*76
###2023-11-09 13:09:51.334605$GPGSV,2,2,07,18,78,277,46,23,50,316,46,24,50,134,45,,,,*4E
###2023-11-09 13:09:51.337181$GLGSV,2,1,05,70,50,017,36,71,48,290,46,80,18,090,44,85,57,203,48*6B
###2023-11-09 13:09:51.338782$GLGSV,2,2,05,86,53,308,48,,,,,,,,,,,,*5F
###2023-11-09 13:09:51.341342$GAGSV,1,1,04,07,73,259,46,08,48,043,44,13,63,161,45,26,57,310,45*65
###2023-11-09 13:09:51.343922$GBGSV,2,1,06,11,22,180,42,14,65,009,44,24,21,132,43,26,23,080,43*66
###2023-11-09 13:09:51.345856$GBGSV,2,2,06,28,43,286,46,33,59,305,47,,,,,,,,*67
###2023-11-09 13:09:51.347289$GNVTG,50.70,T,,M,5.27,N,9.76,K,A*19
###2023-11-09 13:09:51.428268$GNGGA,130951.60,3611.0411752,N,07544.9119739,W,1,24,0.6,0.545,M,-39.961,M,0.0,*64
###2023-11-09 13:09:51.430854$GPGSV,2,1,07,05,20,090,42,10,19,293,42,13,24,045,40,15,61,037,46*76
###2023-11-09 13:09:51.433105$GPGSV,2,2,07,18,78,277,46,23,50,316,46,24,50,134,46,,,,*4D
###2023-11-09 13:09:51.435676$GLGSV,2,1,05,70,50,017,36,71,48,290,46,80,18,090,44,85,57,203,48*6B
###2023-11-09 13:09:51.437297$GLGSV,2,2,05,86,53,308,48,,,,,,,,,,,,*5F
###2023-11-09 13:09:51.439861$GAGSV,1,1,04,07,73,259,46,08,48,043,44,13,63,161,45,26,57,310,45*65
###2023-11-09 13:09:51.442431$GBGSV,2,1,06,11,22,180,42,14,65,009,44,24,21,132,44,26,23,080,43*61
###2023-11-09 13:09:51.444372$GBGSV,2,2,06,28,43,286,46,33,59,305,47,,,,,,,,*67
###2023-11-09 13:09:51.445803$GNVTG,49.80,T,,M,5.19,N,9.61,K,A*15
###2023-11-09 13:09:51.530244$GNGGA,130951.70,3611.0412684,N,07544.9118373,W,1,24,0.6,0.547,M,-39.961,M,0.0,*65
###2023-11-09 13:09:51.532836$GPGSV,2,1,07,05,20,090,43,10,19,293,42,13,24,045,40,15,61,037,46*77
###2023-11-09 13:09:51.535094$GPGSV,2,2,07,18,78,277,47,23,50,316,45,24,50,134,46,,,,*4F
###2023-11-09 13:09:51.537685$GLGSV,2,1,05,70,50,017,36,71,48,290,46,80,18,090,45,85,57,203,48*6A
###2023-11-09 13:09:51.539301$GLGSV,2,2,05,86,53,308,48,,,,,,,,,,,,*5F
###2023-11-09 13:09:51.541870$GAGSV,1,1,04,07,73,259,45,08,48,043,44,13,63,161,45,26,57,310,45*66
###2023-11-09 13:09:51.544453$GBGSV,2,1,06,11,22,180,42,14,65,009,44,24,21,132,45,26,23,080,43*60
###2023-11-09 13:09:51.546391$GBGSV,2,2,06,28,43,286,46,33,59,305,47,,,,,,,,*67
###2023-11-09 13:09:51.547834$GNVTG,49.75,T,,M,5.17,N,9.58,K,A*1B
###2023-11-09 13:09:51.630495$GNGGA,130951.80,3611.0413604,N,07544.9117018,W,1,24,0.6,0.551,M,-39.961,M,0.0,*65
###2023-11-09 13:09:51.633086$GPGSV,2,1,07,05,20,090,43,10,19,293,42,13,24,045,40,15,61,037,46*77
###2023-11-09 13:09:51.635328$GPGSV,2,2,07,18,78,277,46,23,50,316,45,24,50,134,46,,,,*4E
###2023-11-09 13:09:51.637919$GLGSV,2,1,05,70,50,017,36,71,48,290,47,80,18,090,45,85,57,203,48*6B
###2023-11-09 13:09:51.639522$GLGSV,2,2,05,86,53,308,48,,,,,,,,,,,,*5F
###2023-11-09 13:09:51.642084$GAGSV,1,1,04,07,73,259,45,08,48,043,44,13,63,161,45,26,57,310,45*66
###2023-11-09 13:09:51.644663$GBGSV,2,1,06,11,22,180,42,14,65,009,44,24,21,132,45,26,23,080,43*60
###2023-11-09 13:09:51.646598$GBGSV,2,2,06,28,43,286,46,33,59,305,47,,,,,,,,*67
###2023-11-09 13:09:51.648037$GNVTG,49.96,T,,M,5.07,N,9.40,K,A*1E
###2023-11-09 13:09:51.730408$GNGGA,130951.90,3611.0414514,N,07544.9115679,W,1,24,0.6,0.560,M,-39.961,M,0.0,*60
###2023-11-09 13:09:51.733034$GPGSV,2,1,07,05,20,090,43,10,19,293,42,13,24,045,40,15,61,037,46*77
###2023-11-09 13:09:51.735288$GPGSV,2,2,07,18,78,277,47,23,50,316,45,24,50,134,46,,,,*4F
###2023-11-09 13:09:51.737904$GLGSV,2,1,05,70,50,017,36,71,48,290,48,80,18,090,45,85,57,203,48*64
###2023-11-09 13:09:51.739528$GLGSV,2,2,05,86,53,308,48,,,,,,,,,,,,*5F
###2023-11-09 13:09:51.742106$GAGSV,1,1,04,07,73,259,45,08,48,043,44,13,63,161,45,26,57,310,45*66
###2023-11-09 13:09:51.744703$GBGSV,2,1,06,11,22,180,42,14,65,009,44,24,21,132,44,26,23,080,43*61
###2023-11-09 13:09:51.746642$GBGSV,2,2,06,28,43,286,46,33,59,305,47,,,,,,,,*67
###2023-11-09 13:09:51.748403$GNVTG,49.62,T,,M,5.05,N,9.36,K,A*16
###2023-11-09 13:09:51.837538$GNGGA,130952.00,3611.0415428,N,07544.9114339,W,1,24,0.6,0.570,M,-39.961,M,0.0,*64
###2023-11-09 13:09:51.840157$GPGSV,2,1,07,05,20,090,43,10,19,293,43,13,24,045,41,15,61,037,46*77
###2023-11-09 13:09:51.842427$GPGSV,2,2,07,18,78,277,47,23,50,316,45,24,50,134,46,,,,*4F
###2023-11-09 13:09:51.845012$GLGSV,2,1,05,70,50,017,36,71,48,290,48,80,18,090,44,85,57,203,48*65
###2023-11-09 13:09:51.846628$GLGSV,2,2,05,86,53,308,48,,,,,,,,,,,,*5F
###2023-11-09 13:09:51.849221$GAGSV,1,1,04,07,73,259,45,08,48,043,44,13,63,161,45,26,57,310,45*66
###2023-11-09 13:09:51.851797$GBGSV,2,1,06,11,22,180,42,14,65,009,44,24,21,132,44,26,23,080,43*61
###2023-11-09 13:09:51.853735$GBGSV,2,2,06,28,43,286,46,33,59,305,47,,,,,,,,*67
