###2023-11-09 13:07:43.639600$GAGSV,1,1,04,07,72,257,45,08,49,042,44,13,64,160,44,26,56,310,45*6F
###2023-11-09 13:07:43.642203$GBGSV,2,1,06,11,23,180,41,14,65,008,45,24,20,132,42,26,23,081,42*64
###2023-11-09 13:07:43.644148$GBGSV,2,2,06,28,43,289,47,33,58,302,47,,,,,,,,*6F
###2023-11-09 13:07:43.645617$GNVTG,123.45,T,,M,4.43,N,8.21,K,A*2A
###2023-11-09 13:07:43.730355$GNGGA,130743.90,3611.0538947,N,07544.9705035,W,1,23,0.6,0.715,M,-39.961,M,0.0,*66
###2023-11-09 13:07:43.732958$GPGSV,2,1,07,05,21,090,40,10,18,292,45,13,24,045,40,15,62,037,46*71
###2023-11-09 13:07:43.735228$GPGSV,2,2,07,18,77,281,46,23,50,315,46,24,49,136,46,,,,*42
###2023-11-09 13:07:43.737825$GLGSV,1,1,04,71,48,288,49,80,17,091,43,85,58,203,49,86,52,309,48*66
###2023-11-09 13:07:43.740415$GAGSV,1,1,04,07,72,257,45,08,49,042,43,13,64,160,44,26,56,310,45*68
###2023-11-09 13:07:43.743011$GBGSV,2,1,06,11,23,180,42,14,65,008,45,24,20,132,42,26,23,081,41*64
###2023-11-09 13:07:43.744951$GBGSV,2,2,06,28,43,289,47,33,58,302,47,,,,,,,,*6F
###2023-11-09 13:07:43.746418$GNVTG,124.23,T,,M,4.41,N,8.17,K,A*2A
###2023-11-09 13:07:43.832332$GNGGA,130744.00,3611.0538281,N,07544.9703734,W,1,23,0.6,0.728,M,-39.961,M,0.0,*67
###2023-11-09 13:07:43.834914$GPGSV,2,1,07,05,21,090,40,10,18,292,45,13,24,045,40,15,62,037,46*71
###2023-11-09 13:07:43.837181$GPGSV,2,2,07,18,77,281,46,23,50,315,46,24,49,136,46,,,,*42
###2023-11-09 13:07:43.839744$GLGSV,1,1,04,71,48,288,50,80,17,091,42,85,58,203,49,86,52,309,48*6F
###2023-11-09 13:07:43.842316$GAGSV,1,1,04,07,72,257,45,08,49,042,43,13,64,160,45,26,56,310,45*69
###2023-11-09 13:07:43.844888$GBGSV,2,1,06,11,23,180,42,14,65,008,45,24,20,132,41,26,23,081,40*66
###2023-11-09 13:07:43.846818$GBGSV,2,2,06,28,43,289,47,33,58,302,47,,,,,,,,*6F
###2023-11-09 13:07:43.848287$GNVTG,120.09,T,,M,4.59,N,8.50,K,A*2C
###2023-11-09 13:07:43.938396$GNGGA,130744.10,3611.0537678,N,07544.9702329,W,1,23,0.6,0.757,M,-39.961,M,0.0,*6A
###2023-11-09 13:07:43.940986$GPGSV,2,1,07,05,21,090,40,10,18,292,45,13,24,045,40,15,62,037,45*72
###2023-11-09 13:07:43.943251$GPGSV,2,2,07,18,77,281,46,23,50,315,46,24,49,136,45,,,,*41
###2023-11-09 13:07:43.945838$GLGSV,1,1,04,71,48,288,50,80,17,091,42,85,58,203,49,86,52,309,48*6F
###2023-11-09 13:07:43.948433$GAGSV,1,1,04,07,72,257,45,08,49,042,43,13,64,160,45,26,56,310,45*69
###2023-11-09 13:07:43.951018$GBGSV,2,1,06,11,23,180,42,14,65,008,45,24,20,132,41,26,23,081,40*66
###2023-11-09 13:07:43.952944$GBGSV,2,2,06,28,43,289,48,33,58,302,47,,,,,,,,*60
###2023-11-09 13:07:43.954410$GNVTG,115.58,T,,M,4.72,N,8.75,K,A*20
###2023-11-09 13:07:44.034108$GNGGA,130744.20,3611.0537087,N,07544.9700867,W,1,23,0.6,0.786,M,-39.961,M,0.0,*60
###2023-11-09 13:07:44.036702$GPGSV,2,1,07,05,21,090,41,10,18,292,45,13,24,045,41,15,62,037,45*72
###2023-11-09 13:07:44.038982$GPGSV,2,2,07,18,77,281,46,23,50,315,46,24,49,136,45,,,,*41
###2023-11-09 13:07:44.041549$GLGSV,1,1,04,71,48,288,50,80,17,091,44,85,58,203,49,86,52,309,48*69
###2023-11-09 13:07:44.044126$GAGSV,1,1,04,07,72,257,45,08,49,042,44,13,64,160,45,26,56,310,45*6E
###2023-11-09 13:07:44.046706$GBGSV,2,1,06,11,23,180,41,14,65,008,46,24,20,132,41,26,23,081,43*65
###2023-11-09 13:07:44.048655$GBGSV,2,2,06,28,43,289,48,33,58,302,47,,,,,,,,*60
###2023-11-09 13:07:44.050127$GNVTG,117.27,T,,M,4.84,N,8.96,K,A*2E
###2023-11-09 13:07:44.136350$GNGGA,130744.30,3611.0536421,N,07544.9699443,W,1,23,0.6,0.804,M,-39.961,M,0.0,*66
###2023-11-09 13:07:44.138941$GPGSV,2,1,07,05,21,090,42,10,18,292,44,13,24,045,43,15,62,037,46*71
###2023-11-09 13:07:44.141185$GPGSV,2,2,07,18,77,281,46,23,50,315,46,24,49,136,45,,,,*41
###2023-11-09 13:07:44.143732$GLGSV,1,1,04,71,48,288,49,80,17,091,45,85,58,203,47,86,52,309,48*6E
###2023-11-09 13:07:44.146299$GAGSV,1,1,04,07,72,257,45,08,49,042,45,13,64,160,45,26,56,310,45*6F
###2023-11-09 13:07:44.148888$GBGSV,2,1,06,11,23,180,41,14,65,008,46,24,20,132,41,26,23,081,44*62
###2023-11-09 13:07:44.150816$GBGSV,2,2,06,28,43,289,47,33,58,302,47,,,,,,,,*6F
###2023-11-09 13:07:44.152291$GNVTG,122.38,T,,M,4.78,N,8.86,K,A*24
###2023-11-09 13:07:44.229884$GNGGA,130744.40,3611.0535643,N,07544.9698157,W,1,23,0.6,0.811,M,-39.961,M,0.0,*61
###2023-11-09 13:07:44.232493$GPGSV,2,1,07,05,21,090,43,10,18,292,44,13,24,045,43,15,62,037,46*70
###2023-11-09 13:07:44.234744$GPGSV,2,2,07,18,77,281,46,23,50,315,46,24,49,136,45,,,,*41
###2023-11-09 13:07:44.237327$GLGSV,1,1,04,71,48,288,49,80,17,091,45,85,58,203,47,86,52,309,48*6E
###2023-11-09 13:07:44.239894$GAGSV,1,1,04,07,72,257,45,08,49,042,45,13,64,160,45,26,56,310,45*6F
###2023-11-09 13:07:44.242475$GBGSV,2,1,06,11,23,180,40,14,65,008,46,24,20,132,41,26,23,081,45*62
###2023-11-09 13:07:44.244405$GBGSV,2,2,06,28,43,289,47,33,58,302,47,,,,,,,,*6F
###2023-11-09 13:07:44.245870$GNVTG,130.88,T,,M,4.63,N,8.57,K,A*2A
###2023-11-09 13:07:44.330365$GNGGA,130744.50,3611.0534747,N,07544.9697050,W,1,23,0.6,0.822,M,-39.961,M,0.0,*6D
###2023-11-09 13:07:44.332968$GPGSV,2,1,07,05,21,090,42,10,18,292,44,13,24,045,42,15,62,037,47*71
###2023-11-09 13:07:44.335226$GPGSV,2,2,07,18,77,281,46,23,50,315,46,24,49,136,45,,,,*41
###2023-11-09 13:07:44.337824$GLGSV,1,1,04,71,48,288,49,80,17,091,44,85,58,203,48,86,52,309,48*60
###2023-11-09 13:07:44.340408$GAGSV,1,1,04,07,72,257,45,08,49,042,45,13,64,160,45,26,56,310,45*6F
###2023-11-09 13:07:44.342994$GBGSV,2,1,06,11,23,180,41,14,65,008,46,24,20,132,41,26,23,081,45*63
###2023-11-09 13:07:44.344928$GBGSV,2,2,06,28,43,289,47,33,58,302,47,,,,,,,,*6F
###2023-11-09 13:07:44.346400$GNVTG,138.69,T,,M,4.53,N,8.39,K,A*26
###2023-11-09 13:07:44.428232$GNGGA,130744.60,3611.0533792,N,07544.9696026,W,1,23,0.6,0.832,M,-39.961,M,0.0,*60
###2023-11-09 13:07:44.430806$GPGSV,2,1,07,05,21,090,41,10,18,292,45,13,24,045,41,15,62,037,46*71
###2023-11-09 13:07:44.433052$GPGSV,2,2,07,18,77,281,46,23,50,315,46,24,49,136,45,,,,*41
###2023-11-09 13:07:44.435616$GLGSV,1,1,04,71,48,288,50,80,17,091,42,85,58,203,49,86,52,309,48*6F
###2023-11-09 13:07:44.438197$GAGSV,1,1,04,07,72,257,45,08,49,042,44,13,64,160,45,26,56,310,45*6E
###2023-11-09 13:07:44.440768$GBGSV,2,1,06,11,23,180,41,14,65,008,45,24,20,132,41,26,23,081,43*66
###2023-11-09 13:07:44.442694$GBGSV,2,2,06,28,43,289,47,33,58,302,47,,,,,,,,*6F
###2023-11-09 13:07:44.444154$GNVTG,138.95,T,,M,4.59,N,8.50,K,A*20
###2023-11-09 13:07:44.528378$GNGGA,130744.70,3611.0532863,N,07544.9694949,W,1,23,0.6,0.841,M,-39.961,M,0.0,*67
###2023-11-09 13:07:44.530987$GPGSV,2,1,07,05,21,090,40,10,18,292,45,13,24,045,39,15,62,037,45*7C
###2023-11-09 13:07:44.533246$GPGSV,2,2,07,18,77,281,46,23,50,315,46,24,49,136,45,,,,*41
###2023-11-09 13:07:44.535831$GLGSV,1,1,04,71,48,288,50,80,17,091,41,85,58,203,49,86,52,309,48*6C
###2023-11-09 13:07:44.538426$GAGSV,1,1,04,07,72,257,45,08,49,042,43,13,64,160,45,26,56,310,45*69
###2023-11-09 13:07:44.541024$GBGSV,2,1,06,11,23,180,42,14,65,008,44,24,20,132,40,26,23,081,40*66
###2023-11-09 13:07:44.542971$GBGSV,2,2,06,28,43,289,47,33,58,302,47,,,,,,,,*6F
###2023-11-09 13:07:44.544435$GNVTG,134.52,T,,M,4.61,N,8.53,K,A*2F
###2023-11-09 13:07:44.629139$GNGGA,130744.80,3611.0531987,N,07544.9693728,W,1,23,0.6,0.852,M,-39.961,M,0.0,*6C
###2023-11-09 13:07:44.631748$GPGSV,2,1,07,05,21,090,38,10,18,292,45,13,24,045,39,15,62,037,45*73
###2023-11-09 13:07:44.634004$GPGSV,2,2,07,18,77,281,46,23,50,315,46,24,49,136,45,,,,*41
###2023-11-09 13:07:44.636567$GLGSV,1,1,04,71,48,288,50,80,17,091,40,85,58,203,48,86,52,309,48*6C
###2023-11-09 13:07:44.639158$GAGSV,1,1,04,07,72,257,45,08,49,042,43,13,64,160,44,26,56,310,45*68
###2023-11-09 13:07:44.641738$GBGSV,2,1,06,11,23,180,42,14,65,008,44,24,20,132,40,26,23,081,40*66
###2023-11-09 13:07:44.643670$GBGSV,2,2,06,28,43,289,47,33,58,302,47,,,,,,,,*6F
###2023-11-09 13:07:44.645141$GNVTG,128.74,T,,M,4.94,N,9.14,K,A*2E
###2023-11-09 13:07:44.727897$GNGGA,130744.90,3611.0531119,N,07544.9692434,W,1,23,0.6,0.847,M,-39.961,M,0.0,*69
###2023-11-09 13:07:44.730505$GPGSV,2,1,07,05,21,090,40,10,18,292,45,13,24,045,39,15,62,037,46*7F
###2023-11-09 13:07:44.732745$GPGSV,2,2,07,18,77,281,47,23,50,315,46,24,49,136,45,,,,*40
###2023-11-09 13:07:44.735311$GLGSV,1,1,04,71,48,288,49,80,17,091,41,85,58,203,48,86,52,309,48*65
###2023-11-09 13:07:44.738201$GAGSV,1,1,04,07,72,257,45,08,49,042,43,13,64,160,44,26,56,310,45*68
###2023-11-09 13:07:44.740789$GBGSV,2,1,06,11,23,180,42,14,65,008,44,24,20,132,40,26,23,081,42*64
###2023-11-09 13:07:44.742727$GBGSV,2,2,06,28,43,289,48,33,58,302,47,,,,,,,,*60
###2023-11-09 13:07:44.744191$GNVTG,130.77,T,,M,4.88,N,9.04,K,A*28
###2023-11-09 13:07:44.831247$GNGGA,130745.00,3611.0530199,N,07544.9691267,W,1,23,0.6,0.837,M,-39.961,M,0.0,*6C
###2023-11-09 13:07:44.833857$GPGSV,2,1,07,05,21,090,41,10,18,292,45,13,24,045,41,15,62,037,47*70
###2023-11-09 13:07:44.836106$GPGSV,2,2,07,18,77,281,46,23,50,315,46,24,49,136,45,,,,*41
###2023-11-09 13:07:44.838702$GLGSV,1,1,04,71,48,288,49,80,17,091,44,85,58,203,48,86,52,309,48*60
###2023-11-09 13:07:44.841275$GAGSV,1,1,04,07,72,257,45,08,49,042,43,13,64,160,44,26,56,310,45*68
###2023-11-09 13:07:44.843858$GBGSV,2,1,06,11,23,180,41,14,65,008,44,24,20,132,42,26,23,081,43*64
###2023-11-09 13:07:44.845804$GBGSV,2,2,06,28,43,289,48,33,58,302,47,,,,,,,,*60
###2023-11-09 13:07:44.847282$GNVTG,137.26,T,,M,4.65,N,8.60,K,A*2B
