###2023-11-09 13:06:04.450948$GNVTG,68.85,T,,M,0.97,N,1.80,K,A*17
###2023-11-09 13:06:04.531718$GNGGA,130604.70,3611.0385428,N,07544.9842541,W,1,24,0.6,0.802,M,-39.962,M,0.0,*69
###2023-11-09 13:06:04.534302$GPGSV,2,1,07,05,21,089,42,10,17,292,44,13,25,045,41,15,62,036,47*75
###2023-11-09 13:06:04.536554$GPGSV,2,2,07,18,77,285,46,23,49,314,46,24,49,137,45,,,,*4D
###2023-11-09 13:06:04.539137$GLGSV,2,1,05,70,50,016,35,71,48,288,49,80,17,092,45,85,59,204,48*6A
###2023-11-09 13:06:04.540748$GLGSV,2,2,05,86,52,311,48,,,,,,,,,,,,*56
###2023-11-09 13:06:04.543305$GAGSV,1,1,04,07,72,255,45,08,49,042,45,13,64,160,45,26,56,311,45*6C
###2023-11-09 13:06:04.545874$GBGSV,2,1,06,11,24,180,40,14,65,006,45,24,19,133,42,26,23,082,43*65
###2023-11-09 13:06:04.547824$GBGSV,2,2,06,28,43,289,47,33,58,302,48,,,,,,,,*60
###2023-11-09 13:06:04.549256$GNVTG,68.85,T,,M,0.87,N,1.62,K,A*1A
###2023-11-09 13:06:04.631013$GNGGA,130604.80,3611.0385536,N,07544.9842233,W,1,24,0.6,0.800,M,-39.962,M,0.0,*68
###2023-11-09 13:06:04.633628$GPGSV,2,1,07,05,21,089,42,10,17,292,44,13,25,045,41,15,62,036,46*74
###2023-11-09 13:06:04.635886$GPGSV,2,2,07,18,77,285,47,23,49,314,46,24,49,137,45,,,,*4C
###2023-11-09 13:06:04.638494$GLGSV,2,1,05,70,50,016,35,71,48,288,49,80,17,092,45,85,59,204,48*6A
###2023-11-09 13:06:04.640104$GLGSV,2,2,05,86,52,311,48,,,,,,,,,,,,*56
###2023-11-09 13:06:04.642667$GAGSV,1,1,04,07,72,255,45,08,49,042,45,13,64,160,45,26,56,311,45*6C
###2023-11-09 13:06:04.645241$GBGSV,2,1,06,11,24,180,40,14,65,006,45,24,19,133,42,26,23,082,43*65
###2023-11-09 13:06:04.647191$GBGSV,2,2,06,28,43,289,47,33,58,302,48,,,,,,,,*60
###2023-11-09 13:06:04.648624$GNVTG,62.33,T,,M,1.11,N,2.05,K,A*11
###2023-11-09 13:06:04.732883$GNGGA,130604.90,3611.0385682,N,07544.9841895,W,1,24,0.6,0.804,M,-39.962,M,0.0,*64
###2023-11-09 13:06:04.735456$GPGSV,2,1,07,05,21,089,42,10,17,292,44,13,25,045,39,15,62,036,46*7B
###2023-11-09 13:06:04.737726$GPGSV,2,2,07,18,77,285,47,23,49,314,46,24,49,137,45,,,,*4C
###2023-11-09 13:06:04.740311$GLGSV,2,1,05,70,50,016,35,71,48,288,49,80,17,092,44,85,59,204,47*64
###2023-11-09 13:06:04.741926$GLGSV,2,2,05,86,52,311,48,,,,,,,,,,,,*56
###2023-11-09 13:06:04.744493$GAGSV,1,1,04,07,72,255,45,08,49,042,45,13,64,160,45,26,56,311,45*6C
###2023-11-09 13:06:04.747079$GBGSV,2,1,06,11,24,180,40,14,65,006,45,24,19,133,42,26,23,082,43*65
###2023-11-09 13:06:04.749017$GBGSV,2,2,06,28,43,289,47,33,58,302,48,,,,,,,,*60
###2023-11-09 13:06:04.750445$GNVTG,60.67,T,,M,1.15,N,2.12,K,A*10
###2023-11-09 13:06:04.836737$GNGGA,130605.00,3611.0385857,N,07544.9841524,W,1,24,0.6,0.813,M,-39.962,M,0.0,*6B
###2023-11-09 13:06:04.839350$GPGSV,2,1,07,05,21,089,42,10,17,292,44,13,25,045,39,15,62,036,46*7B
###2023-11-09 13:06:04.841596$GPGSV,2,2,07,18,77,285,47,23,49,314,46,24,49,137,45,,,,*4C
###2023-11-09 13:06:04.844163$GLGSV,2,1,05,70,50,016,35,71,48,288,49,80,17,092,44,85,59,204,47*64
###2023-11-09 13:06:04.845767$GLGSV,2,2,05,86,52,311,48,,,,,,,,,,,,*56
###2023-11-09 13:06:04.848340$GAGSV,1,1,04,07,72,255,45,08,49,042,45,13,64,160,45,26,56,311,45*6C
###2023-11-09 13:06:04.850936$GBGSV,2,1,06,11,24,180,40,14,65,006,45,24,19,133,42,26,23,082,43*65
###2023-11-09 13:06:04.852889$GBGSV,2,2,06,28,43,289,47,33,58,302,48,,,,,,,,*60
###2023-11-09 13:06:04.854338$GNVTG,58.30,T,,M,1.38,N,2.56,K,A*16
###2023-11-09 13:06:04.932618$GNGGA,130605.10,3611.0386057,N,07544.9841131,W,1,23,0.6,0.826,M,-39.962,M,0.0,*60
###2023-11-09 13:06:04.935198$GPGSV,2,1,07,05,21,089,42,10,17,292,44,13,25,045,40,15,62,036,46*75
###2023-11-09 13:06:04.937478$GPGSV,2,2,07,18,77,285,47,23,49,314,46,24,49,137,44,,,,*4D
###2023-11-09 13:06:04.940063$GLGSV,1,1,04,71,48,288,49,80,17,092,44,85,59,204,47,86,52,311,48*63
###2023-11-09 13:06:04.942644$GAGSV,1,1,04,07,72,255,45,08,49,042,45,13,64,160,45,26,56,311,45*6C
###2023-11-09 13:06:04.945220$GBGSV,2,1,06,11,24,180,40,14,65,006,45,24,19,133,42,26,23,082,43*65
###2023-11-09 13:06:04.947186$GBGSV,2,2,06,28,43,289,48,33,58,302,48,,,,,,,,*6F
###2023-11-09 13:06:04.948617$GNVTG,56.96,T,,M,1.36,N,2.52,K,A*1E
###2023-11-09 13:06:05.034622$GNGGA,130605.20,3611.0386240,N,07544.9840763,W,1,24,0.6,0.846,M,-39.962,M,0.0,*66
###2023-11-09 13:06:05.037226$GPGSV,2,1,07,05,21,089,42,10,17,292,44,13,25,045,40,15,62,036,46*75
###2023-11-09 13:06:05.039495$GPGSV,2,2,07,18,77,285,47,23,49,314,46,24,49,137,44,,,,*4D
###2023-11-09 13:06:05.042094$GLGSV,2,1,05,70,50,016,35,71,48,288,49,80,17,092,44,85,59,204,47*64
###2023-11-09 13:06:05.043711$GLGSV,2,2,05,86,52,311,48,,,,,,,,,,,,*56
###2023-11-09 13:06:05.046289$GAGSV,1,1,04,07,72,255,45,08,49,042,45,13,64,160,45,26,56,311,45*6C
###2023-11-09 13:06:05.048888$GBGSV,2,1,06,11,24,180,40,14,65,006,45,24,19,133,42,26,23,082,44*62
###2023-11-09 13:06:05.050836$GBGSV,2,2,06,28,43,289,48,33,58,302,48,,,,,,,,*6F
###2023-11-09 13:06:05.052270$GNVTG,59.19,T,,M,1.19,N,2.20,K,A*1E
###2023-11-09 13:06:05.131249$GNGGA,130605.30,3611.0386392,N,07544.9840444,W,1,23,0.6,0.865,M,-39.962,M,0.0,*69
###2023-11-09 13:06:05.133846$GPGSV,2,1,07,05,21,089,42,10,17,292,44,13,25,045,41,15,62,036,46*74
###2023-11-09 13:06:05.136098$GPGSV,2,2,07,18,77,285,47,23,49,314,45,24,49,137,44,,,,*4E
###2023-11-09 13:06:05.138698$GLGSV,1,1,04,71,48,288,49,80,17,092,44,85,59,204,47,86,52,311,48*63
###2023-11-09 13:06:05.141271$GAGSV,1,1,04,07,72,255,45,08,49,042,45,13,64,160,45,26,56,311,45*6C
###2023-11-09 13:06:05.143851$GBGSV,2,1,06,11,24,180,40,14,65,006,45,24,19,133,42,26,23,082,44*62
###2023-11-09 13:06:05.145786$GBGSV,2,2,06,28,43,289,47,33,58,302,48,,,,,,,,*60
###2023-11-09 13:06:05.147224$GNVTG,59.86,T,,M,0.99,N,1.84,K,A*1C
###2023-11-09 13:06:05.232758$GNGGA,130605.40,3611.0386523,N,07544.9840161,W,1,23,0.6,0.886,M,-39.962,M,0.0,*6D
###2023-11-09 13:06:05.235353$GPGSV,2,1,07,05,21,089,43,10,17,292,44,13,25,045,41,15,62,036,46*75
###2023-11-09 13:06:05.237631$GPGSV,2,2,07,18,77,285,47,23,49,314,45,24,49,137,45,,,,*4F
###2023-11-09 13:06:05.240212$GLGSV,1,1,04,71,48,288,49,80,17,092,45,85,59,204,48,86,52,311,48*6D
###2023-11-09 13:06:05.242798$GAGSV,1,1,04,07,72,255,45,08,49,042,45,13,64,160,45,26,56,311,45*6C
###2023-11-09 13:06:05.245384$GBGSV,2,1,06,11,24,180,40,14,65,006,45,24,19,133,42,26,23,082,44*62
###2023-11-09 13:06:05.247335$GBGSV,2,2,06,28,43,289,47,33,58,302,48,,,,,,,,*60
###2023-11-09 13:06:05.248768$GNVTG,59.86,T,,M,0.91,N,1.69,K,A*17
###2023-11-09 13:06:05.332859$GNGGA,130605.50,3611.0386651,N,07544.9839897,W,1,23,0.6,0.906,M,-39.962,M,0.0,*6D
###2023-11-09 13:06:05.335453$GPGSV,2,1,07,05,21,089,43,10,17,292,44,13,25,045,41,15,62,036,46*75
###2023-11-09 13:06:05.337722$GPGSV,2,2,07,18,77,285,47,23,49,314,45,24,49,137,45,,,,*4F
###2023-11-09 13:06:05.340296$GLGSV,1,1,04,71,48,288,49,80,17,092,45,85,59,204,48,86,52,311,48*6D
###2023-11-09 13:06:05.342858$GAGSV,1,1,04,07,72,255,45,08,49,042,45,13,64,160,45,26,56,311,45*6C
###2023-11-09 13:06:05.345439$GBGSV,2,1,06,11,24,180,40,14,65,006,45,24,19,133,42,26,23,082,44*62
###2023-11-09 13:06:05.347390$GBGSV,2,2,06,28,43,289,47,33,58,302,48,,,,,,,,*60
###2023-11-09 13:06:05.348826$GNVTG,59.86,T,,M,0.89,N,1.66,K,A*11
###2023-11-09 13:06:05.431870$GNGGA,130605.60,3611.0386772,N,07544.9839638,W,1,23,0.6,0.923,M,-39.962,M,0.0,*62
###2023-11-09 13:06:05.434464$GPGSV,2,1,07,05,21,089,42,10,17,292,44,13,25,045,41,15,62,036,46*74
###2023-11-09 13:06:05.436717$GPGSV,2,2,07,18,77,285,47,23,49,314,46,24,49,137,45,,,,*4C
###2023-11-09 13:06:05.439336$GLGSV,1,1,04,71,48,288,49,80,17,092,45,85,59,204,48,86,52,311,48*6D
###2023-11-09 13:06:05.441902$GAGSV,1,1,04,07,72,255,45,08,49,042,45,13,64,160,45,26,56,311,45*6C
###2023-11-09 13:06:05.444462$GBGSV,2,1,06,11,24,180,40,14,65,006,45,24,19,133,42,26,23,082,44*62
###2023-11-09 13:06:05.446398$GBGSV,2,2,06,28,43,289,47,33,58,302,48,,,,,,,,*60
###2023-11-09 13:06:05.447836$GNVTG,59.86,T,,M,0.87,N,1.62,K,A*1B
###2023-11-09 13:06:05.529999$GNGGA,130605.70,3611.0386891,N,07544.9839378,W,1,23,0.6,0.935,M,-39.962,M,0.0,*67
###2023-11-09 13:06:05.532600$GPGSV,2,1,07,05,21,089,42,10,17,292,44,13,25,045,41,15,62,036,46*74
###2023-11-09 13:06:05.534864$GPGSV,2,2,07,18,77,285,47,23,49,314,46,24,49,137,45,,,,*4C
###2023-11-09 13:06:05.537770$GLGSV,1,1,04,71,48,288,49,80,17,092,45,85,59,204,49,86,52,311,47*63
###2023-11-09 13:06:05.540364$GAGSV,1,1,04,07,72,255,45,08,49,042,45,13,64,160,45,26,56,311,45*6C
###2023-11-09 13:06:05.542946$GBGSV,2,1,06,11,24,180,40,14,65,006,45,24,19,133,42,26,23,082,43*65
###2023-11-09 13:06:05.544883$GBGSV,2,2,06,28,43,289,47,33,58,302,48,,,,,,,,*60
###2023-11-09 13:06:05.546311$GNVTG,59.86,T,,M,0.89,N,1.66,K,A*11
###2023-11-09 13:06:05.631862$GNGGA,130605.80,3611.0386990,N,07544.9839129,W,1,23,0.6,0.948,M,-39.962,M,0.0,*64
###2023-11-09 13:06:05.634468$GPGSV,2,1,07,05,21,089,42,10,17,292,44,13,25,045,41,15,62,036,46*74
###2023-11-09 13:06:05.636729$GPGSV,2,2,07,18,77,285,47,23,49,314,46,24,49,137,45,,,,*4C
###2023-11-09 13:06:05.639321$GLGSV,1,1,04,71,48,288,49,80,17,092,45,85,59,204,49,86,52,311,47*63
###2023-11-09 13:06:05.641897$GAGSV,1,1,04,07,72,255,45,08,49,042,45,13,64,160,45,26,56,311,45*6C
###2023-11-09 13:06:05.644473$GBGSV,2,1,06,11,24,180,40,14,65,006,45,24,19,133,42,26,23,082,43*65
