###2023-11-09 13:10:33.147309$GAGSV,1,1,04,07,73,259,45,08,48,043,45,13,63,161,45,26,57,310,44*66
###2023-11-09 13:10:33.149905$GBGSV,2,1,06,11,22,180,43,14,65,009,45,24,21,132,44,26,23,080,45*67
###2023-11-09 13:10:33.151841$GBGSV,2,2,06,28,43,286,46,33,59,305,47,,,,,,,,*67
###2023-11-09 13:10:33.153316$GNVTG,308.49,T,,M,4.24,N,7.85,K,A*2D
###2023-11-09 13:10:33.232148$GNGGA,131033.40,3611.0625604,N,07544.8746731,W,1,24,0.6,0.616,M,-39.960,M,0.0,*6C
###2023-11-09 13:10:33.234769$GPGSV,2,1,07,05,20,091,43,10,19,294,41,13,23,045,41,15,60,038,46*7A
###2023-11-09 13:10:33.237060$GPGSV,2,2,07,18,78,272,46,23,50,316,44,24,50,134,46,,,,*4A
###2023-11-09 13:10:33.239637$GLGSV,2,1,05,70,49,019,35,71,48,291,47,80,19,089,44,85,56,202,50*6E
###2023-11-09 13:10:33.241254$GLGSV,2,2,05,86,54,306,47,,,,,,,,,,,,*59
###2023-11-09 13:10:33.243832$GAGSV,1,1,04,07,73,259,45,08,48,043,45,13,63,161,45,26,57,310,44*66
###2023-11-09 13:10:33.246407$GBGSV,2,1,06,11,22,180,43,14,65,009,45,24,21,132,44,26,23,080,43*61
###2023-11-09 13:10:33.248366$GBGSV,2,2,06,28,43,286,46,33,59,305,47,,,,,,,,*67
###2023-11-09 13:10:33.249842$GNVTG,318.65,T,,M,4.30,N,7.96,K,A*25
###2023-11-09 13:10:33.332233$GNGGA,131033.50,3611.0626532,N,07544.8747665,W,1,24,0.6,0.622,M,-39.960,M,0.0,*6E
###2023-11-09 13:10:33.334818$GPGSV,2,1,07,05,20,091,43,10,19,294,41,13,23,045,41,15,60,038,46*7A
###2023-11-09 13:10:33.337082$GPGSV,2,2,07,18,78,272,46,23,50,316,44,24,50,134,46,,,,*4A
###2023-11-09 13:10:33.339650$GLGSV,2,1,05,70,49,019,35,71,48,291,47,80,19,089,45,85,56,202,48*66
###2023-11-09 13:10:33.341248$GLGSV,2,2,05,86,54,306,47,,,,,,,,,,,,*59
###2023-11-09 13:10:33.343803$GAGSV,1,1,04,07,73,259,45,08,48,043,45,13,63,161,45,26,57,310,44*66
###2023-11-09 13:10:33.346368$GBGSV,2,1,06,11,22,180,43,14,65,009,45,24,21,132,45,26,23,080,43*60
###2023-11-09 13:10:33.348312$GBGSV,2,2,06,28,43,286,46,33,59,305,47,,,,,,,,*67
###2023-11-09 13:10:33.349765$GNVTG,321.70,T,,M,4.30,N,7.96,K,A*2B
###2023-11-09 13:10:33.431762$GNGGA,131033.60,3611.0627405,N,07544.8748614,W,1,24,0.6,0.603,M,-39.960,M,0.0,*63
###2023-11-09 13:10:33.434379$GPGSV,2,1,07,05,20,091,43,10,19,294,41,13,23,045,41,15,60,038,46*7A
###2023-11-09 13:10:33.436643$GPGSV,2,2,07,18,78,272,46,23,50,316,45,24,50,134,45,,,,*48
###2023-11-09 13:10:33.439244$GLGSV,2,1,05,70,49,019,35,71,48,291,47,80,19,089,45,85,56,202,48*66
###2023-11-09 13:10:33.440851$GLGSV,2,2,05,86,54,306,47,,,,,,,,,,,,*59
###2023-11-09 13:10:33.443422$GAGSV,1,1,04,07,73,259,44,08,48,043,45,13,63,161,45,26,57,310,44*67
###2023-11-09 13:10:33.446014$GBGSV,2,1,06,11,22,180,40,14,65,009,45,24,21,132,45,26,23,080,43*63
###2023-11-09 13:10:33.447978$GBGSV,2,2,06,28,43,286,45,33,59,305,47,,,,,,,,*64
###2023-11-09 13:10:33.449452$GNVTG,314.28,T,,M,4.04,N,7.49,K,A*25
###2023-11-09 13:10:33.534492$GNGGA,131033.70,3611.0628127,N,07544.8749635,W,1,24,0.6,0.563,M,-39.960,M,0.0,*6F
###2023-11-09 13:10:33.537110$GPGSV,2,1,07,05,20,091,43,10,19,294,41,13,23,045,41,15,60,038,46*7A
###2023-11-09 13:10:33.539358$GPGSV,2,2,07,18,78,272,46,23,50,316,45,24,50,134,45,,,,*48
###2023-11-09 13:10:33.541930$GLGSV,2,1,05,70,49,019,35,71,48,291,47,80,19,089,45,85,56,202,48*66
###2023-11-09 13:10:33.543528$GLGSV,2,2,05,86,54,306,48,,,,,,,,,,,,*56
###2023-11-09 13:10:33.546091$GAGSV,1,1,04,07,73,259,44,08,48,043,45,13,63,161,45,26,57,310,44*67
###2023-11-09 13:10:33.548681$GBGSV,2,1,06,11,22,180,40,14,65,009,45,24,21,132,44,26,23,080,44*65
###2023-11-09 13:10:33.550618$GBGSV,2,2,06,28,43,286,45,33,59,305,47,,,,,,,,*64
###2023-11-09 13:10:33.552083$GNVTG,306.42,T,,M,3.83,N,7.09,K,A*26
###2023-11-09 13:10:33.631121$GNGGA,131033.80,3611.0628717,N,07544.8750688,W,1,24,0.6,0.521,M,-39.960,M,0.0,*6D
###2023-11-09 13:10:33.633695$GPGSV,2,1,07,05,20,091,43,10,19,294,41,13,23,045,41,15,60,038,46*7A
###2023-11-09 13:10:33.635936$GPGSV,2,2,07,18,78,272,46,23,50,316,45,24,50,134,46,,,,*4B
###2023-11-09 13:10:33.638516$GLGSV,2,1,05,70,49,019,35,71,48,291,47,80,19,089,45,85,56,202,48*66
###2023-11-09 13:10:33.640119$GLGSV,2,2,05,86,54,306,48,,,,,,,,,,,,*56
###2023-11-09 13:10:33.642683$GAGSV,1,1,04,07,73,259,44,08,48,043,45,13,63,161,45,26,57,310,45*66
###2023-11-09 13:10:33.645248$GBGSV,2,1,06,11,22,180,41,14,65,009,45,24,21,132,44,26,23,080,44*64
###2023-11-09 13:10:33.647190$GBGSV,2,2,06,28,43,286,46,33,59,305,47,,,,,,,,*67
###2023-11-09 13:10:33.648645$GNVTG,301.43,T,,M,3.63,N,6.73,K,A*22
###2023-11-09 13:10:33.731108$GNGGA,131033.90,3611.0629284,N,07544.8751689,W,1,24,0.6,0.495,M,-39.960,M,0.0,*6C
###2023-11-09 13:10:33.733712$GPGSV,2,1,07,05,20,091,43,10,19,294,42,13,23,045,41,15,60,038,46*79
###2023-11-09 13:10:33.735979$GPGSV,2,2,07,18,78,272,46,23,50,316,45,24,50,134,46,,,,*4B
###2023-11-09 13:10:33.738575$GLGSV,2,1,05,70,49,019,35,71,48,291,47,80,19,089,45,85,56,202,48*66
###2023-11-09 13:10:33.740181$GLGSV,2,2,05,86,54,306,48,,,,,,,,,,,,*56
###2023-11-09 13:10:33.742744$GAGSV,1,1,04,07,73,259,44,08,48,043,45,13,63,161,45,26,57,310,45*66
###2023-11-09 13:10:33.745320$GBGSV,2,1,06,11,22,180,43,14,65,009,45,24,21,132,45,26,23,080,43*60
###2023-11-09 13:10:33.747268$GBGSV,2,2,06,28,43,286,46,33,59,305,47,,,,,,,,*67
###2023-11-09 13:10:33.748728$GNVTG,307.03,T,,M,3.52,N,6.52,K,A*21
###2023-11-09 13:10:33.834121$GNGGA,131034.00,3611.0629952,N,07544.8752575,W,1,24,0.6,0.481,M,-39.960,M,0.0,*64
###2023-11-09 13:10:33.836717$GPGSV,2,1,07,05,20,091,43,10,19,294,42,13,23,045,41,15,60,038,46*79
###2023-11-09 13:10:33.838990$GPGSV,2,2,07,18,78,272,46,23,50,316,44,24,50,134,46,,,,*4A
###2023-11-09 13:10:33.841563$GLGSV,2,1,05,70,49,019,35,71,48,291,47,80,19,089,44,85,56,202,49*66
###2023-11-09 13:10:33.843176$GLGSV,2,2,05,86,54,306,47,,,,,,,,,,,,*59
###2023-11-09 13:10:33.845750$GAGSV,1,1,04,07,73,259,45,08,48,043,45,13,63,161,46,26,57,310,45*64
###2023-11-09 13:10:33.848341$GBGSV,2,1,06,11,22,180,43,14,65,009,45,24,21,132,45,26,23,080,43*60
###2023-11-09 13:10:33.850279$GBGSV,2,2,06,28,43,286,46,33,59,305,47,,,,,,,,*67
###2023-11-09 13:10:33.851752$GNVTG,317.24,T,,M,3.56,N,6.59,K,A*2A
###2023-11-09 13:10:33.934248$GNGGA,131034.10,3611.0630719,N,07544.8753375,W,1,24,0.6,0.473,M,-39.960,M,0.0,*66
###2023-11-09 13:10:33.936835$GPGSV,2,1,07,05,20,091,43,10,19,294,42,13,23,045,41,15,60,038,46*79
###2023-11-09 13:10:33.939095$GPGSV,2,2,07,18,78,272,46,23,51,317,44,24,50,134,46,,,,*4A
###2023-11-09 13:10:33.941646$GLGSV,2,1,05,70,49,019,35,71,48,291,47,80,19,089,45,85,56,202,49*67
###2023-11-09 13:10:33.943245$GLGSV,2,2,05,86,54,306,48,,,,,,,,,,,,*56
###2023-11-09 13:10:33.945797$GAGSV,1,1,04,07,73,259,45,08,48,043,45,13,63,161,46,26,57,310,45*64
###2023-11-09 13:10:33.948375$GBGSV,2,1,06,11,22,180,42,14,65,009,45,24,21,132,45,26,23,080,43*61
###2023-11-09 13:10:33.950301$GBGSV,2,2,06,28,43,286,46,33,59,305,47,,,,,,,,*67
###2023-11-09 13:10:33.951754$GNVTG,320.92,T,,M,3.63,N,6.73,K,A*2D
###2023-11-09 13:10:34.033252$GNGGA,131034.20,3611.0631488,N,07544.8754167,W,1,24,0.6,0.457,M,-39.960,M,0.0,*6F
###2023-11-09 13:10:34.035843$GPGSV,2,1,07,05,20,091,44,10,19,294,42,13,23,045,41,15,60,038,46*7E
###2023-11-09 13:10:34.038119$GPGSV,2,2,07,18,78,272,46,23,51,317,44,24,50,134,46,,,,*4A
###2023-11-09 13:10:34.040679$GLGSV,2,1,05,70,49,019,35,71,48,291,47,80,19,089,45,85,56,202,49*67
###2023-11-09 13:10:34.042282$GLGSV,2,2,05,86,54,306,48,,,,,,,,,,,,*56
###2023-11-09 13:10:34.044841$GAGSV,1,1,04,07,73,259,44,08,48,043,45,13,63,161,45,26,57,310,45*66
###2023-11-09 13:10:34.047429$GBGSV,2,1,06,11,22,180,41,14,65,009,45,24,21,132,45,26,23,080,43*62
###2023-11-09 13:10:34.049368$GBGSV,2,2,06,28,43,286,46,33,59,305,47,,,,,,,,*67
###2023-11-09 13:10:34.050830$GNVTG,317.80,T,,M,3.54,N,6.55,K,A*2A
###2023-11-09 13:10:34.132094$GNGGA,131034.30,3611.0632160,N,07544.8755008,W,1,24,0.6,0.427,M,-39.960,M,0.0,*60
###2023-11-09 13:10:34.134661$GPGSV,2,1,07,05,20,091,43,10,19,294,42,13,23,045,42,15,60,038,46*7A
###2023-11-09 13:10:34.136977$GPGSV,2,2,07,18,78,272,46,23,51,317,45,24,50,134,45,,,,*48
###2023-11-09 13:10:34.139604$GLGSV,2,1,05,70,49,019,35,71,48,291,47,80,19,089,45,85,56,202,48*66
###2023-11-09 13:10:34.141204$GLGSV,2,2,05,86,54,306,48,,,,,,,,,,,,*56
###2023-11-09 13:10:34.144069$GAGSV,1,1,04,07,73,259,44,08,48,043,45,13,63,161,45,26,57,310,45*66
###2023-11-09 13:10:34.146653$GBGSV,2,1,06,11,22,180,40,14,65,009,45,24,21,132,44,26,23,080,44*65
###2023-11-09 13:10:34.148598$GBGSV,2,2,06,28,43,286,46,33,59,305,47,,,,,,,,*67
###2023-11-09 13:10:34.150060$GNVTG,310.94,T,,M,3.29,N,6.08,K,A*2A
###2023-11-09 13:10:34.232095$GNGGA,131034.40,3611.0632716,N,07544.8755874,W,1,24,0.6,0.406,M,-39.960,M,0.0,*60
###2023-11-09 13:10:34.234668$GPGSV,2,1,07,05,20,091,44,10,19,294,42,13,23,045,43,15,60,038,46*7C
###2023-11-09 13:10:34.236932$GPGSV,2,2,07,18,78,272,46,23,51,317,45,24,50,134,45,,,,*48
###2023-11-09 13:10:34.239490$GLGSV,2,1,05,70,49,019,35,71,48,291,47,80,19,089,45,85,56,202,48*66
###2023-11-09 13:10:34.241096$GLGSV,2,2,05,86,54,306,48,,,,,,,,,,,,*56
###2023-11-09 13:10:34.243649$GAGSV,1,1,04,07,73,259,44,08,48,043,45,13,63,161,44,26,57,310,45*67
