###2023-11-09 13:06:02.147550$GBGSV,2,1,06,11,24,180,40,14,65,006,45,24,19,133,44,26,23,082,42*62
###2023-11-09 13:06:02.149490$GBGSV,2,2,06,28,43,289,48,33,58,302,48,,,,,,,,*6F
###2023-11-09 13:06:02.150928$GNVTG,64.97,T,,M,0.95,N,1.76,K,A*13
###2023-11-09 13:06:02.231637$GNGGA,130602.40,3611.0384096,N,07544.9839565,W,1,23,0.6,1.398,M,-39.962,M,0.0,*68
###2023-11-09 13:06:02.234273$GPGSV,2,1,07,05,21,089,41,10,17,292,42,13,25,045,40,15,62,036,46*70
###2023-11-09 13:06:02.236545$GPGSV,2,2,07,18,77,285,47,23,49,314,46,24,49,137,45,,,,*4C
###2023-11-09 13:06:02.239155$GLGSV,1,1,04,71,48,288,49,80,17,092,42,85,59,204,48,86,52,311,48*6A
###2023-11-09 13:06:02.241741$GAGSV,1,1,04,07,72,255,45,08,49,042,44,13,64,160,45,26,56,311,45*6D
###2023-11-09 13:06:02.244334$GBGSV,2,1,06,11,24,180,40,14,65,006,45,24,19,133,43,26,23,082,42*65
###2023-11-09 13:06:02.246295$GBGSV,2,2,06,28,43,289,48,33,58,302,48,,,,,,,,*6F
###2023-11-09 13:06:02.247782$GNVTG,262.59,T,,M,1.19,N,2.20,K,A*20
###2023-11-09 13:06:02.331731$GNGGA,130602.50,3611.0384062,N,07544.9839996,W,1,23,0.6,1.458,M,-39.962,M,0.0,*69
###2023-11-09 13:06:02.334321$GPGSV,2,1,07,05,21,089,41,10,17,292,42,13,25,045,40,15,62,036,46*70
###2023-11-09 13:06:02.336586$GPGSV,2,2,07,18,77,285,47,23,49,314,45,24,49,137,45,,,,*4F
###2023-11-09 13:06:02.339175$GLGSV,1,1,04,71,48,288,48,80,17,092,43,85,59,204,47,86,52,311,48*65
###2023-11-09 13:06:02.341747$GAGSV,1,1,04,07,72,255,45,08,49,042,44,13,64,160,45,26,56,311,45*6D
###2023-11-09 13:06:02.344316$GBGSV,2,1,06,11,24,180,40,14,65,006,45,24,19,133,43,26,23,082,42*65
###2023-11-09 13:06:02.346246$GBGSV,2,2,06,28,43,289,48,33,58,302,48,,,,,,,,*6F
###2023-11-09 13:06:02.347723$GNVTG,268.01,T,,M,1.34,N,2.48,K,A*26
###2023-11-09 13:06:02.430833$GNGGA,130602.60,3611.0384030,N,07544.9840459,W,1,23,0.6,1.513,M,-39.962,M,0.0,*63
###2023-11-09 13:06:02.433403$GPGSV,2,1,07,05,21,089,41,10,17,292,42,13,25,045,40,15,62,036,46*70
###2023-11-09 13:06:02.435646$GPGSV,2,2,07,18,77,285,47,23,49,314,45,24,49,137,45,,,,*4F
###2023-11-09 13:06:02.438227$GLGSV,1,1,04,71,48,288,49,80,17,092,43,85,59,204,48,86,52,311,48*6B
###2023-11-09 13:06:02.440795$GAGSV,1,1,04,07,72,255,45,08,49,042,44,13,64,160,45,26,56,311,45*6D
###2023-11-09 13:06:02.443370$GBGSV,2,1,06,11,24,180,40,14,65,006,44,24,19,133,43,26,23,082,42*64
###2023-11-09 13:06:02.445301$GBGSV,2,2,06,28,43,289,48,33,58,302,48,,,,,,,,*6F
###2023-11-09 13:06:02.446760$GNVTG,264.34,T,,M,1.38,N,2.56,K,A*2F
###2023-11-09 13:06:02.531992$GNGGA,130602.70,3611.0384002,N,07544.9840933,W,1,23,0.6,1.547,M,-39.962,M,0.0,*63
###2023-11-09 13:06:02.534611$GPGSV,2,1,07,05,21,089,43,10,17,292,43,13,25,045,40,15,62,036,46*73
###2023-11-09 13:06:02.536866$GPGSV,2,2,07,18,77,285,47,23,49,314,46,24,49,137,45,,,,*4C
###2023-11-09 13:06:02.539459$GLGSV,1,1,04,71,48,288,49,80,17,092,44,85,59,204,48,86,52,311,48*6C
###2023-11-09 13:06:02.542033$GAGSV,1,1,04,07,72,255,45,08,49,042,44,13,64,160,45,26,56,311,45*6D
###2023-11-09 13:06:02.544615$GBGSV,2,1,06,11,24,180,40,14,65,006,45,24,19,133,42,26,23,082,43*65
###2023-11-09 13:06:02.546549$GBGSV,2,2,06,28,43,289,47,33,58,302,48,,,,,,,,*60
###2023-11-09 13:06:02.548028$GNVTG,268.51,T,,M,1.40,N,2.59,K,A*20
###2023-11-09 13:06:02.633002$GNGGA,130602.80,3611.0383979,N,07544.9841423,W,1,23,0.6,1.565,M,-39.962,M,0.0,*63
###2023-11-09 13:06:02.635612$GPGSV,2,1,07,05,21,089,43,10,17,292,43,13,25,045,40,15,62,036,47*72
###2023-11-09 13:06:02.637900$GPGSV,2,2,07,18,77,285,47,23,49,314,46,24,49,137,45,,,,*4C
###2023-11-09 13:06:02.640481$GLGSV,1,1,04,71,48,288,49,80,17,092,44,85,59,204,48,86,52,311,48*6C
###2023-11-09 13:06:02.643070$GAGSV,1,1,04,07,72,255,45,08,49,042,45,13,64,160,45,26,56,311,45*6C
###2023-11-09 13:06:02.645648$GBGSV,2,1,06,11,24,180,40,14,65,006,45,24,19,133,42,26,23,082,44*62
###2023-11-09 13:06:02.647607$GBGSV,2,2,06,28,43,289,47,33,58,302,48,,,,,,,,*60
###2023-11-09 13:06:02.649079$GNVTG,266.45,T,,M,1.48,N,2.74,K,A*2C
###2023-11-09 13:06:02.731600$GNGGA,130602.90,3611.0383939,N,07544.9841917,W,1,23,0.6,1.569,M,-39.962,M,0.0,*60
###2023-11-09 13:06:02.734172$GPGSV,2,1,07,05,21,089,43,10,17,292,43,13,25,045,42,15,62,036,47*70
###2023-11-09 13:06:02.736415$GPGSV,2,2,07,18,77,285,47,23,49,314,46,24,49,137,45,,,,*4C
###2023-11-09 13:06:02.738988$GLGSV,1,1,04,71,48,288,49,80,17,092,44,85,59,204,48,86,52,311,48*6C
###2023-11-09 13:06:02.741545$GAGSV,1,1,04,07,72,255,45,08,49,042,45,13,64,160,45,26,56,311,45*6C
###2023-11-09 13:06:02.744097$GBGSV,2,1,06,11,24,180,40,14,65,006,45,24,19,133,42,26,23,082,44*62
###2023-11-09 13:06:02.746019$GBGSV,2,2,06,28,43,289,47,33,58,302,48,,,,,,,,*60
###2023-11-09 13:06:02.747488$GNVTG,263.49,T,,M,1.44,N,2.66,K,A*2A
###2023-11-09 13:06:02.835608$GNGGA,130603.00,3611.0383894,N,07544.9842404,W,1,23,0.6,1.553,M,-39.962,M,0.0,*6B
###2023-11-09 13:06:02.838230$GPGSV,2,1,07,05,21,089,43,10,17,292,43,13,25,045,42,15,62,036,47*70
###2023-11-09 13:06:02.840484$GPGSV,2,2,07,18,77,285,47,23,49,314,46,24,49,137,45,,,,*4C
###2023-11-09 13:06:02.843068$GLGSV,1,1,04,71,48,288,49,80,17,092,44,85,59,204,47,86,52,311,48*63
###2023-11-09 13:06:02.845629$GAGSV,1,1,04,07,72,255,45,08,49,042,45,13,64,160,45,26,56,311,45*6C
###2023-11-09 13:06:02.848227$GBGSV,2,1,06,11,24,180,40,14,65,006,46,24,19,133,42,26,23,082,44*61
###2023-11-09 13:06:02.850170$GBGSV,2,2,06,28,43,289,47,33,58,302,48,,,,,,,,*60
###2023-11-09 13:06:02.851629$GNVTG,265.06,T,,M,1.44,N,2.66,K,A*27
###2023-11-09 13:06:02.933007$GNGGA,130603.10,3611.0383853,N,07544.9842891,W,1,23,0.6,1.513,M,-39.962,M,0.0,*65
###2023-11-09 13:06:02.935633$GPGSV,2,1,07,05,21,089,43,10,17,292,43,13,25,045,42,15,62,036,47*70
###2023-11-09 13:06:02.937924$GPGSV,2,2,07,18,77,285,47,23,49,314,45,24,49,137,45,,,,*4F
###2023-11-09 13:06:02.940526$GLGSV,1,1,04,71,48,288,49,80,17,092,43,85,59,204,47,86,52,311,48*64
###2023-11-09 13:06:02.943131$GAGSV,1,1,04,07,72,255,45,08,49,042,45,13,64,160,45,26,56,311,45*6C
###2023-11-09 13:06:02.945741$GBGSV,2,1,06,11,24,180,40,14,65,006,46,24,19,133,42,26,23,082,44*61
###2023-11-09 13:06:02.947718$GBGSV,2,2,06,28,43,289,46,33,58,302,48,,,,,,,,*61
###2023-11-09 13:06:02.949202$GNVTG,264.60,T,,M,1.42,N,2.63,K,A*25
###2023-11-09 13:06:03.035860$GNGGA,130603.20,3611.0383825,N,07544.9843347,W,1,24,0.6,1.464,M,-39.962,M,0.0,*60
###2023-11-09 13:06:03.038475$GPGSV,2,1,07,05,21,089,42,10,17,292,43,13,25,045,43,15,62,036,47*70
###2023-11-09 13:06:03.040726$GPGSV,2,2,07,18,77,285,47,23,49,314,45,24,49,137,46,,,,*4C
###2023-11-09 13:06:03.043300$GLGSV,2,1,05,70,50,016,35,71,48,288,49,80,17,092,43,85,59,204,48*6C
###2023-11-09 13:06:03.044902$GLGSV,2,2,05,86,52,311,48,,,,,,,,,,,,*56
###2023-11-09 13:06:03.047476$GAGSV,1,1,04,07,72,255,45,08,49,042,45,13,64,160,45,26,56,311,45*6C
###2023-11-09 13:06:03.050062$GBGSV,2,1,06,11,24,180,41,14,65,006,46,24,19,133,42,26,23,082,43*67
###2023-11-09 13:06:03.052035$GBGSV,2,2,06,28,43,289,46,33,58,302,48,,,,,,,,*61
###2023-11-09 13:06:03.053515$GNVTG,268.32,T,,M,1.26,N,2.34,K,A*2E
###2023-11-09 13:06:03.131609$GNGGA,130603.30,3611.0383835,N,07544.9843750,W,1,24,0.6,1.398,M,-39.962,M,0.0,*66
###2023-11-09 13:06:03.134192$GPGSV,2,1,07,05,21,089,42,10,17,292,43,13,25,045,43,15,62,036,47*70
###2023-11-09 13:06:03.136447$GPGSV,2,2,07,18,77,285,46,23,49,314,45,24,49,137,46,,,,*4D
###2023-11-09 13:06:03.139045$GLGSV,2,1,05,70,50,016,35,71,48,288,49,80,17,092,43,85,59,204,48*6C
###2023-11-09 13:06:03.140656$GLGSV,2,2,05,86,52,311,48,,,,,,,,,,,,*56
###2023-11-09 13:06:03.143241$GAGSV,1,1,04,07,72,255,45,08,49,042,45,13,64,160,45,26,56,311,45*6C
###2023-11-09 13:06:03.145814$GBGSV,2,1,06,11,24,180,41,14,65,006,46,24,19,133,41,26,23,082,43*64
###2023-11-09 13:06:03.147759$GBGSV,2,2,06,28,43,289,46,33,58,302,48,,,,,,,,*61
###2023-11-09 13:06:03.149226$GNVTG,277.69,T,,M,1.11,N,2.05,K,A*28
###2023-11-09 13:06:03.233260$GNGGA,130603.40,3611.0383892,N,07544.9844089,W,1,24,0.6,1.328,M,-39.962,M,0.0,*63
###2023-11-09 13:06:03.235854$GPGSV,2,1,07,05,21,089,41,10,17,292,43,13,25,045,42,15,62,036,47*72
###2023-11-09 13:06:03.238123$GPGSV,2,2,07,18,77,285,46,23,49,314,46,24,49,137,46,,,,*4E
###2023-11-09 13:06:03.240691$GLGSV,2,1,05,70,50,016,35,71,48,288,49,80,17,092,43,85,59,204,48*6C
###2023-11-09 13:06:03.242600$GLGSV,2,2,05,86,52,311,48,,,,,,,,,,,,*56
###2023-11-09 13:06:03.245169$GAGSV,1,1,04,07,72,255,45,08,49,042,45,13,64,160,45,26,56,311,45*6C
###2023-11-09 13:06:03.247784$GBGSV,2,1,06,11,24,180,41,14,65,006,46,24,19,133,41,26,23,082,42*65
###2023-11-09 13:06:03.249726$GBGSV,2,2,06,28,43,289,46,33,58,302,48,,,,,,,,*61
###2023-11-09 13:06:03.251191$GNVTG,277.69,T,,M,0.95,N,1.76,K,A*22
###2023-11-09 13:06:03.331596$GNGGA,130603.50,3611.0384002,N,07544.9844329,W,1,24,0.6,1.257,M,-39.962,M,0.0,*64
###2023-11-09 13:06:03.334171$GPGSV,2,1,07,05,21,089,41,10,17,292,43,13,25,045,42,15,62,036,47*72
###2023-11-09 13:06:03.336399$GPGSV,2,2,07,18,77,285,46,23,49,314,46,24,49,137,45,,,,*4D
###2023-11-09 13:06:03.338969$GLGSV,2,1,05,70,50,016,35,71,48,288,49,80,17,092,43,85,59,204,48*6C
###2023-11-09 13:06:03.340570$GLGSV,2,2,05,86,52,311,48,,,,,,,,,,,,*56
###2023-11-09 13:06:03.343121$GAGSV,1,1,04,07,72,255,45,08,49,042,45,13,64,160,45,26,56,311,46*6F
