###2023-11-09 13:08:04.942853$GAGSV,1,1,04,07,72,258,44,08,49,042,45,13,64,160,45,26,56,310,45*61
###2023-11-09 13:08:04.945462$GBGSV,2,1,06,11,23,180,42,14,65,008,45,24,20,132,44,26,23,081,44*67
###2023-11-09 13:08:04.947438$GBGSV,2,2,06,28,43,287,46,33,59,304,47,,,,,,,,*67
###2023-11-09 13:08:04.948912$GNVTG,252.84,T,,M,4.94,N,9.14,K,A*2F
###2023-11-09 13:08:05.031988$GNGGA,130805.20,3611.0448830,N,07544.9900189,W,1,24,0.6,1.141,M,-39.961,M,0.0,*6B
###2023-11-09 13:08:05.034576$GPGSV,2,1,07,05,21,090,44,10,18,292,44,13,24,045,42,15,62,037,46*76
###2023-11-09 13:08:05.036824$GPGSV,2,2,07,18,77,281,46,23,50,315,45,24,49,136,46,,,,*41
###2023-11-09 13:08:05.039417$GLGSV,2,1,05,70,50,017,36,71,48,290,49,80,18,090,46,85,58,203,48*69
###2023-11-09 13:08:05.041027$GLGSV,2,2,05,86,52,309,48,,,,,,,,,,,,*5F
###2023-11-09 13:08:05.043591$GAGSV,1,1,04,07,72,258,44,08,49,042,45,13,64,160,45,26,56,310,45*61
###2023-11-09 13:08:05.046168$GBGSV,2,1,06,11,23,180,42,14,65,008,45,24,20,132,44,26,23,081,44*67
###2023-11-09 13:08:05.048118$GBGSV,2,2,06,28,43,287,46,33,59,304,47,,,,,,,,*67
###2023-11-09 13:08:05.049583$GNVTG,252.90,T,,M,5.05,N,9.36,K,A*23
###2023-11-09 13:08:05.129755$GNGGA,130805.30,3611.0448403,N,07544.9901825,W,1,24,0.6,1.161,M,-39.961,M,0.0,*6A
###2023-11-09 13:08:05.132334$GPGSV,2,1,07,05,21,090,44,10,18,292,44,13,24,045,42,15,62,037,46*76
###2023-11-09 13:08:05.134570$GPGSV,2,2,07,18,77,281,46,23,50,315,46,24,49,136,46,,,,*42
###2023-11-09 13:08:05.137149$GLGSV,2,1,05,70,50,017,36,71,48,290,49,80,18,090,46,85,58,203,48*69
###2023-11-09 13:08:05.138758$GLGSV,2,2,05,86,52,309,48,,,,,,,,,,,,*5F
###2023-11-09 13:08:05.141336$GAGSV,1,1,04,07,72,258,44,08,49,042,45,13,64,160,45,26,56,310,45*61
###2023-11-09 13:08:05.143919$GBGSV,2,1,06,11,23,180,42,14,65,008,45,24,20,132,44,26,23,081,44*67
###2023-11-09 13:08:05.145855$GBGSV,2,2,06,28,43,287,47,33,59,304,47,,,,,,,,*66
###2023-11-09 13:08:05.147327$GNVTG,251.99,T,,M,5.00,N,9.25,K,A*2E
###2023-11-09 13:08:05.228893$GNGGA,130805.40,3611.0447951,N,07544.9903467,W,1,24,0.6,1.169,M,-39.961,M,0.0,*68
###2023-11-09 13:08:05.231510$GPGSV,2,1,07,05,21,090,43,10,18,292,44,13,24,045,42,15,62,037,46*71
###2023-11-09 13:08:05.233768$GPGSV,2,2,07,18,77,281,46,23,50,315,46,24,49,136,46,,,,*42
###2023-11-09 13:08:05.236341$GLGSV,2,1,05,70,50,017,36,71,48,290,49,80,18,090,46,85,58,203,48*69
###2023-11-09 13:08:05.237959$GLGSV,2,2,05,86,52,309,48,,,,,,,,,,,,*5F
###2023-11-09 13:08:05.240537$GAGSV,1,1,04,07,72,258,45,08,49,042,45,13,64,160,45,26,56,310,45*60
###2023-11-09 13:08:05.243119$GBGSV,2,1,06,11,23,180,40,14,65,008,45,24,20,132,44,26,23,081,44*65
###2023-11-09 13:08:05.245060$GBGSV,2,2,06,28,43,287,47,33,59,304,47,,,,,,,,*66
###2023-11-09 13:08:05.246527$GNVTG,251.17,T,,M,5.13,N,9.50,K,A*28
###2023-11-09 13:08:05.329540$GNGGA,130805.50,3611.0447492,N,07544.9905127,W,1,24,0.6,1.169,M,-39.961,M,0.0,*6C
###2023-11-09 13:08:05.332151$GPGSV,2,1,07,05,21,090,43,10,18,292,44,13,24,045,41,15,62,037,46*72
###2023-11-09 13:08:05.334411$GPGSV,2,2,07,18,77,281,46,23,50,315,46,24,49,136,46,,,,*42
###2023-11-09 13:08:05.337019$GLGSV,2,1,05,70,50,017,36,71,48,290,49,80,18,090,45,85,58,203,48*6A
###2023-11-09 13:08:05.338634$GLGSV,2,2,05,86,52,309,48,,,,,,,,,,,,*5F
###2023-11-09 13:08:05.341231$GAGSV,1,1,04,07,72,258,44,08,49,042,45,13,64,160,45,26,56,310,45*61
###2023-11-09 13:08:05.343844$GBGSV,2,1,06,11,23,180,40,14,65,008,45,24,20,132,44,26,23,081,44*65
###2023-11-09 13:08:05.345795$GBGSV,2,2,06,28,43,287,47,33,59,304,47,,,,,,,,*66
###2023-11-09 13:08:05.347289$GNVTG,251.70,T,,M,5.13,N,9.50,K,A*29
###2023-11-09 13:08:05.429762$GNGGA,130805.60,3611.0447028,N,07544.9906791,W,1,24,0.6,1.164,M,-39.961,M,0.0,*6F
###2023-11-09 13:08:05.432362$GPGSV,2,1,07,05,21,090,43,10,18,292,44,13,24,045,41,15,62,037,46*72
###2023-11-09 13:08:05.434619$GPGSV,2,2,07,18,77,281,46,23,50,315,46,24,49,136,46,,,,*42
###2023-11-09 13:08:05.437205$GLGSV,2,1,05,70,50,017,36,71,48,290,49,80,18,090,45,85,58,203,48*6A
###2023-11-09 13:08:05.438818$GLGSV,2,2,05,86,52,309,48,,,,,,,,,,,,*5F
###2023-11-09 13:08:05.441390$GAGSV,1,1,04,07,72,258,45,08,49,042,45,13,64,160,45,26,56,310,45*60
###2023-11-09 13:08:05.443970$GBGSV,2,1,06,11,23,180,41,14,65,008,45,24,20,132,44,26,23,081,44*64
###2023-11-09 13:08:05.445906$GBGSV,2,2,06,28,43,287,47,33,59,304,47,,,,,,,,*66
###2023-11-09 13:08:05.447384$GNVTG,250.91,T,,M,5.17,N,9.58,K,A*2B
###2023-11-09 13:08:05.529890$GNGGA,130805.70,3611.0446550,N,07544.9908469,W,1,24,0.6,1.157,M,-39.961,M,0.0,*6F
###2023-11-09 13:08:05.532503$GPGSV,2,1,07,05,21,090,43,10,18,292,44,13,24,045,41,15,62,037,46*72
###2023-11-09 13:08:05.534767$GPGSV,2,2,07,18,77,281,46,23,50,315,46,24,49,136,46,,,,*42
###2023-11-09 13:08:05.537386$GLGSV,2,1,05,70,50,017,36,71,48,290,48,80,18,090,45,85,58,203,48*6B
###2023-11-09 13:08:05.539005$GLGSV,2,2,05,86,52,309,48,,,,,,,,,,,,*5F
###2023-11-09 13:08:05.541582$GAGSV,1,1,04,07,72,258,45,08,49,042,45,13,64,160,45,26,56,310,45*60
###2023-11-09 13:08:05.544167$GBGSV,2,1,06,11,23,180,41,14,65,008,45,24,20,132,44,26,23,081,44*64
###2023-11-09 13:08:05.546110$GBGSV,2,2,06,28,43,287,47,33,59,304,47,,,,,,,,*66
###2023-11-09 13:08:05.547592$GNVTG,250.88,T,,M,5.21,N,9.65,K,A*28
###2023-11-09 13:08:05.629761$GNGGA,130805.80,3611.0446070,N,07544.9910136,W,1,24,0.6,1.155,M,-39.961,M,0.0,*63
###2023-11-09 13:08:05.632346$GPGSV,2,1,07,05,21,090,43,10,18,292,44,13,24,045,41,15,62,037,46*72
###2023-11-09 13:08:05.634601$GPGSV,2,2,07,18,77,281,46,23,50,315,46,24,49,136,46,,,,*42
###2023-11-09 13:08:05.637192$GLGSV,2,1,05,70,50,017,36,71,48,290,48,80,18,090,45,85,58,203,48*6B
###2023-11-09 13:08:05.638811$GLGSV,2,2,05,86,52,309,48,,,,,,,,,,,,*5F
###2023-11-09 13:08:05.641384$GAGSV,1,1,04,07,72,258,45,08,49,042,45,13,64,160,45,26,56,310,45*60
###2023-11-09 13:08:05.643967$GBGSV,2,1,06,11,23,180,41,14,65,008,45,24,20,132,44,26,23,081,44*64
###2023-11-09 13:08:05.645906$GBGSV,2,2,06,28,43,287,47,33,59,304,47,,,,,,,,*66
###2023-11-09 13:08:05.647389$GNVTG,250.64,T,,M,5.11,N,9.47,K,A*29
###2023-11-09 13:08:05.728760$GNGGA,130805.90,3611.0445577,N,07544.9911778,W,1,24,0.6,1.161,M,-39.961,M,0.0,*69
###2023-11-09 13:08:05.731343$GPGSV,2,1,07,05,21,090,43,10,18,292,44,13,24,045,41,15,62,037,46*72
###2023-11-09 13:08:05.733603$GPGSV,2,2,07,18,77,281,46,23,50,315,46,24,49,136,46,,,,*42
###2023-11-09 13:08:05.736168$GLGSV,2,1,05,70,50,017,37,71,48,290,48,80,18,090,45,85,58,203,48*6A
###2023-11-09 13:08:05.737788$GLGSV,2,2,05,86,52,309,48,,,,,,,,,,,,*5F
###2023-11-09 13:08:05.740350$GAGSV,1,1,04,07,72,258,44,08,49,042,45,13,64,160,45,26,56,310,45*61
###2023-11-09 13:08:05.742918$GBGSV,2,1,06,11,23,180,41,14,65,008,45,24,20,132,44,26,23,081,44*64
###2023-11-09 13:08:05.744847$GBGSV,2,2,06,28,43,287,47,33,59,304,47,,,,,,,,*66
###2023-11-09 13:08:05.746309$GNVTG,249.40,T,,M,5.13,N,9.50,K,A*23
###2023-11-09 13:08:05.830877$GNGGA,130806.00,3611.0445035,N,07544.9913417,W,1,24,0.6,1.168,M,-39.961,M,0.0,*61
###2023-11-09 13:08:05.833494$GPGSV,2,1,07,05,21,090,43,10,18,292,44,13,24,045,41,15,62,037,46*72
###2023-11-09 13:08:05.835766$GPGSV,2,2,07,18,77,281,46,23,50,315,46,24,49,136,46,,,,*42
###2023-11-09 13:08:05.838365$GLGSV,2,1,05,70,50,017,37,71,48,290,49,80,18,090,45,85,58,203,48*6B
###2023-11-09 13:08:05.839977$GLGSV,2,2,05,86,52,309,48,,,,,,,,,,,,*5F
###2023-11-09 13:08:05.842567$GAGSV,1,1,04,07,72,258,44,08,49,042,45,13,64,160,45,26,56,310,45*61
###2023-11-09 13:08:05.845171$GBGSV,2,1,06,11,23,180,41,14,65,008,45,24,20,132,44,26,23,081,44*64
###2023-11-09 13:08:05.847143$GBGSV,2,2,06,28,43,287,47,33,59,304,47,,,,,,,,*66
###2023-11-09 13:08:05.848613$GNVTG,247.15,T,,M,5.21,N,9.65,K,A*2A
###2023-11-09 13:08:05.935989$GNGGA,130806.10,3611.0444436,N,07544.9915021,W,1,24,0.6,1.174,M,-39.961,M,0.0,*6C
###2023-11-09 13:08:05.938610$GPGSV,2,1,07,05,21,090,43,10,18,292,44,13,24,045,42,15,62,037,46*71
###2023-11-09 13:08:05.940872$GPGSV,2,2,07,18,77,281,46,23,50,315,46,24,49,136,46,,,,*42
###2023-11-09 13:08:05.943455$GLGSV,2,1,05,70,50,017,37,71,48,290,49,80,18,090,45,85,58,203,48*6B
###2023-11-09 13:08:05.945071$GLGSV,2,2,05,86,52,309,48,,,,,,,,,,,,*5F
###2023-11-09 13:08:05.947943$GAGSV,1,1,04,07,72,258,44,08,49,042,45,13,64,160,45,26,56,310,45*61
###2023-11-09 13:08:05.950528$GBGSV,2,1,06,11,23,180,41,14,65,008,45,24,20,132,44,26,23,081,44*64
###2023-11-09 13:08:05.952472$GBGSV,2,2,06,28,43,287,47,33,59,304,48,,,,,,,,*69
###2023-11-09 13:08:05.953940$GNVTG,244.22,T,,M,5.11,N,9.47,K,A*2E
###2023-11-09 13:08:06.032097$GNGGA,130806.20,3611.0443788,N,07544.9916579,W,1,24,0.6,1.169,M,-39.961,M,0.0,*69
###2023-11-09 13:08:06.034673$GPGSV,2,1,07,05,21,090,43,10,18,292,44,13,24,045,42,15,62,037,46*71
###2023-11-09 13:08:06.036947$GPGSV,2,2,07,18,77,281,46,23,50,315,46,24,49,136,46,,,,*42
###2023-11-09 13:08:06.039515$GLGSV,2,1,05,70,50,017,37,71,48,290,49,80,18,090,45,85,58,203,48*6B
###2023-11-09 13:08:06.041119$GLGSV,2,2,05,86,52,309,48,,,,,,,,,,,,*5F
###2023-11-09 13:08:06.043677$GAGSV,1,1,04,07,72,258,44,08,49,042,45,13,64,160,45,26,56,310,45*61
