###2023-11-09 13:10:24.245940$GBGSV,2,1,06,11,22,180,40,14,65,009,45,24,21,132,44,26,23,080,44*65
###2023-11-09 13:10:24.247945$GBGSV,2,2,06,28,43,286,47,33,59,305,47,,,,,,,,*66
###2023-11-09 13:10:24.249384$GNVTG,30.24,T,,M,3.87,N,7.16,K,A*1A
###2023-11-09 13:10:24.331375$GNGGA,131024.50,3611.0535805,N,07544.8691849,W,1,24,0.6,0.586,M,-39.960,M,0.0,*67
###2023-11-09 13:10:24.333972$GPGSV,2,1,07,05,20,091,43,10,19,294,43,13,23,045,42,15,61,037,46*75
###2023-11-09 13:10:24.336220$GPGSV,2,2,07,18,78,277,46,23,50,316,45,24,50,134,46,,,,*4E
###2023-11-09 13:10:24.338803$GLGSV,2,1,05,70,49,019,35,71,48,291,49,80,19,089,45,85,56,202,49*69
###2023-11-09 13:10:24.340421$GLGSV,2,2,05,86,54,306,47,,,,,,,,,,,,*59
###2023-11-09 13:10:24.342982$GAGSV,1,1,04,07,73,259,45,08,48,043,44,13,63,161,45,26,57,310,45*66
###2023-11-09 13:10:24.345550$GBGSV,2,1,06,11,22,180,41,14,65,009,45,24,21,132,45,26,23,080,44*65
###2023-11-09 13:10:24.347524$GBGSV,2,2,06,28,43,286,46,33,59,305,47,,,,,,,,*67
###2023-11-09 13:10:24.348955$GNVTG,29.83,T,,M,3.81,N,7.06,K,A*18
###2023-11-09 13:10:24.431396$GNGGA,131024.60,3611.0536726,N,07544.8691208,W,1,24,0.6,0.575,M,-39.960,M,0.0,*6A
###2023-11-09 13:10:24.434008$GPGSV,2,1,07,05,20,091,43,10,19,294,42,13,23,045,42,15,61,037,46*74
###2023-11-09 13:10:24.436265$GPGSV,2,2,07,18,78,277,46,23,50,316,45,24,50,134,46,,,,*4E
###2023-11-09 13:10:24.438879$GLGSV,2,1,05,70,49,019,35,71,48,291,48,80,19,089,44,85,56,202,49*69
###2023-11-09 13:10:24.440497$GLGSV,2,2,05,86,54,306,47,,,,,,,,,,,,*59
###2023-11-09 13:10:24.443064$GAGSV,1,1,04,07,73,259,45,08,48,043,44,13,63,161,45,26,57,310,44*67
###2023-11-09 13:10:24.445634$GBGSV,2,1,06,11,22,180,41,14,65,009,45,24,21,132,45,26,23,080,44*65
###2023-11-09 13:10:24.447588$GBGSV,2,2,06,28,43,286,46,33,59,305,47,,,,,,,,*67
###2023-11-09 13:10:24.449017$GNVTG,28.99,T,,M,3.85,N,7.13,K,A*12
###2023-11-09 13:10:24.531246$GNGGA,131024.70,3611.0537654,N,07544.8690605,W,1,24,0.6,0.554,M,-39.960,M,0.0,*65
###2023-11-09 13:10:24.533841$GPGSV,2,1,07,05,20,091,43,10,19,294,42,13,23,045,42,15,61,037,46*74
###2023-11-09 13:10:24.536097$GPGSV,2,2,07,18,78,277,46,23,50,316,45,24,50,134,46,,,,*4E
###2023-11-09 13:10:24.538694$GLGSV,2,1,05,70,49,019,35,71,48,291,48,80,19,089,45,85,56,202,49*68
###2023-11-09 13:10:24.540299$GLGSV,2,2,05,86,54,306,47,,,,,,,,,,,,*59
###2023-11-09 13:10:24.542858$GAGSV,1,1,04,07,73,259,45,08,48,043,44,13,63,161,45,26,57,310,44*67
###2023-11-09 13:10:24.545429$GBGSV,2,1,06,11,22,180,41,14,65,009,45,24,21,132,45,26,23,080,44*65
###2023-11-09 13:10:24.547377$GBGSV,2,2,06,28,43,286,46,33,59,305,47,,,,,,,,*67
###2023-11-09 13:10:24.548815$GNVTG,26.93,T,,M,3.75,N,6.95,K,A*16
###2023-11-09 13:10:24.630338$GNGGA,131024.80,3611.0538578,N,07544.8690049,W,1,24,0.6,0.532,M,-39.960,M,0.0,*66
###2023-11-09 13:10:24.632921$GPGSV,2,1,07,05,20,091,43,10,19,294,42,13,23,045,42,15,61,037,46*74
###2023-11-09 13:10:24.635169$GPGSV,2,2,07,18,78,277,46,23,50,316,45,24,50,134,46,,,,*4E
###2023-11-09 13:10:24.637748$GLGSV,2,1,05,70,49,019,35,71,48,291,48,80,19,089,46,85,56,202,49*6B
###2023-11-09 13:10:24.639344$GLGSV,2,2,05,86,54,306,47,,,,,,,,,,,,*59
###2023-11-09 13:10:24.641905$GAGSV,1,1,04,07,73,259,45,08,48,043,45,13,63,161,45,26,57,310,44*66
###2023-11-09 13:10:24.644474$GBGSV,2,1,06,11,22,180,41,14,65,009,45,24,21,132,46,26,23,080,44*66
###2023-11-09 13:10:24.646406$GBGSV,2,2,06,28,43,286,46,33,59,305,47,,,,,,,,*67
###2023-11-09 13:10:24.647836$GNVTG,25.43,T,,M,3.71,N,6.88,K,A*10
###2023-11-09 13:10:24.729500$GNGGA,131024.90,3611.0539504,N,07544.8689548,W,1,24,0.6,0.507,M,-39.960,M,0.0,*67
###2023-11-09 13:10:24.732089$GPGSV,2,1,07,05,20,091,44,10,19,294,42,13,23,045,42,15,61,037,46*73
###2023-11-09 13:10:24.734343$GPGSV,2,2,07,18,78,277,46,23,50,316,45,24,50,134,46,,,,*4E
###2023-11-09 13:10:24.736926$GLGSV,2,1,05,70,49,019,35,71,48,291,48,80,19,089,46,85,56,202,49*6B
###2023-11-09 13:10:24.738539$GLGSV,2,2,05,86,54,306,46,,,,,,,,,,,,*58
###2023-11-09 13:10:24.741110$GAGSV,1,1,04,07,73,259,45,08,48,043,45,13,63,161,45,26,57,310,43*61
###2023-11-09 13:10:24.743683$GBGSV,2,1,06,11,22,180,43,14,65,009,45,24,21,132,46,26,23,080,44*64
###2023-11-09 13:10:24.745613$GBGSV,2,2,06,28,43,286,46,33,59,305,46,,,,,,,,*66
###2023-11-09 13:10:24.747054$GNVTG,22.18,T,,M,3.63,N,6.73,K,A*1E
###2023-11-09 13:10:24.834346$GNGGA,131025.00,3611.0540425,N,07544.8689124,W,1,24,0.6,0.485,M,-39.960,M,0.0,*66
###2023-11-09 13:10:24.836950$GPGSV,2,1,07,05,20,091,44,10,19,294,42,13,23,045,42,15,61,037,46*73
###2023-11-09 13:10:24.839194$GPGSV,2,2,07,18,78,277,46,23,50,316,45,24,50,134,46,,,,*4E
###2023-11-09 13:10:24.841773$GLGSV,2,1,05,70,49,019,35,71,48,291,48,80,19,089,46,85,56,202,48*6A
###2023-11-09 13:10:24.843397$GLGSV,2,2,05,86,54,306,46,,,,,,,,,,,,*58
###2023-11-09 13:10:24.845967$GAGSV,1,1,04,07,73,259,45,08,48,043,45,13,63,161,45,26,57,310,43*61
###2023-11-09 13:10:24.848594$GBGSV,2,1,06,11,22,180,43,14,65,009,45,24,21,132,46,26,23,080,44*64
###2023-11-09 13:10:24.850539$GBGSV,2,2,06,28,43,286,46,33,59,305,46,,,,,,,,*66
###2023-11-09 13:10:24.851971$GNVTG,18.79,T,,M,3.52,N,6.52,K,A*11
###2023-11-09 13:10:24.932234$GNGGA,131025.10,3611.0541330,N,07544.8688741,W,1,24,0.6,0.470,M,-39.960,M,0.0,*6B
###2023-11-09 13:10:24.934814$GPGSV,2,1,07,05,20,091,44,10,19,294,42,13,23,045,42,15,61,037,45*70
###2023-11-09 13:10:24.937077$GPGSV,2,2,07,18,78,277,46,23,50,316,45,24,50,134,46,,,,*4E
###2023-11-09 13:10:24.939635$GLGSV,2,1,05,70,49,019,35,71,48,291,48,80,19,089,46,85,56,202,48*6A
###2023-11-09 13:10:24.941230$GLGSV,2,2,05,86,54,306,46,,,,,,,,,,,,*58
###2023-11-09 13:10:24.943788$GAGSV,1,1,04,07,73,259,45,08,48,043,45,13,63,161,45,26,57,310,43*61
###2023-11-09 13:10:24.946351$GBGSV,2,1,06,11,22,180,43,14,65,009,45,24,21,132,46,26,23,080,44*64
###2023-11-09 13:10:24.948290$GBGSV,2,2,06,28,43,286,46,33,59,305,46,,,,,,,,*66
###2023-11-09 13:10:24.949710$GNVTG,19.39,T,,M,3.44,N,6.37,K,A*10
###2023-11-09 13:10:25.033482$GNGGA,131025.20,3611.0542249,N,07544.8688363,W,1,24,0.6,0.461,M,-39.960,M,0.0,*60
###2023-11-09 13:10:25.036086$GPGSV,2,1,07,05,20,091,44,10,19,294,43,13,23,045,42,15,61,037,45*71
###2023-11-09 13:10:25.038363$GPGSV,2,2,07,18,78,277,46,23,50,316,45,24,50,134,46,,,,*4E
###2023-11-09 13:10:25.040940$GLGSV,2,1,05,70,49,019,35,71,48,291,48,80,19,089,46,85,56,202,48*6A
###2023-11-09 13:10:25.042553$GLGSV,2,2,05,86,54,306,46,,,,,,,,,,,,*58
###2023-11-09 13:10:25.045129$GAGSV,1,1,04,07,73,259,45,08,48,043,45,13,63,161,45,26,57,310,43*61
###2023-11-09 13:10:25.047727$GBGSV,2,1,06,11,22,180,43,14,65,009,46,24,21,132,46,26,23,080,44*67
###2023-11-09 13:10:25.049658$GBGSV,2,2,06,28,43,286,47,33,59,305,46,,,,,,,,*67
###2023-11-09 13:10:25.051089$GNVTG,17.64,T,,M,3.60,N,6.66,K,A*14
###2023-11-09 13:10:25.131368$GNGGA,131025.30,3611.0543198,N,07544.8688008,W,1,24,0.6,0.455,M,-39.960,M,0.0,*66
###2023-11-09 13:10:25.133959$GPGSV,2,1,07,05,20,091,44,10,19,294,43,13,23,045,40,15,61,037,45*73
###2023-11-09 13:10:25.136208$GPGSV,2,2,07,18,78,277,46,23,50,316,45,24,50,134,46,,,,*4E
###2023-11-09 13:10:25.138799$GLGSV,2,1,05,70,49,019,35,71,48,291,48,80,19,089,46,85,56,202,48*6A
###2023-11-09 13:10:25.140408$GLGSV,2,2,05,86,54,306,46,,,,,,,,,,,,*58
###2023-11-09 13:10:25.142968$GAGSV,1,1,04,07,73,259,45,08,48,043,45,13,63,161,45,26,57,310,44*66
###2023-11-09 13:10:25.145548$GBGSV,2,1,06,11,22,180,42,14,65,009,46,24,21,132,45,26,23,080,44*65
###2023-11-09 13:10:25.147500$GBGSV,2,2,06,28,43,286,47,33,59,305,47,,,,,,,,*66
###2023-11-09 13:10:25.148922$GNVTG,16.41,T,,M,3.60,N,6.66,K,A*12
###2023-11-09 13:10:25.231465$GNGGA,131025.40,3611.0544158,N,07544.8687667,W,1,24,0.6,0.452,M,-39.960,M,0.0,*6D
###2023-11-09 13:10:25.234028$GPGSV,2,1,07,05,20,091,43,10,19,294,43,13,23,045,40,15,61,037,45*74
###2023-11-09 13:10:25.236264$GPGSV,2,2,07,18,78,277,46,23,50,316,45,24,50,134,46,,,,*4E
###2023-11-09 13:10:25.238833$GLGSV,2,1,05,70,49,019,36,71,48,291,48,80,19,089,45,85,56,202,48*6A
###2023-11-09 13:10:25.240434$GLGSV,2,2,05,86,54,306,46,,,,,,,,,,,,*58
###2023-11-09 13:10:25.242992$GAGSV,1,1,04,07,73,259,45,08,48,043,45,13,63,161,45,26,57,310,44*66
###2023-11-09 13:10:25.245551$GBGSV,2,1,06,11,22,180,42,14,65,009,46,24,21,132,45,26,23,080,44*65
###2023-11-09 13:10:25.247783$GBGSV,2,2,06,28,43,286,47,33,59,305,47,,,,,,,,*66
###2023-11-09 13:10:25.249207$GNVTG,15.93,T,,M,3.63,N,6.73,K,A*19
###2023-11-09 13:10:25.330475$GNGGA,131025.50,3611.0545126,N,07544.8687356,W,1,24,0.6,0.455,M,-39.960,M,0.0,*64
###2023-11-09 13:10:25.333060$GPGSV,2,1,07,05,20,091,43,10,19,294,43,13,23,045,42,15,61,037,45*76
###2023-11-09 13:10:25.335310$GPGSV,2,2,07,18,78,277,46,23,50,316,45,24,50,134,46,,,,*4E
###2023-11-09 13:10:25.337894$GLGSV,2,1,05,70,49,019,36,71,48,291,48,80,19,089,45,85,56,202,47*65
###2023-11-09 13:10:25.339513$GLGSV,2,2,05,86,54,306,47,,,,,,,,,,,,*59
###2023-11-09 13:10:25.342079$GAGSV,1,1,04,07,73,259,45,08,48,043,45,13,63,161,45,26,57,310,44*66
###2023-11-09 13:10:25.344669$GBGSV,2,1,06,11,22,180,42,14,65,009,46,24,21,132,45,26,23,080,44*65
