###2023-11-09 13:08:00.530934$GPGSV,2,1,07,05,21,090,42,10,18,292,43,13,24,045,42,15,62,037,46*77
###2023-11-09 13:08:00.533210$GPGSV,2,2,07,18,77,281,46,23,50,315,45,24,49,136,46,,,,*41
###2023-11-09 13:08:00.535789$GLGSV,2,1,05,70,50,017,36,71,48,290,48,80,17,091,45,85,58,203,48*65
###2023-11-09 13:08:00.537432$GLGSV,2,2,05,86,52,309,47,,,,,,,,,,,,*50
###2023-11-09 13:08:00.540010$GAGSV,1,1,04,07,72,258,44,08,49,042,45,13,64,160,45,26,56,310,44*60
###2023-11-09 13:08:00.542586$GBGSV,2,1,06,11,23,180,40,14,65,008,46,24,20,132,43,26,23,081,44*61
###2023-11-09 13:08:00.544517$GBGSV,2,2,06,28,43,287,47,33,59,304,46,,,,,,,,*67
###2023-11-09 13:08:00.545977$GNVTG,253.09,T,,M,3.62,N,6.70,K,A*28
###2023-11-09 13:08:00.628011$GNGGA,130800.80,3611.0455429,N,07544.9834652,W,1,24,0.6,0.946,M,-39.961,M,0.0,*65
###2023-11-09 13:08:00.630610$GPGSV,2,1,07,05,21,090,42,10,18,292,43,13,24,045,43,15,62,037,46*76
###2023-11-09 13:08:00.632866$GPGSV,2,2,07,18,77,281,46,23,50,315,46,24,49,136,45,,,,*41
###2023-11-09 13:08:00.635442$GLGSV,2,1,05,70,50,017,36,71,48,290,48,80,17,091,44,85,58,203,48*64
###2023-11-09 13:08:00.637063$GLGSV,2,2,05,86,52,309,47,,,,,,,,,,,,*50
###2023-11-09 13:08:00.639633$GAGSV,1,1,04,07,72,258,44,08,49,042,45,13,64,160,45,26,56,310,44*60
###2023-11-09 13:08:00.642208$GBGSV,2,1,06,11,23,180,40,14,65,008,46,24,20,132,43,26,23,081,44*61
###2023-11-09 13:08:00.644140$GBGSV,2,2,06,28,43,287,47,33,59,304,46,,,,,,,,*67
###2023-11-09 13:08:00.645603$GNVTG,258.31,T,,M,3.65,N,6.77,K,A*28
###2023-11-09 13:08:00.728400$GNGGA,130800.90,3611.0455203,N,07544.9835857,W,1,24,0.6,0.929,M,-39.961,M,0.0,*69
###2023-11-09 13:08:00.730999$GPGSV,2,1,07,05,21,090,42,10,18,292,43,13,24,045,43,15,62,037,46*76
###2023-11-09 13:08:00.733263$GPGSV,2,2,07,18,77,281,46,23,50,315,45,24,49,136,45,,,,*42
###2023-11-09 13:08:00.735846$GLGSV,2,1,05,70,50,017,36,71,48,290,48,80,17,091,44,85,58,203,47*6B
###2023-11-09 13:08:00.737470$GLGSV,2,2,05,86,52,309,48,,,,,,,,,,,,*5F
###2023-11-09 13:08:00.740047$GAGSV,1,1,04,07,72,258,44,08,49,042,45,13,64,160,45,26,56,310,44*60
###2023-11-09 13:08:00.742631$GBGSV,2,1,06,11,23,180,40,14,65,008,46,24,20,132,43,26,23,081,44*61
###2023-11-09 13:08:00.744565$GBGSV,2,2,06,28,43,287,47,33,59,304,47,,,,,,,,*66
###2023-11-09 13:08:00.746031$GNVTG,256.34,T,,M,3.63,N,6.73,K,A*21
###2023-11-09 13:08:00.832006$GNGGA,130801.00,3611.0454926,N,07544.9837022,W,1,24,0.6,0.918,M,-39.961,M,0.0,*66
###2023-11-09 13:08:00.834621$GPGSV,2,1,07,05,21,090,41,10,18,292,44,13,24,045,43,15,62,037,46*72
###2023-11-09 13:08:00.836877$GPGSV,2,2,07,18,77,281,46,23,50,315,46,24,49,136,44,,,,*40
###2023-11-09 13:08:00.839496$GLGSV,2,1,05,70,50,017,36,71,48,290,49,80,17,091,44,85,58,203,47*6A
###2023-11-09 13:08:00.841112$GLGSV,2,2,05,86,52,309,48,,,,,,,,,,,,*5F
###2023-11-09 13:08:00.843697$GAGSV,1,1,04,07,72,258,44,08,49,042,45,13,64,160,45,26,56,310,44*60
###2023-11-09 13:08:00.846295$GBGSV,2,1,06,11,23,180,40,14,65,008,46,24,20,132,42,26,23,081,44*60
###2023-11-09 13:08:00.848265$GBGSV,2,2,06,28,43,287,47,33,59,304,47,,,,,,,,*66
###2023-11-09 13:08:00.849735$GNVTG,251.58,T,,M,3.50,N,6.48,K,A*24
###2023-11-09 13:08:00.929625$GNGGA,130801.10,3611.0454640,N,07544.9838176,W,1,24,0.6,0.911,M,-39.961,M,0.0,*6E
###2023-11-09 13:08:00.932204$GPGSV,2,1,07,05,21,090,43,10,18,292,44,13,24,045,43,15,62,037,46*70
###2023-11-09 13:08:00.934454$GPGSV,2,2,07,18,77,281,46,23,50,315,46,24,49,136,44,,,,*40
###2023-11-09 13:08:00.937036$GLGSV,2,1,05,70,50,017,36,71,48,290,49,80,17,091,45,85,58,203,47*6B
###2023-11-09 13:08:00.938639$GLGSV,2,2,05,86,52,309,48,,,,,,,,,,,,*5F
###2023-11-09 13:08:00.941197$GAGSV,1,1,04,07,72,258,44,08,49,042,45,13,64,160,45,26,56,310,44*60
###2023-11-09 13:08:00.943771$GBGSV,2,1,06,11,23,180,40,14,65,008,46,24,20,132,42,26,23,081,44*60
###2023-11-09 13:08:00.945697$GBGSV,2,2,06,28,43,287,47,33,59,304,47,,,,,,,,*66
###2023-11-09 13:08:00.947167$GNVTG,254.95,T,,M,3.56,N,6.59,K,A*26
###2023-11-09 13:08:01.030877$GNGGA,130801.20,3611.0454407,N,07544.9839361,W,1,24,0.6,0.928,M,-39.961,M,0.0,*63
###2023-11-09 13:08:01.033478$GPGSV,2,1,07,05,21,090,43,10,18,292,44,13,24,045,43,15,62,037,46*70
###2023-11-09 13:08:01.035732$GPGSV,2,2,07,18,77,281,46,23,50,315,46,24,49,136,45,,,,*41
###2023-11-09 13:08:01.038331$GLGSV,2,1,05,70,50,017,36,71,48,290,49,80,17,091,45,85,58,203,47*6B
###2023-11-09 13:08:01.039950$GLGSV,2,2,05,86,52,309,48,,,,,,,,,,,,*5F
###2023-11-09 13:08:01.042519$GAGSV,1,1,04,07,72,258,44,08,49,042,45,13,64,160,45,26,56,310,44*60
###2023-11-09 13:08:01.045093$GBGSV,2,1,06,11,23,180,40,14,65,008,46,24,20,132,42,26,23,081,44*60
###2023-11-09 13:08:01.047043$GBGSV,2,2,06,28,43,287,47,33,59,304,47,,,,,,,,*66
###2023-11-09 13:08:01.048513$GNVTG,258.27,T,,M,3.62,N,6.70,K,A*2F
###2023-11-09 13:08:01.132127$GNGGA,130801.30,3611.0454187,N,07544.9840558,W,1,24,0.6,0.956,M,-39.961,M,0.0,*64
###2023-11-09 13:08:01.134722$GPGSV,2,1,07,05,21,090,43,10,18,292,44,13,24,045,43,15,62,037,46*70
###2023-11-09 13:08:01.136997$GPGSV,2,2,07,18,77,281,46,23,50,315,46,24,49,136,45,,,,*41
###2023-11-09 13:08:01.139573$GLGSV,2,1,05,70,50,017,36,71,48,290,49,80,17,091,45,85,58,203,47*6B
###2023-11-09 13:08:01.141186$GLGSV,2,2,05,86,52,309,48,,,,,,,,,,,,*5F
###2023-11-09 13:08:01.143754$GAGSV,1,1,04,07,72,258,44,08,49,042,45,13,64,160,45,26,56,310,44*60
###2023-11-09 13:08:01.146344$GBGSV,2,1,06,11,23,180,40,14,65,008,46,24,20,132,42,26,23,081,44*60
###2023-11-09 13:08:01.148295$GBGSV,2,2,06,28,43,287,46,33,59,304,47,,,,,,,,*67
###2023-11-09 13:08:01.149766$GNVTG,256.63,T,,M,3.60,N,6.66,K,A*24
###2023-11-09 13:08:01.228001$GNGGA,130801.40,3611.0453963,N,07544.9841778,W,1,24,0.6,0.980,M,-39.961,M,0.0,*6C
###2023-11-09 13:08:01.230569$GPGSV,2,1,07,05,21,090,43,10,18,292,44,13,24,045,43,15,62,037,46*70
###2023-11-09 13:08:01.232805$GPGSV,2,2,07,18,77,281,46,23,50,315,46,24,49,136,45,,,,*41
###2023-11-09 13:08:01.235360$GLGSV,2,1,05,70,50,017,36,71,48,290,48,80,17,091,45,85,58,203,47*6A
###2023-11-09 13:08:01.236976$GLGSV,2,2,05,86,52,309,48,,,,,,,,,,,,*5F
###2023-11-09 13:08:01.239525$GAGSV,1,1,04,07,72,258,44,08,49,042,45,13,64,160,45,26,56,310,44*60
###2023-11-09 13:08:01.242096$GBGSV,2,1,06,11,23,180,40,14,65,008,46,24,20,132,42,26,23,081,43*67
###2023-11-09 13:08:01.244019$GBGSV,2,2,06,28,43,287,46,33,59,304,47,,,,,,,,*67
###2023-11-09 13:08:01.245475$GNVTG,258.22,T,,M,3.71,N,6.88,K,A*2F
###2023-11-09 13:08:01.327901$GNGGA,130801.50,3611.0453777,N,07544.9843047,W,1,24,0.6,0.996,M,-39.961,M,0.0,*68
###2023-11-09 13:08:01.330507$GPGSV,2,1,07,05,21,090,43,10,18,292,43,13,24,045,42,15,62,037,46*76
###2023-11-09 13:08:01.332783$GPGSV,2,2,07,18,77,281,46,23,50,315,46,24,49,136,45,,,,*41
###2023-11-09 13:08:01.335383$GLGSV,2,1,05,70,50,017,36,71,48,290,48,80,17,091,45,85,58,203,47*6A
###2023-11-09 13:08:01.337019$GLGSV,2,2,05,86,52,309,48,,,,,,,,,,,,*5F
###2023-11-09 13:08:01.339612$GAGSV,1,1,04,07,72,258,44,08,49,042,45,13,64,160,45,26,56,310,44*60
###2023-11-09 13:08:01.342195$GBGSV,2,1,06,11,23,180,40,14,65,008,46,24,20,132,43,26,23,081,43*66
###2023-11-09 13:08:01.344128$GBGSV,2,2,06,28,43,287,46,33,59,304,47,,,,,,,,*67
###2023-11-09 13:08:01.345590$GNVTG,261.49,T,,M,3.85,N,7.13,K,A*20
###2023-11-09 13:08:01.428041$GNGGA,130801.60,3611.0453648,N,07544.9844356,W,1,24,0.6,1.004,M,-39.961,M,0.0,*61
###2023-11-09 13:08:01.430640$GPGSV,2,1,07,05,21,090,43,10,18,292,43,13,24,045,42,15,62,037,46*76
###2023-11-09 13:08:01.432900$GPGSV,2,2,07,18,77,281,46,23,50,315,45,24,49,136,45,,,,*42
###2023-11-09 13:08:01.435479$GLGSV,2,1,05,70,50,017,36,71,48,290,48,80,17,091,44,85,58,203,47*6B
###2023-11-09 13:08:01.437103$GLGSV,2,2,05,86,52,309,47,,,,,,,,,,,,*50
###2023-11-09 13:08:01.439682$GAGSV,1,1,04,07,72,258,44,08,49,042,45,13,64,160,45,26,56,310,44*60
###2023-11-09 13:08:01.442268$GBGSV,2,1,06,11,23,180,40,14,65,008,46,24,20,132,43,26,23,081,43*66
###2023-11-09 13:08:01.444198$GBGSV,2,2,06,28,43,287,46,33,59,304,47,,,,,,,,*67
###2023-11-09 13:08:01.445659$GNVTG,264.75,T,,M,3.89,N,7.20,K,A*26
###2023-11-09 13:08:01.527857$GNGGA,130801.70,3611.0453573,N,07544.9845701,W,1,24,0.6,1.004,M,-39.961,M,0.0,*6C
###2023-11-09 13:08:01.530731$GPGSV,2,1,07,05,21,090,43,10,18,292,43,13,24,045,42,15,62,037,46*76
###2023-11-09 13:08:01.532992$GPGSV,2,2,07,18,77,281,46,23,50,315,45,24,49,136,44,,,,*43
###2023-11-09 13:08:01.535556$GLGSV,2,1,05,70,50,017,36,71,48,290,49,80,17,091,44,85,58,203,47*6A
###2023-11-09 13:08:01.537179$GLGSV,2,2,05,86,52,309,47,,,,,,,,,,,,*50
###2023-11-09 13:08:01.539740$GAGSV,1,1,04,07,72,258,44,08,49,042,45,13,64,160,45,26,56,310,44*60
###2023-11-09 13:08:01.542319$GBGSV,2,1,06,11,23,180,40,14,65,008,46,24,20,132,43,26,23,081,44*61
###2023-11-09 13:08:01.544248$GBGSV,2,2,06,28,43,287,46,33,59,304,47,,,,,,,,*67
###2023-11-09 13:08:01.545712$GNVTG,267.40,T,,M,4.02,N,7.45,K,A*24
###2023-11-09 13:08:01.626878$GNGGA,130801.80,3611.0453546,N,07544.9847082,W,1,24,0.6,1.004,M,-39.961,M,0.0,*6B
###2023-11-09 13:08:01.629495$GPGSV,2,1,07,05,21,090,43,10,18,292,43,13,24,045,42,15,62,037,46*76
