###2023-11-09 13:08:52.737441$GLGSV,2,1,05,70,50,017,35,71,48,290,48,80,18,090,43,85,57,203,48*61
###2023-11-09 13:08:52.739082$GLGSV,2,2,05,86,53,308,47,,,,,,,,,,,,*50
###2023-11-09 13:08:52.741666$GAGSV,1,1,04,07,72,258,45,08,48,043,45,13,64,160,45,26,57,310,45*61
###2023-11-09 13:08:52.744266$GBGSV,2,1,06,11,23,180,41,14,65,008,45,24,20,132,43,26,23,081,41*66
###2023-11-09 13:08:52.746218$GBGSV,2,2,06,28,43,287,47,33,59,304,47,,,,,,,,*66
###2023-11-09 13:08:52.747714$GNVTG,76.70,T,,M,6.26,N,11.59,K,A*2B
###2023-11-09 13:08:52.831739$GNGGA,130853.00,3611.0194025,N,07544.9916138,W,1,24,0.6,0.575,M,-39.962,M,0.0,*6E
###2023-11-09 13:08:52.834356$GPGSV,2,1,07,05,20,090,43,10,19,293,45,13,24,045,40,15,61,037,45*73
###2023-11-09 13:08:52.836625$GPGSV,2,2,07,18,78,277,47,23,50,316,45,24,50,135,45,,,,*4D
###2023-11-09 13:08:52.839237$GLGSV,2,1,05,70,50,017,35,71,48,290,48,80,18,090,44,85,57,203,49*67
###2023-11-09 13:08:52.840851$GLGSV,2,2,05,86,53,308,47,,,,,,,,,,,,*50
###2023-11-09 13:08:52.843414$GAGSV,1,1,04,07,72,258,45,08,48,043,45,13,64,160,45,26,57,310,45*61
###2023-11-09 13:08:52.845992$GBGSV,2,1,06,11,23,180,42,14,65,008,45,24,20,132,44,26,23,081,42*61
###2023-11-09 13:08:52.847939$GBGSV,2,2,06,28,43,287,47,33,59,304,47,,,,,,,,*66
###2023-11-09 13:08:52.849407$GNVTG,74.99,T,,M,6.26,N,11.59,K,A*2E
###2023-11-09 13:08:52.931029$GNGGA,130853.10,3611.0194526,N,07544.9914109,W,1,24,0.6,0.579,M,-39.962,M,0.0,*65
###2023-11-09 13:08:52.933632$GPGSV,2,1,07,05,20,090,43,10,19,293,44,13,24,045,40,15,61,037,45*72
###2023-11-09 13:08:52.935883$GPGSV,2,2,07,18,78,277,47,23,50,316,45,24,50,135,45,,,,*4D
###2023-11-09 13:08:52.938485$GLGSV,2,1,05,70,50,017,35,71,48,290,48,80,18,090,44,85,57,203,50*6F
###2023-11-09 13:08:52.940100$GLGSV,2,2,05,86,53,308,47,,,,,,,,,,,,*50
###2023-11-09 13:08:52.942667$GAGSV,1,1,04,07,72,258,45,08,48,043,45,13,64,160,45,26,57,310,44*60
###2023-11-09 13:08:52.945254$GBGSV,2,1,06,11,23,180,43,14,65,008,45,24,20,132,45,26,23,081,43*60
###2023-11-09 13:08:52.947199$GBGSV,2,2,06,28,43,287,47,33,59,304,47,,,,,,,,*66
###2023-11-09 13:08:52.948673$GNVTG,71.13,T,,M,6.12,N,11.34,K,A*25
###2023-11-09 13:08:53.034244$GNGGA,130853.20,3611.0195165,N,07544.9912170,W,1,24,0.6,0.606,M,-39.962,M,0.0,*67
###2023-11-09 13:08:53.036831$GPGSV,2,1,07,05,20,090,42,10,19,293,44,13,24,045,40,15,61,037,45*73
###2023-11-09 13:08:53.039109$GPGSV,2,2,07,18,78,277,47,23,50,316,45,24,50,135,45,,,,*4D
###2023-11-09 13:08:53.041691$GLGSV,2,1,05,70,50,017,35,71,48,290,47,80,18,090,44,85,57,203,50*60
###2023-11-09 13:08:53.043301$GLGSV,2,2,05,86,53,308,46,,,,,,,,,,,,*51
###2023-11-09 13:08:53.045882$GAGSV,1,1,04,07,72,258,45,08,48,043,44,13,64,160,45,26,57,310,44*61
###2023-11-09 13:08:53.048486$GBGSV,2,1,06,11,23,180,43,14,65,008,45,24,20,132,45,26,23,081,43*60
###2023-11-09 13:08:53.050414$GBGSV,2,2,06,28,43,287,47,33,59,304,47,,,,,,,,*66
###2023-11-09 13:08:53.051876$GNVTG,64.56,T,,M,6.08,N,11.27,K,A*29
###2023-11-09 13:08:53.129630$GNGGA,130853.30,3611.0195932,N,07544.9910313,W,1,24,0.6,0.641,M,-39.962,M,0.0,*6A
###2023-11-09 13:08:53.132201$GPGSV,2,1,07,05,20,090,43,10,19,293,44,13,24,045,40,15,61,037,45*72
###2023-11-09 13:08:53.134438$GPGSV,2,2,07,18,78,277,47,23,50,316,45,24,50,135,45,,,,*4D
###2023-11-09 13:08:53.137000$GLGSV,2,1,05,70,50,017,35,71,48,290,47,80,18,090,44,85,57,203,49*68
###2023-11-09 13:08:53.138598$GLGSV,2,2,05,86,53,308,47,,,,,,,,,,,,*50
###2023-11-09 13:08:53.141143$GAGSV,1,1,04,07,72,258,45,08,48,043,44,13,64,160,45,26,57,310,44*61
###2023-11-09 13:08:53.143691$GBGSV,2,1,06,11,23,180,43,14,65,008,45,24,20,132,45,26,23,081,43*60
###2023-11-09 13:08:53.145607$GBGSV,2,2,06,28,43,287,47,33,59,304,47,,,,,,,,*66
###2023-11-09 13:08:53.147071$GNVTG,61.35,T,,M,6.05,N,11.20,K,A*23
###2023-11-09 13:08:53.229628$GNGGA,130853.40,3611.0196719,N,07544.9908471,W,1,24,0.6,0.672,M,-39.962,M,0.0,*63
###2023-11-09 13:08:53.232228$GPGSV,2,1,07,05,20,090,42,10,19,293,44,13,24,045,42,15,61,037,45*71
###2023-11-09 13:08:53.234486$GPGSV,2,2,07,18,78,277,47,23,50,316,46,24,50,135,45,,,,*4E
###2023-11-09 13:08:53.237069$GLGSV,2,1,05,70,50,017,35,71,48,290,47,80,18,090,44,85,57,203,49*68
###2023-11-09 13:08:53.238683$GLGSV,2,2,05,86,53,308,48,,,,,,,,,,,,*5F
###2023-11-09 13:08:53.241247$GAGSV,1,1,04,07,72,258,45,08,48,043,44,13,64,160,45,26,57,310,46*63
###2023-11-09 13:08:53.243827$GBGSV,2,1,06,11,23,180,42,14,65,008,44,24,20,132,43,26,23,081,41*64
###2023-11-09 13:08:53.245759$GBGSV,2,2,06,28,43,287,48,33,59,304,48,,,,,,,,*66
###2023-11-09 13:08:53.247241$GNVTG,62.97,T,,M,6.06,N,11.23,K,A*28
###2023-11-09 13:08:53.330627$GNGGA,130853.50,3611.0197438,N,07544.9906603,W,1,24,0.6,0.686,M,-39.962,M,0.0,*61
###2023-11-09 13:08:53.333219$GPGSV,2,1,07,05,20,090,42,10,19,293,44,13,24,045,42,15,61,037,46*72
###2023-11-09 13:08:53.335473$GPGSV,2,2,07,18,78,277,47,23,50,316,46,24,50,135,45,,,,*4E
###2023-11-09 13:08:53.338061$GLGSV,2,1,05,70,50,017,35,71,48,290,48,80,18,090,44,85,57,203,48*66
###2023-11-09 13:08:53.339663$GLGSV,2,2,05,86,53,308,48,,,,,,,,,,,,*5F
###2023-11-09 13:08:53.342216$GAGSV,1,1,04,07,72,258,45,08,48,043,44,13,64,160,45,26,57,310,46*63
###2023-11-09 13:08:53.344791$GBGSV,2,1,06,11,23,180,41,14,65,008,44,24,20,132,43,26,23,081,41*67
###2023-11-09 13:08:53.346713$GBGSV,2,2,06,28,43,287,47,33,59,304,48,,,,,,,,*69
###2023-11-09 13:08:53.348186$GNVTG,66.11,T,,M,5.99,N,11.09,K,A*2F
###2023-11-09 13:08:53.429644$GNGGA,130853.60,3611.0198046,N,07544.9904691,W,1,24,0.6,0.695,M,-39.962,M,0.0,*6B
###2023-11-09 13:08:53.432226$GPGSV,2,1,07,05,20,090,42,10,19,293,44,13,24,045,42,15,61,037,46*72
###2023-11-09 13:08:53.434480$GPGSV,2,2,07,18,78,277,47,23,50,316,46,24,50,135,45,,,,*4E
###2023-11-09 13:08:53.437063$GLGSV,2,1,05,70,50,017,35,71,48,290,48,80,18,090,44,85,57,203,49*67
###2023-11-09 13:08:53.438667$GLGSV,2,2,05,86,53,308,48,,,,,,,,,,,,*5F
###2023-11-09 13:08:53.441235$GAGSV,1,1,04,07,72,258,45,08,48,043,44,13,64,160,45,26,57,310,46*63
###2023-11-09 13:08:53.443808$GBGSV,2,1,06,11,23,180,41,14,65,008,44,24,20,132,43,26,23,081,41*67
###2023-11-09 13:08:53.445738$GBGSV,2,2,06,28,43,287,48,33,59,304,48,,,,,,,,*66
###2023-11-09 13:08:53.447207$GNVTG,70.84,T,,M,5.99,N,11.09,K,A*24
###2023-11-09 13:08:53.529883$GNGGA,130853.70,3611.0198553,N,07544.9902754,W,1,24,0.6,0.707,M,-39.962,M,0.0,*6F
###2023-11-09 13:08:53.532483$GPGSV,2,1,07,05,20,090,42,10,19,293,44,13,24,045,42,15,61,037,46*72
###2023-11-09 13:08:53.534729$GPGSV,2,2,07,18,78,277,47,23,50,316,46,24,50,135,45,,,,*4E
###2023-11-09 13:08:53.537312$GLGSV,2,1,05,70,50,017,35,71,48,290,48,80,18,090,44,85,57,203,49*67
###2023-11-09 13:08:53.538929$GLGSV,2,2,05,86,53,308,48,,,,,,,,,,,,*5F
###2023-11-09 13:08:53.541509$GAGSV,1,1,04,07,72,258,45,08,48,043,44,13,64,160,45,26,57,310,46*63
###2023-11-09 13:08:53.544099$GBGSV,2,1,06,11,23,180,42,14,65,008,45,24,20,132,44,26,23,081,42*61
###2023-11-09 13:08:53.546043$GBGSV,2,2,06,28,43,287,47,33,59,304,48,,,,,,,,*69
###2023-11-09 13:08:53.547532$GNVTG,73.17,T,,M,5.85,N,10.84,K,A*24
###2023-11-09 13:08:53.629620$GNGGA,130853.80,3611.0199022,N,07544.9900844,W,1,24,0.6,0.725,M,-39.962,M,0.0,*6E
###2023-11-09 13:08:53.632211$GPGSV,2,1,07,05,20,090,43,10,19,293,44,13,24,045,42,15,61,037,46*73
###2023-11-09 13:08:53.634457$GPGSV,2,2,07,18,78,277,47,23,50,316,45,24,50,135,45,,,,*4D
###2023-11-09 13:08:53.637045$GLGSV,2,1,05,70,50,017,35,71,48,290,48,80,18,090,45,85,57,203,49*66
###2023-11-09 13:08:53.638649$GLGSV,2,2,05,86,53,308,47,,,,,,,,,,,,*50
###2023-11-09 13:08:53.641228$GAGSV,1,1,04,07,72,258,45,08,48,043,44,13,64,160,45,26,57,310,45*60
###2023-11-09 13:08:53.643795$GBGSV,2,1,06,11,23,180,43,14,65,008,44,24,20,132,45,26,23,081,42*60
###2023-11-09 13:08:53.645732$GBGSV,2,2,06,28,43,287,47,33,59,304,48,,,,,,,,*69
###2023-11-09 13:08:53.647210$GNVTG,73.07,T,,M,5.77,N,10.69,K,A*2B
###2023-11-09 13:08:53.729628$GNGGA,130853.90,3611.0199539,N,07544.9898992,W,1,24,0.6,0.757,M,-39.962,M,0.0,*6F
###2023-11-09 13:08:53.732215$GPGSV,2,1,07,05,20,090,43,10,19,293,43,13,24,045,40,15,61,037,45*75
###2023-11-09 13:08:53.734460$GPGSV,2,2,07,18,78,277,46,23,50,316,45,24,50,135,46,,,,*4F
###2023-11-09 13:08:53.737349$GLGSV,2,1,05,70,50,017,35,71,48,290,47,80,18,090,45,85,57,203,49*69
###2023-11-09 13:08:53.738967$GLGSV,2,2,05,86,53,308,47,,,,,,,,,,,,*50
###2023-11-09 13:08:53.741524$GAGSV,1,1,04,07,72,258,45,08,48,043,44,13,64,160,45,26,57,310,45*60
###2023-11-09 13:08:53.744103$GBGSV,2,1,06,11,23,180,43,14,65,008,44,24,20,132,45,26,23,081,43*61
###2023-11-09 13:08:53.746034$GBGSV,2,2,06,28,43,287,47,33,59,304,47,,,,,,,,*66
###2023-11-09 13:08:53.747511$GNVTG,68.76,T,,M,5.66,N,10.48,K,A*24
###2023-11-09 13:08:53.831759$GNGGA,130854.00,3611.0200151,N,07544.9897252,W,1,24,0.6,0.803,M,-39.962,M,0.0,*6E
###2023-11-09 13:08:53.834368$GPGSV,2,1,07,05,20,090,43,10,19,293,43,13,24,045,40,15,61,037,45*75
###2023-11-09 13:08:53.836628$GPGSV,2,2,07,18,78,277,46,23,50,316,45,24,50,135,46,,,,*4F
###2023-11-09 13:08:53.839236$GLGSV,2,1,05,70,50,017,35,71,48,290,47,80,18,090,45,85,57,203,49*69
