###2023-11-09 13:10:22.041322$GLGSV,2,2,05,86,54,306,48,,,,,,,,,,,,*56
###2023-11-09 13:10:22.043916$GAGSV,1,1,04,07,73,259,46,08,48,043,44,13,63,161,46,26,57,310,45*66
###2023-11-09 13:10:22.046505$GBGSV,2,1,06,11,22,180,43,14,65,009,44,24,21,132,45,26,23,080,43*61
###2023-11-09 13:10:22.048499$GBGSV,2,2,06,28,43,286,47,33,59,305,48,,,,,,,,*69
###2023-11-09 13:10:22.049933$GNVTG,59.30,T,,M,4.43,N,8.21,K,A*14
###2023-11-09 13:10:22.130987$GNGGA,131022.30,3611.0517454,N,07544.8714618,W,1,24,0.6,0.515,M,-39.961,M,0.0,*62
###2023-11-09 13:10:22.133594$GPGSV,2,1,07,05,20,091,43,10,19,294,41,13,24,045,41,15,61,037,45*70
###2023-11-09 13:10:22.135856$GPGSV,2,2,07,18,78,277,46,23,50,316,45,24,50,134,45,,,,*4D
###2023-11-09 13:10:22.138465$GLGSV,2,1,05,70,49,019,36,71,48,291,47,80,19,089,45,85,56,202,49*64
###2023-11-09 13:10:22.140086$GLGSV,2,2,05,86,54,306,48,,,,,,,,,,,,*56
###2023-11-09 13:10:22.142662$GAGSV,1,1,04,07,73,259,46,08,48,043,44,13,63,161,46,26,57,310,45*66
###2023-11-09 13:10:22.145237$GBGSV,2,1,06,11,22,180,43,14,65,009,44,24,21,132,45,26,23,080,43*61
###2023-11-09 13:10:22.147186$GBGSV,2,2,06,28,43,286,47,33,59,305,48,,,,,,,,*69
###2023-11-09 13:10:22.148616$GNVTG,53.71,T,,M,4.41,N,8.17,K,A*1C
###2023-11-09 13:10:22.231336$GNGGA,131022.40,3611.0518188,N,07544.8713397,W,1,24,0.6,0.497,M,-39.961,M,0.0,*60
###2023-11-09 13:10:22.233914$GPGSV,2,1,07,05,20,091,43,10,19,294,41,13,24,045,41,15,61,037,45*70
###2023-11-09 13:10:22.236145$GPGSV,2,2,07,18,78,277,47,23,50,316,45,24,50,134,45,,,,*4C
###2023-11-09 13:10:22.238722$GLGSV,2,1,05,70,49,019,36,71,48,291,47,80,19,089,45,85,56,202,49*64
###2023-11-09 13:10:22.240321$GLGSV,2,2,05,86,54,306,48,,,,,,,,,,,,*56
###2023-11-09 13:10:22.242884$GAGSV,1,1,04,07,73,259,46,08,48,043,44,13,63,161,46,26,57,310,45*66
###2023-11-09 13:10:22.245445$GBGSV,2,1,06,11,22,180,43,14,65,009,44,24,21,132,44,26,23,080,43*60
###2023-11-09 13:10:22.247381$GBGSV,2,2,06,28,43,286,47,33,59,305,48,,,,,,,,*69
###2023-11-09 13:10:22.248804$GNVTG,53.40,T,,M,4.47,N,8.28,K,A*14
###2023-11-09 13:10:22.331378$GNGGA,131022.50,3611.0518915,N,07544.8712158,W,1,24,0.6,0.478,M,-39.961,M,0.0,*6C
###2023-11-09 13:10:22.333971$GPGSV,2,1,07,05,20,091,43,10,19,294,44,13,24,045,41,15,61,037,46*76
###2023-11-09 13:10:22.336238$GPGSV,2,2,07,18,78,277,47,23,50,316,45,24,50,134,45,,,,*4C
###2023-11-09 13:10:22.338868$GLGSV,2,1,05,70,49,019,36,71,48,291,48,80,19,089,45,85,56,202,49*6B
###2023-11-09 13:10:22.340481$GLGSV,2,2,05,86,54,306,48,,,,,,,,,,,,*56
###2023-11-09 13:10:22.343050$GAGSV,1,1,04,07,73,259,45,08,48,043,44,13,63,161,45,26,57,310,45*66
###2023-11-09 13:10:22.345638$GBGSV,2,1,06,11,22,180,43,14,65,009,44,24,21,132,44,26,23,080,43*60
###2023-11-09 13:10:22.347597$GBGSV,2,2,06,28,43,286,47,33,59,305,48,,,,,,,,*69
###2023-11-09 13:10:22.349029$GNVTG,54.90,T,,M,4.45,N,8.24,K,A*10
###2023-11-09 13:10:22.430882$GNGGA,131022.60,3611.0519619,N,07544.8710903,W,1,24,0.6,0.458,M,-39.961,M,0.0,*6B
###2023-11-09 13:10:22.433481$GPGSV,2,1,07,05,20,091,43,10,19,294,44,13,24,045,41,15,61,037,46*76
###2023-11-09 13:10:22.435737$GPGSV,2,2,07,18,78,277,47,23,50,316,46,24,50,134,45,,,,*4F
###2023-11-09 13:10:22.438365$GLGSV,2,1,05,70,49,019,36,71,48,291,48,80,19,089,44,85,56,202,49*6A
###2023-11-09 13:10:22.439973$GLGSV,2,2,05,86,54,306,48,,,,,,,,,,,,*56
###2023-11-09 13:10:22.442543$GAGSV,1,1,04,07,73,259,45,08,48,043,44,13,63,161,45,26,57,310,45*66
###2023-11-09 13:10:22.445122$GBGSV,2,1,06,11,22,180,42,14,65,009,44,24,21,132,44,26,23,080,43*61
###2023-11-09 13:10:22.447070$GBGSV,2,2,06,28,43,286,47,33,59,305,48,,,,,,,,*69
###2023-11-09 13:10:22.448501$GNVTG,55.99,T,,M,4.47,N,8.28,K,A*16
###2023-11-09 13:10:22.530478$GNGGA,131022.70,3611.0520300,N,07544.8709621,W,1,24,0.6,0.448,M,-39.961,M,0.0,*6B
###2023-11-09 13:10:22.533064$GPGSV,2,1,07,05,20,091,41,10,19,294,44,13,24,045,41,15,61,037,46*74
###2023-11-09 13:10:22.535303$GPGSV,2,2,07,18,78,277,47,23,50,316,46,24,50,134,45,,,,*4F
###2023-11-09 13:10:22.537884$GLGSV,2,1,05,70,49,019,36,71,48,291,48,80,19,089,44,85,56,202,49*6A
###2023-11-09 13:10:22.539482$GLGSV,2,2,05,86,54,306,48,,,,,,,,,,,,*56
###2023-11-09 13:10:22.542037$GAGSV,1,1,04,07,73,259,46,08,48,043,44,13,63,161,45,26,57,310,45*65
###2023-11-09 13:10:22.544600$GBGSV,2,1,06,11,22,180,42,14,65,009,44,24,21,132,44,26,23,080,43*61
###2023-11-09 13:10:22.546522$GBGSV,2,2,06,28,43,286,47,33,59,305,48,,,,,,,,*69
###2023-11-09 13:10:22.547951$GNVTG,57.70,T,,M,4.49,N,8.32,K,A*16
###2023-11-09 13:10:22.631511$GNGGA,131022.80,3611.0520977,N,07544.8708301,W,1,24,0.6,0.450,M,-39.961,M,0.0,*61
###2023-11-09 13:10:22.634119$GPGSV,2,1,07,05,20,091,42,10,19,294,43,13,24,045,41,15,61,037,46*70
###2023-11-09 13:10:22.636376$GPGSV,2,2,07,18,78,277,47,23,50,316,46,24,50,134,45,,,,*4F
###2023-11-09 13:10:22.638963$GLGSV,2,1,05,70,49,019,36,71,48,291,48,80,19,089,44,85,56,202,49*6A
###2023-11-09 13:10:22.640565$GLGSV,2,2,05,86,54,306,48,,,,,,,,,,,,*56
###2023-11-09 13:10:22.643130$GAGSV,1,1,04,07,73,259,45,08,48,043,44,13,63,161,45,26,57,310,45*66
###2023-11-09 13:10:22.645698$GBGSV,2,1,06,11,22,180,42,14,65,009,45,24,21,132,44,26,23,080,43*60
###2023-11-09 13:10:22.647651$GBGSV,2,2,06,28,43,286,46,33,59,305,48,,,,,,,,*68
###2023-11-09 13:10:22.649089$GNVTG,57.83,T,,M,4.65,N,8.60,K,A*13
###2023-11-09 13:10:22.731247$GNGGA,131022.90,3611.0521684,N,07544.8706992,W,1,24,0.6,0.449,M,-39.961,M,0.0,*64
###2023-11-09 13:10:22.733832$GPGSV,2,1,07,05,20,091,43,10,19,294,42,13,24,045,41,15,61,037,46*70
###2023-11-09 13:10:22.736085$GPGSV,2,2,07,18,78,277,47,23,50,316,45,24,50,134,45,,,,*4C
###2023-11-09 13:10:22.738680$GLGSV,2,1,05,70,49,019,36,71,48,291,47,80,19,089,45,85,56,202,49*64
###2023-11-09 13:10:22.740290$GLGSV,2,2,05,86,54,306,48,,,,,,,,,,,,*56
###2023-11-09 13:10:22.742858$GAGSV,1,1,04,07,73,259,45,08,48,043,44,13,63,161,46,26,57,310,45*65
###2023-11-09 13:10:22.745440$GBGSV,2,1,06,11,22,180,43,14,65,009,45,24,21,132,44,26,23,080,43*61
###2023-11-09 13:10:22.747391$GBGSV,2,2,06,28,43,286,46,33,59,305,48,,,,,,,,*68
###2023-11-09 13:10:22.748827$GNVTG,55.20,T,,M,4.57,N,8.46,K,A*1D
###2023-11-09 13:10:22.833349$GNGGA,131023.00,3611.0522432,N,07544.8705766,W,1,24,0.6,0.452,M,-39.961,M,0.0,*6C
###2023-11-09 13:10:22.835929$GPGSV,2,1,07,05,20,091,43,10,19,294,42,13,24,045,40,15,61,037,46*71
###2023-11-09 13:10:22.838226$GPGSV,2,2,07,18,78,277,47,23,50,316,44,24,50,134,46,,,,*4E
###2023-11-09 13:10:22.840802$GLGSV,2,1,05,70,49,019,36,71,48,291,47,80,19,089,45,85,56,202,49*64
###2023-11-09 13:10:22.842402$GLGSV,2,2,05,86,54,306,48,,,,,,,,,,,,*56
###2023-11-09 13:10:22.844957$GAGSV,1,1,04,07,73,259,45,08,48,043,44,13,63,161,46,26,57,310,45*65
###2023-11-09 13:10:22.847542$GBGSV,2,1,06,11,22,180,43,14,65,009,45,24,21,132,44,26,23,080,44*66
###2023-11-09 13:10:22.849469$GBGSV,2,2,06,28,43,286,46,33,59,305,47,,,,,,,,*67
###2023-11-09 13:10:22.850890$GNVTG,51.09,T,,M,4.39,N,8.14,K,A*1D
###2023-11-09 13:10:22.930387$GNGGA,131023.10,3611.0523233,N,07544.8704641,W,1,24,0.6,0.461,M,-39.961,M,0.0,*6E
###2023-11-09 13:10:22.932990$GPGSV,2,1,07,05,20,091,43,10,19,294,42,13,24,045,41,15,61,037,46*70
###2023-11-09 13:10:22.935247$GPGSV,2,2,07,18,78,277,47,23,50,316,44,24,50,134,46,,,,*4E
###2023-11-09 13:10:22.937844$GLGSV,2,1,05,70,49,019,36,71,48,291,47,80,19,089,45,85,56,202,49*64
###2023-11-09 13:10:22.939456$GLGSV,2,2,05,86,54,306,48,,,,,,,,,,,,*56
###2023-11-09 13:10:22.942032$GAGSV,1,1,04,07,73,259,45,08,48,043,44,13,63,161,46,26,57,310,45*65
###2023-11-09 13:10:22.944615$GBGSV,2,1,06,11,22,180,43,14,65,009,45,24,21,132,44,26,23,080,44*66
###2023-11-09 13:10:22.946556$GBGSV,2,2,06,28,43,286,46,33,59,305,47,,,,,,,,*67
###2023-11-09 13:10:22.947998$GNVTG,46.72,T,,M,4.37,N,8.10,K,A*1D
###2023-11-09 13:10:23.034364$GNGGA,131023.20,3611.0524079,N,07544.8703581,W,1,24,0.6,0.482,M,-39.961,M,0.0,*63
###2023-11-09 13:10:23.036976$GPGSV,2,1,07,05,20,091,43,10,19,294,43,13,24,045,41,15,61,037,46*71
###2023-11-09 13:10:23.039230$GPGSV,2,2,07,18,78,277,47,23,50,316,45,24,50,134,46,,,,*4F
###2023-11-09 13:10:23.041791$GLGSV,2,1,05,70,49,019,36,71,48,291,48,80,19,089,45,85,56,202,50*63
###2023-11-09 13:10:23.043389$GLGSV,2,2,05,86,54,306,48,,,,,,,,,,,,*56
###2023-11-09 13:10:23.046258$GAGSV,1,1,04,07,73,259,45,08,48,043,44,13,63,161,46,26,57,310,45*65
###2023-11-09 13:10:23.048855$GBGSV,2,1,06,11,22,180,42,14,65,009,45,24,21,132,44,26,23,080,44*67
###2023-11-09 13:10:23.050794$GBGSV,2,2,06,28,43,286,46,33,59,305,47,,,,,,,,*67
###2023-11-09 13:10:23.052227$GNVTG,44.38,T,,M,4.32,N,7.99,K,A*1A
###2023-11-09 13:10:23.131245$GNGGA,131023.30,3611.0524946,N,07544.8702529,W,1,24,0.6,0.504,M,-39.961,M,0.0,*6B
###2023-11-09 13:10:23.133825$GPGSV,2,1,07,05,20,091,42,10,19,294,44,13,24,045,40,15,61,037,46*76
###2023-11-09 13:10:23.136064$GPGSV,2,2,07,18,78,277,47,23,50,316,45,24,50,134,45,,,,*4C
###2023-11-09 13:10:23.138650$GLGSV,2,1,05,70,49,019,36,71,48,291,49,80,19,089,44,85,56,202,49*6B
###2023-11-09 13:10:23.140250$GLGSV,2,2,05,86,54,306,48,,,,,,,,,,,,*56
