###2023-11-09 13:06:26.855603$GNVTG,29.99,T,,M,0.93,N,1.73,K,A*17
###2023-11-09 13:06:26.934365$GNGGA,130627.10,3611.0415338,N,07544.9805323,W,1,24,0.6,0.895,M,-39.961,M,0.0,*6A
###2023-11-09 13:06:26.936987$GPGSV,2,1,07,05,21,090,42,10,18,292,44,13,25,045,41,15,62,036,45*70
###2023-11-09 13:06:26.939257$GPGSV,2,2,07,18,77,282,47,23,49,314,45,24,49,137,45,,,,*48
###2023-11-09 13:06:26.941841$GLGSV,2,1,05,70,50,016,36,71,48,288,48,80,17,091,44,85,58,203,48*6C
###2023-11-09 13:06:26.943457$GLGSV,2,2,05,86,52,309,47,,,,,,,,,,,,*50
###2023-11-09 13:06:26.946027$GAGSV,1,1,04,07,72,255,45,08,49,042,44,13,64,160,44,26,56,311,45*6C
###2023-11-09 13:06:26.948617$GBGSV,2,1,06,11,24,180,41,14,65,006,46,24,19,133,42,26,23,082,41*65
###2023-11-09 13:06:26.950554$GBGSV,2,2,06,28,43,289,47,33,58,302,47,,,,,,,,*6F
###2023-11-09 13:06:26.951980$GNVTG,29.99,T,,M,0.84,N,1.55,K,A*15
###2023-11-09 13:06:27.035098$GNGGA,130627.20,3611.0415523,N,07544.9805178,W,1,24,0.6,0.907,M,-39.961,M,0.0,*63
###2023-11-09 13:06:27.037706$GPGSV,2,1,07,05,21,090,42,10,18,292,43,13,25,045,41,15,62,036,45*77
###2023-11-09 13:06:27.039948$GPGSV,2,2,07,18,77,282,47,23,49,314,45,24,49,137,45,,,,*48
###2023-11-09 13:06:27.042500$GLGSV,2,1,05,70,50,016,36,71,48,288,48,80,17,091,44,85,58,203,48*6C
###2023-11-09 13:06:27.044096$GLGSV,2,2,05,86,52,309,47,,,,,,,,,,,,*50
###2023-11-09 13:06:27.046652$GAGSV,1,1,04,07,72,255,45,08,49,042,44,13,64,160,44,26,56,311,45*6C
###2023-11-09 13:06:27.049230$GBGSV,2,1,06,11,24,180,41,14,65,006,46,24,19,133,42,26,23,082,41*65
###2023-11-09 13:06:27.051175$GBGSV,2,2,06,28,43,289,47,33,58,302,47,,,,,,,,*6F
###2023-11-09 13:06:27.052623$GNVTG,29.99,T,,M,0.80,N,1.48,K,A*1D
###2023-11-09 13:06:27.131482$GNGGA,130627.30,3611.0415708,N,07544.9805047,W,1,24,0.6,0.921,M,-39.961,M,0.0,*60
###2023-11-09 13:06:27.134069$GPGSV,2,1,07,05,21,090,42,10,18,292,43,13,25,045,41,15,62,036,45*77
###2023-11-09 13:06:27.136329$GPGSV,2,2,07,18,77,282,47,23,49,314,45,24,49,137,45,,,,*48
###2023-11-09 13:06:27.138917$GLGSV,2,1,05,70,50,016,36,71,48,288,48,80,17,091,44,85,58,203,48*6C
###2023-11-09 13:06:27.140517$GLGSV,2,2,05,86,52,309,47,,,,,,,,,,,,*50
###2023-11-09 13:06:27.143078$GAGSV,1,1,04,07,72,255,45,08,49,042,44,13,64,160,44,26,56,311,45*6C
###2023-11-09 13:06:27.145657$GBGSV,2,1,06,11,24,180,41,14,65,006,46,24,19,133,42,26,23,082,41*65
###2023-11-09 13:06:27.147605$GBGSV,2,2,06,28,43,289,47,33,58,302,47,,,,,,,,*6F
###2023-11-09 13:06:27.149035$GNVTG,29.99,T,,M,0.78,N,1.44,K,A*16
###2023-11-09 13:06:27.233371$GNGGA,130627.40,3611.0415902,N,07544.9804939,W,1,24,0.6,0.939,M,-39.961,M,0.0,*6B
###2023-11-09 13:06:27.235975$GPGSV,2,1,07,05,21,090,42,10,18,292,43,13,25,045,41,15,62,036,45*77
###2023-11-09 13:06:27.238260$GPGSV,2,2,07,18,77,282,47,23,49,314,45,24,49,137,45,,,,*48
###2023-11-09 13:06:27.240832$GLGSV,2,1,05,70,50,016,36,71,48,288,48,80,17,091,44,85,58,203,48*6C
###2023-11-09 13:06:27.242442$GLGSV,2,2,05,86,52,309,47,,,,,,,,,,,,*50
###2023-11-09 13:06:27.245005$GAGSV,1,1,04,07,72,255,45,08,49,042,44,13,64,160,44,26,56,311,45*6C
###2023-11-09 13:06:27.247604$GBGSV,2,1,06,11,24,180,41,14,65,006,46,24,19,133,42,26,23,082,41*65
###2023-11-09 13:06:27.249530$GBGSV,2,2,06,28,43,289,47,33,58,302,47,,,,,,,,*6F
###2023-11-09 13:06:27.250957$GNVTG,29.99,T,,M,0.80,N,1.48,K,A*1D
###2023-11-09 13:06:27.330973$GNGGA,130627.50,3611.0416104,N,07544.9804843,W,1,24,0.6,0.949,M,-39.961,M,0.0,*6C
###2023-11-09 13:06:27.333553$GPGSV,2,1,07,05,21,090,42,10,18,292,43,13,25,045,41,15,62,036,45*77
###2023-11-09 13:06:27.335799$GPGSV,2,2,07,18,77,282,47,23,49,314,45,24,49,137,45,,,,*48
###2023-11-09 13:06:27.338389$GLGSV,2,1,05,70,50,016,36,71,48,288,48,80,17,091,44,85,58,203,48*6C
###2023-11-09 13:06:27.339997$GLGSV,2,2,05,86,52,309,47,,,,,,,,,,,,*50
###2023-11-09 13:06:27.342539$GAGSV,1,1,04,07,72,255,45,08,49,042,44,13,64,160,44,26,56,311,45*6C
###2023-11-09 13:06:27.345109$GBGSV,2,1,06,11,24,180,41,14,65,006,46,24,19,133,43,26,23,082,41*64
###2023-11-09 13:06:27.347051$GBGSV,2,2,06,28,43,289,47,33,58,302,47,,,,,,,,*6F
###2023-11-09 13:06:27.348475$GNVTG,29.99,T,,M,0.80,N,1.48,K,A*1D
###2023-11-09 13:06:27.431494$GNGGA,130627.60,3611.0416301,N,07544.9804781,W,1,24,0.6,0.951,M,-39.961,M,0.0,*60
###2023-11-09 13:06:27.434103$GPGSV,2,1,07,05,21,090,42,10,18,292,43,13,25,045,41,15,62,036,46*74
###2023-11-09 13:06:27.436348$GPGSV,2,2,07,18,77,282,47,23,49,314,45,24,49,137,45,,,,*48
###2023-11-09 13:06:27.438948$GLGSV,2,1,05,70,50,016,36,71,48,288,48,80,17,091,44,85,58,203,48*6C
###2023-11-09 13:06:27.440565$GLGSV,2,2,05,86,52,309,47,,,,,,,,,,,,*50
###2023-11-09 13:06:27.443136$GAGSV,1,1,04,07,72,255,45,08,49,042,44,13,64,160,44,26,56,311,45*6C
###2023-11-09 13:06:27.445724$GBGSV,2,1,06,11,24,180,41,14,65,006,46,24,19,133,43,26,23,082,41*64
###2023-11-09 13:06:27.447683$GBGSV,2,2,06,28,43,289,47,33,58,302,47,,,,,,,,*6F
###2023-11-09 13:06:27.449117$GNVTG,29.99,T,,M,0.72,N,1.33,K,A*1C
###2023-11-09 13:06:27.532471$GNGGA,130627.70,3611.0416484,N,07544.9804760,W,1,24,0.6,0.953,M,-39.961,M,0.0,*66
###2023-11-09 13:06:27.535061$GPGSV,2,1,07,05,21,090,42,10,18,292,43,13,25,045,41,15,62,036,46*74
###2023-11-09 13:06:27.537326$GPGSV,2,2,07,18,77,282,47,23,49,314,45,24,49,137,45,,,,*48
###2023-11-09 13:06:27.539904$GLGSV,2,1,05,70,50,016,36,71,48,288,48,80,17,091,44,85,58,203,48*6C
###2023-11-09 13:06:27.541517$GLGSV,2,2,05,86,52,309,47,,,,,,,,,,,,*50
###2023-11-09 13:06:27.544090$GAGSV,1,1,04,07,72,255,45,08,49,042,44,13,64,160,44,26,56,311,45*6C
###2023-11-09 13:06:27.546671$GBGSV,2,1,06,11,24,180,41,14,65,006,46,24,19,133,43,26,23,082,41*64
###2023-11-09 13:06:27.548609$GBGSV,2,2,06,28,43,289,47,33,58,302,47,,,,,,,,*6F
###2023-11-09 13:06:27.550038$GNVTG,29.99,T,,M,0.66,N,1.22,K,A*19
###2023-11-09 13:06:27.631356$GNGGA,130627.80,3611.0416671,N,07544.9804753,W,1,24,0.6,0.948,M,-39.961,M,0.0,*6B
###2023-11-09 13:06:27.633929$GPGSV,2,1,07,05,21,090,42,10,18,292,43,13,25,045,41,15,62,036,46*74
###2023-11-09 13:06:27.636177$GPGSV,2,2,07,18,77,282,47,23,49,314,45,24,49,137,45,,,,*48
###2023-11-09 13:06:27.638757$GLGSV,2,1,05,70,50,016,36,71,48,288,48,80,17,091,44,85,58,203,48*6C
###2023-11-09 13:06:27.640359$GLGSV,2,2,05,86,52,309,47,,,,,,,,,,,,*50
###2023-11-09 13:06:27.642919$GAGSV,1,1,04,07,72,255,45,08,49,042,44,13,64,160,44,26,56,311,45*6C
###2023-11-09 13:06:27.645483$GBGSV,2,1,06,11,24,180,42,14,65,006,46,24,19,133,43,26,23,082,41*67
###2023-11-09 13:06:27.647427$GBGSV,2,2,06,28,43,289,47,33,58,302,47,,,,,,,,*6F
###2023-11-09 13:06:27.648853$GNVTG,29.99,T,,M,0.72,N,1.33,K,A*1C
###2023-11-09 13:06:27.731506$GNGGA,130627.90,3611.0416885,N,07544.9804725,W,1,24,0.6,0.950,M,-39.961,M,0.0,*67
###2023-11-09 13:06:27.734106$GPGSV,2,1,07,05,21,090,42,10,18,292,43,13,25,045,41,15,62,036,45*77
###2023-11-09 13:06:27.736376$GPGSV,2,2,07,18,77,282,47,23,49,314,45,24,49,137,45,,,,*48
###2023-11-09 13:06:27.738986$GLGSV,2,1,05,70,50,016,36,71,48,288,48,80,17,091,44,85,58,203,48*6C
###2023-11-09 13:06:27.740607$GLGSV,2,2,05,86,52,309,47,,,,,,,,,,,,*50
###2023-11-09 13:06:27.743192$GAGSV,1,1,04,07,72,255,45,08,49,042,44,13,64,160,44,26,56,311,45*6C
###2023-11-09 13:06:27.745783$GBGSV,2,1,06,11,24,180,42,14,65,006,46,24,19,133,43,26,23,082,41*67
###2023-11-09 13:06:27.747730$GBGSV,2,2,06,28,43,289,47,33,58,302,47,,,,,,,,*6F
###2023-11-09 13:06:27.749166$GNVTG,29.99,T,,M,0.87,N,1.62,K,A*12
###2023-11-09 13:06:27.838140$GNGGA,130628.00,3611.0417156,N,07544.9804660,W,1,24,0.6,0.952,M,-39.961,M,0.0,*65
###2023-11-09 13:06:27.840740$GPGSV,2,1,07,05,21,090,42,10,18,292,43,13,25,045,41,15,62,036,45*77
###2023-11-09 13:06:27.842995$GPGSV,2,2,07,18,77,282,47,23,49,314,45,24,49,137,45,,,,*48
###2023-11-09 13:06:27.845565$GLGSV,2,1,05,70,50,016,36,71,48,288,48,80,17,091,44,85,58,203,48*6C
###2023-11-09 13:06:27.847184$GLGSV,2,2,05,86,52,309,47,,,,,,,,,,,,*50
###2023-11-09 13:06:27.849754$GAGSV,1,1,04,07,72,255,45,08,49,042,44,13,64,160,44,26,56,311,45*6C
###2023-11-09 13:06:27.852346$GBGSV,2,1,06,11,24,180,42,14,65,006,46,24,19,133,43,26,23,082,41*67
###2023-11-09 13:06:27.854280$GBGSV,2,2,06,28,43,289,47,33,58,302,47,,,,,,,,*6F
###2023-11-09 13:06:27.855709$GNVTG,11.76,T,,M,1.15,N,2.12,K,A*16
###2023-11-09 13:06:27.936351$GNGGA,130628.10,3611.0417476,N,07544.9804574,W,1,24,0.6,0.949,M,-39.961,M,0.0,*6F
###2023-11-09 13:06:27.938965$GPGSV,2,1,07,05,21,090,42,10,18,292,43,13,24,045,41,15,62,036,46*75
###2023-11-09 13:06:27.941221$GPGSV,2,2,07,18,77,282,47,23,49,314,45,24,49,137,45,,,,*48
###2023-11-09 13:06:27.943786$GLGSV,2,1,05,70,50,016,36,71,48,288,48,80,17,091,44,85,58,203,48*6C
###2023-11-09 13:06:27.945392$GLGSV,2,2,05,86,52,309,47,,,,,,,,,,,,*50
###2023-11-09 13:06:27.947964$GAGSV,1,1,04,07,72,255,45,08,49,042,44,13,64,160,44,26,56,311,45*6C
###2023-11-09 13:06:27.950551$GBGSV,2,1,06,11,24,180,42,14,65,006,46,24,19,133,43,26,23,082,41*67
###2023-11-09 13:06:27.952511$GBGSV,2,2,06,28,43,289,47,33,58,302,47,,,,,,,,*6F
###2023-11-09 13:06:27.953946$GNVTG,12.64,T,,M,1.24,N,2.30,K,A*14
