###2023-11-09 13:08:41.634964$GPGSV,2,2,07,18,78,277,47,23,50,316,45,24,50,135,46,,,,*4E
###2023-11-09 13:08:41.637577$GLGSV,2,1,05,70,50,017,35,71,48,290,48,80,18,090,43,85,57,203,48*61
###2023-11-09 13:08:41.639200$GLGSV,2,2,05,86,53,308,47,,,,,,,,,,,,*50
###2023-11-09 13:08:41.641778$GAGSV,1,1,04,07,72,258,46,08,48,043,45,13,64,160,45,26,57,310,44*63
###2023-11-09 13:08:41.644355$GBGSV,2,1,06,11,23,180,42,14,65,008,45,24,20,132,44,26,23,081,41*62
###2023-11-09 13:08:41.646296$GBGSV,2,2,06,28,43,287,47,33,59,304,47,,,,,,,,*66
###2023-11-09 13:08:41.647755$GNVTG,87.75,T,,M,4.78,N,8.86,K,A*13
###2023-11-09 13:08:41.729537$GNGGA,130841.90,3611.0194615,N,07545.0105282,W,1,24,0.6,0.844,M,-39.962,M,0.0,*6E
###2023-11-09 13:08:41.732152$GPGSV,2,1,07,05,20,090,41,10,19,293,44,13,24,045,40,15,61,037,45*70
###2023-11-09 13:08:41.734407$GPGSV,2,2,07,18,78,277,47,23,50,316,44,24,50,135,46,,,,*4F
###2023-11-09 13:08:41.736983$GLGSV,2,1,05,70,50,017,35,71,48,290,48,80,18,090,43,85,57,203,49*60
###2023-11-09 13:08:41.738586$GLGSV,2,2,05,86,53,308,47,,,,,,,,,,,,*50
###2023-11-09 13:08:41.741143$GAGSV,1,1,04,07,72,258,46,08,48,043,44,13,64,160,45,26,57,310,44*62
###2023-11-09 13:08:41.743709$GBGSV,2,1,06,11,23,180,42,14,65,008,45,24,20,132,44,26,23,081,41*62
###2023-11-09 13:08:41.745631$GBGSV,2,2,06,28,43,287,47,33,59,304,46,,,,,,,,*67
###2023-11-09 13:08:41.747062$GNVTG,83.67,T,,M,4.80,N,8.89,K,A*1C
###2023-11-09 13:08:41.832108$GNGGA,130842.00,3611.0194790,N,07545.0103639,W,1,24,0.6,0.874,M,-39.962,M,0.0,*69
###2023-11-09 13:08:41.834703$GPGSV,2,1,07,05,20,090,41,10,19,293,44,13,24,045,40,15,61,037,45*70
###2023-11-09 13:08:41.836978$GPGSV,2,2,07,18,78,277,47,23,50,316,44,24,50,135,46,,,,*4F
###2023-11-09 13:08:41.839565$GLGSV,2,1,05,70,50,017,35,71,48,290,48,80,18,090,43,85,57,203,49*60
###2023-11-09 13:08:41.841183$GLGSV,2,2,05,86,53,308,47,,,,,,,,,,,,*50
###2023-11-09 13:08:41.843768$GAGSV,1,1,04,07,72,258,46,08,48,043,44,13,64,160,45,26,57,310,44*62
###2023-11-09 13:08:41.846350$GBGSV,2,1,06,11,23,180,42,14,65,008,45,24,20,132,44,26,23,081,41*62
###2023-11-09 13:08:41.848296$GBGSV,2,2,06,28,43,287,47,33,59,304,47,,,,,,,,*66
###2023-11-09 13:08:41.849727$GNVTG,80.92,T,,M,4.86,N,9.00,K,A*13
###2023-11-09 13:08:41.932732$GNGGA,130842.10,3611.0194979,N,07545.0101990,W,1,24,0.6,0.883,M,-39.962,M,0.0,*67
###2023-11-09 13:08:41.935319$GPGSV,2,1,07,05,20,090,41,10,19,293,44,13,24,045,40,15,61,037,45*70
###2023-11-09 13:08:41.937582$GPGSV,2,2,07,18,78,277,47,23,50,316,45,24,50,135,46,,,,*4E
###2023-11-09 13:08:41.940152$GLGSV,2,1,05,70,50,017,35,71,48,290,48,80,18,090,43,85,57,203,48*61
###2023-11-09 13:08:41.941768$GLGSV,2,2,05,86,53,308,47,,,,,,,,,,,,*50
###2023-11-09 13:08:41.944328$GAGSV,1,1,04,07,72,258,46,08,48,043,44,13,64,160,45,26,57,310,44*62
###2023-11-09 13:08:41.946914$GBGSV,2,1,06,11,23,180,42,14,65,008,45,24,20,132,43,26,23,081,41*65
###2023-11-09 13:08:41.948857$GBGSV,2,2,06,28,43,287,47,33,59,304,47,,,,,,,,*66
###2023-11-09 13:08:41.950285$GNVTG,82.83,T,,M,4.86,N,9.00,K,A*11
###2023-11-09 13:08:42.032231$GNGGA,130842.20,3611.0195073,N,07545.0100311,W,1,24,0.6,0.888,M,-39.962,M,0.0,*6F
###2023-11-09 13:08:42.034796$GPGSV,2,1,07,05,20,090,41,10,19,293,44,13,24,045,40,15,61,037,45*70
###2023-11-09 13:08:42.037054$GPGSV,2,2,07,18,78,277,47,23,50,316,45,24,50,135,46,,,,*4E
###2023-11-09 13:08:42.039620$GLGSV,2,1,05,70,50,017,35,71,48,290,48,80,18,090,43,85,57,203,48*61
###2023-11-09 13:08:42.041213$GLGSV,2,2,05,86,53,308,47,,,,,,,,,,,,*50
###2023-11-09 13:08:42.043760$GAGSV,1,1,04,07,72,258,46,08,48,043,44,13,64,160,45,26,57,310,44*62
###2023-11-09 13:08:42.046320$GBGSV,2,1,06,11,23,180,42,14,65,008,45,24,20,132,43,26,23,081,42*66
###2023-11-09 13:08:42.048257$GBGSV,2,2,06,28,43,287,47,33,59,304,47,,,,,,,,*66
###2023-11-09 13:08:42.049673$GNVTG,88.78,T,,M,4.98,N,9.22,K,A*10
###2023-11-09 13:08:42.127392$GNGGA,130842.30,3611.0195053,N,07545.0098623,W,1,24,0.6,0.886,M,-39.962,M,0.0,*66
###2023-11-09 13:08:42.129997$GPGSV,2,1,07,05,20,090,41,10,19,293,44,13,24,045,42,15,61,037,45*72
###2023-11-09 13:08:42.132255$GPGSV,2,2,07,18,78,277,47,23,50,316,46,24,50,135,46,,,,*4D
###2023-11-09 13:08:42.134830$GLGSV,2,1,05,70,50,017,35,71,48,290,48,80,18,090,43,85,57,203,48*61
###2023-11-09 13:08:42.136429$GLGSV,2,2,05,86,53,308,47,,,,,,,,,,,,*50
###2023-11-09 13:08:42.139026$GAGSV,1,1,04,07,72,258,46,08,48,043,44,13,64,160,45,26,57,310,44*62
###2023-11-09 13:08:42.141600$GBGSV,2,1,06,11,23,180,42,14,65,008,45,24,20,132,43,26,23,081,43*67
###2023-11-09 13:08:42.143532$GBGSV,2,2,06,28,43,287,47,33,59,304,47,,,,,,,,*66
###2023-11-09 13:08:42.144964$GNVTG,92.91,T,,M,4.90,N,9.07,K,A*13
###2023-11-09 13:08:42.228876$GNGGA,130842.40,3611.0194957,N,07545.0096940,W,1,24,0.6,0.877,M,-39.962,M,0.0,*67
###2023-11-09 13:08:42.231467$GPGSV,2,1,07,05,20,090,41,10,19,293,44,13,24,045,40,15,61,037,45*70
###2023-11-09 13:08:42.233717$GPGSV,2,2,07,18,78,277,47,23,50,316,46,24,50,135,46,,,,*4D
###2023-11-09 13:08:42.236299$GLGSV,2,1,05,70,50,017,35,71,48,290,48,80,18,090,43,85,57,203,49*60
###2023-11-09 13:08:42.237924$GLGSV,2,2,05,86,53,308,47,,,,,,,,,,,,*50
###2023-11-09 13:08:42.240497$GAGSV,1,1,04,07,72,258,46,08,48,043,44,13,64,160,45,26,57,310,44*62
###2023-11-09 13:08:42.243071$GBGSV,2,1,06,11,23,180,42,14,65,008,45,24,20,132,43,26,23,081,43*67
###2023-11-09 13:08:42.245012$GBGSV,2,2,06,28,43,287,47,33,59,304,47,,,,,,,,*66
###2023-11-09 13:08:42.246438$GNVTG,95.11,T,,M,4.96,N,9.18,K,A*14
###2023-11-09 13:08:42.328863$GNGGA,130842.50,3611.0194857,N,07545.0095237,W,1,24,0.6,0.857,M,-39.962,M,0.0,*6D
###2023-11-09 13:08:42.331445$GPGSV,2,1,07,05,20,090,41,10,19,293,44,13,24,045,39,15,61,037,45*7E
###2023-11-09 13:08:42.333689$GPGSV,2,2,07,18,78,277,47,23,50,316,46,24,50,135,46,,,,*4D
###2023-11-09 13:08:42.336246$GLGSV,2,1,05,70,50,017,35,71,48,290,48,80,18,090,43,85,57,203,49*60
###2023-11-09 13:08:42.337861$GLGSV,2,2,05,86,53,308,47,,,,,,,,,,,,*50
###2023-11-09 13:08:42.340426$GAGSV,1,1,04,07,72,258,46,08,48,043,44,13,64,160,45,26,57,310,44*62
###2023-11-09 13:08:42.342989$GBGSV,2,1,06,11,23,180,42,14,65,008,45,24,20,132,43,26,23,081,43*67
###2023-11-09 13:08:42.344906$GBGSV,2,2,06,28,43,287,47,33,59,304,47,,,,,,,,*66
###2023-11-09 13:08:42.346326$GNVTG,93.55,T,,M,5.02,N,9.29,K,A*1C
###2023-11-09 13:08:42.428895$GNGGA,130842.60,3611.0194809,N,07545.0093521,W,1,24,0.6,0.831,M,-39.962,M,0.0,*63
###2023-11-09 13:08:42.431502$GPGSV,2,1,07,05,20,090,41,10,19,293,43,13,24,045,39,15,61,037,45*79
###2023-11-09 13:08:42.433767$GPGSV,2,2,07,18,78,277,47,23,50,316,46,24,50,135,46,,,,*4D
###2023-11-09 13:08:42.436346$GLGSV,2,1,05,70,50,017,35,71,48,290,48,80,18,090,42,85,57,203,49*61
###2023-11-09 13:08:42.437971$GLGSV,2,2,05,86,53,308,47,,,,,,,,,,,,*50
###2023-11-09 13:08:42.440556$GAGSV,1,1,04,07,72,258,45,08,48,043,44,13,64,160,45,26,57,310,45*60
###2023-11-09 13:08:42.443142$GBGSV,2,1,06,11,23,180,42,14,65,008,45,24,20,132,44,26,23,081,43*60
###2023-11-09 13:08:42.445082$GBGSV,2,2,06,28,43,287,47,33,59,304,47,,,,,,,,*66
###2023-11-09 13:08:42.446520$GNVTG,90.68,T,,M,5.02,N,9.29,K,A*11
###2023-11-09 13:08:42.528903$GNGGA,130842.70,3611.0194816,N,07545.0091807,W,1,24,0.6,0.805,M,-39.962,M,0.0,*60
###2023-11-09 13:08:42.531493$GPGSV,2,1,07,05,20,090,41,10,19,293,43,13,24,045,40,15,61,037,45*77
###2023-11-09 13:08:42.533745$GPGSV,2,2,07,18,78,277,47,23,50,316,45,24,50,135,46,,,,*4E
###2023-11-09 13:08:42.536317$GLGSV,2,1,05,70,50,017,35,71,48,290,48,80,18,090,42,85,57,203,49*61
###2023-11-09 13:08:42.537941$GLGSV,2,2,05,86,53,308,47,,,,,,,,,,,,*50
###2023-11-09 13:08:42.540515$GAGSV,1,1,04,07,72,258,45,08,48,043,44,13,64,160,45,26,57,310,45*60
###2023-11-09 13:08:42.543099$GBGSV,2,1,06,11,23,180,42,14,65,008,45,24,20,132,44,26,23,081,42*61
###2023-11-09 13:08:42.545042$GBGSV,2,2,06,28,43,287,47,33,59,304,47,,,,,,,,*66
###2023-11-09 13:08:42.546470$GNVTG,88.88,T,,M,5.02,N,9.29,K,A*16
###2023-11-09 13:08:42.629006$GNGGA,130842.80,3611.0194826,N,07545.0090076,W,1,24,0.6,0.783,M,-39.962,M,0.0,*62
###2023-11-09 13:08:42.631594$GPGSV,2,1,07,05,20,090,41,10,19,293,43,13,24,045,40,15,61,037,45*77
###2023-11-09 13:08:42.633849$GPGSV,2,2,07,18,78,277,47,23,50,316,45,24,50,135,46,,,,*4E
###2023-11-09 13:08:42.636730$GLGSV,2,1,05,70,50,017,35,71,48,290,48,80,18,090,42,85,57,203,49*61
###2023-11-09 13:08:42.638368$GLGSV,2,2,05,86,53,308,47,,,,,,,,,,,,*50
###2023-11-09 13:08:42.640944$GAGSV,1,1,04,07,72,258,45,08,48,043,44,13,64,160,45,26,57,310,45*60
###2023-11-09 13:08:42.643514$GBGSV,2,1,06,11,23,180,42,14,65,008,45,24,20,132,44,26,23,081,42*61
###2023-11-09 13:08:42.645445$GBGSV,2,2,06,28,43,287,47,33,59,304,47,,,,,,,,*66
###2023-11-09 13:08:42.646871$GNVTG,90.25,T,,M,5.11,N,9.47,K,A*12
###2023-11-09 13:08:42.727891$GNGGA,130842.90,3611.0194810,N,07545.0088328,W,1,24,0.6,0.770,M,-39.962,M,0.0,*6B
###2023-11-09 13:08:42.730498$GPGSV,2,1,07,05,20,090,41,10,19,293,44,13,24,045,42,15,61,037,45*72
###2023-11-09 13:08:42.732760$GPGSV,2,2,07,18,78,277,47,23,50,316,45,24,50,135,46,,,,*4E
