###2023-11-09 13:06:48.031864$GNGGA,130648.20,3611.0457698,N,07544.9784823,W,1,24,0.6,0.918,M,-39.961,M,0.0,*60
###2023-11-09 13:06:48.034474$GPGSV,2,1,07,05,21,090,42,10,18,292,44,13,24,045,42,15,62,037,46*70
###2023-11-09 13:06:48.036725$GPGSV,2,2,07,18,77,281,47,23,50,315,45,24,49,136,46,,,,*40
###2023-11-09 13:06:48.039313$GLGSV,2,1,05,70,50,016,35,71,48,288,48,80,17,091,43,85,58,203,48*68
###2023-11-09 13:06:48.040923$GLGSV,2,2,05,86,52,309,48,,,,,,,,,,,,*5F
###2023-11-09 13:06:48.043486$GAGSV,1,1,04,07,72,255,45,08,49,042,44,13,64,160,44,26,56,311,45*6C
###2023-11-09 13:06:48.046060$GBGSV,2,1,06,11,24,180,41,14,65,006,45,24,19,133,44,26,23,082,43*62
###2023-11-09 13:06:48.047996$GBGSV,2,2,06,28,43,289,47,33,58,302,47,,,,,,,,*6F
###2023-11-09 13:06:48.049428$GNVTG,22.03,T,,M,0.70,N,1.30,K,A*15
###2023-11-09 13:06:48.130874$GNGGA,130648.30,3611.0457908,N,07544.9784667,W,1,24,0.6,0.922,M,-39.961,M,0.0,*60
###2023-11-09 13:06:48.133471$GPGSV,2,1,07,05,21,090,42,10,18,292,43,13,24,045,41,15,62,037,46*74
###2023-11-09 13:06:48.135724$GPGSV,2,2,07,18,77,281,47,23,50,315,45,24,49,136,46,,,,*40
###2023-11-09 13:06:48.138323$GLGSV,2,1,05,70,50,016,35,71,48,288,48,80,17,091,43,85,58,203,48*68
###2023-11-09 13:06:48.139934$GLGSV,2,2,05,86,52,309,48,,,,,,,,,,,,*5F
###2023-11-09 13:06:48.142509$GAGSV,1,1,04,07,72,255,45,08,49,042,44,13,64,160,44,26,56,311,45*6C
###2023-11-09 13:06:48.145088$GBGSV,2,1,06,11,24,180,41,14,65,006,45,24,19,133,44,26,23,082,43*62
###2023-11-09 13:06:48.147034$GBGSV,2,2,06,28,43,289,47,33,58,302,47,,,,,,,,*6F
###2023-11-09 13:06:48.148459$GNVTG,25.76,T,,M,1.07,N,1.98,K,A*13
###2023-11-09 13:06:48.232002$GNGGA,130648.40,3611.0458205,N,07544.9784508,W,1,24,0.6,0.923,M,-39.961,M,0.0,*65
###2023-11-09 13:06:48.234610$GPGSV,2,1,07,05,21,090,40,10,18,292,43,13,24,045,41,15,62,037,46*76
###2023-11-09 13:06:48.236867$GPGSV,2,2,07,18,77,281,47,23,50,315,45,24,49,136,46,,,,*40
###2023-11-09 13:06:48.239455$GLGSV,2,1,05,70,50,016,35,71,48,288,48,80,17,091,43,85,58,203,48*68
###2023-11-09 13:06:48.241065$GLGSV,2,2,05,86,52,309,48,,,,,,,,,,,,*5F
###2023-11-09 13:06:48.243628$GAGSV,1,1,04,07,72,255,45,08,49,042,44,13,64,160,44,26,56,311,45*6C
###2023-11-09 13:06:48.246211$GBGSV,2,1,06,11,24,180,41,14,65,006,45,24,19,133,44,26,23,082,43*62
###2023-11-09 13:06:48.248159$GBGSV,2,2,06,28,43,289,47,33,58,302,47,,,,,,,,*6F
###2023-11-09 13:06:48.249589$GNVTG,20.57,T,,M,1.26,N,2.34,K,A*13
###2023-11-09 13:06:48.331447$GNGGA,130648.50,3611.0458529,N,07544.9784358,W,1,24,0.6,0.919,M,-39.961,M,0.0,*67
###2023-11-09 13:06:48.334008$GPGSV,2,1,07,05,21,090,41,10,18,292,43,13,24,045,41,15,62,037,46*77
###2023-11-09 13:06:48.336245$GPGSV,2,2,07,18,77,281,47,23,50,315,45,24,49,136,46,,,,*40
###2023-11-09 13:06:48.338840$GLGSV,2,1,05,70,50,016,35,71,48,288,48,80,17,091,43,85,58,203,48*68
###2023-11-09 13:06:48.340460$GLGSV,2,2,05,86,52,309,48,,,,,,,,,,,,*5F
###2023-11-09 13:06:48.343025$GAGSV,1,1,04,07,72,255,45,08,49,042,44,13,64,160,44,26,56,311,44*6D
###2023-11-09 13:06:48.345595$GBGSV,2,1,06,11,24,180,42,14,65,006,45,24,19,133,43,26,23,082,43*66
###2023-11-09 13:06:48.347538$GBGSV,2,2,06,28,43,289,47,33,58,302,47,,,,,,,,*6F
###2023-11-09 13:06:48.348958$GNVTG,19.58,T,,M,1.22,N,2.27,K,A*10
###2023-11-09 13:06:48.429883$GNGGA,130648.60,3611.0458816,N,07544.9784220,W,1,24,0.6,0.912,M,-39.961,M,0.0,*60
###2023-11-09 13:06:48.432484$GPGSV,2,1,07,05,21,090,42,10,18,292,43,13,24,045,42,15,62,037,46*77
###2023-11-09 13:06:48.434747$GPGSV,2,2,07,18,77,281,47,23,50,315,45,24,49,136,46,,,,*40
###2023-11-09 13:06:48.437329$GLGSV,2,1,05,70,50,016,35,71,48,288,48,80,17,091,44,85,58,203,48*6F
###2023-11-09 13:06:48.438933$GLGSV,2,2,05,86,52,309,48,,,,,,,,,,,,*5F
###2023-11-09 13:06:48.441503$GAGSV,1,1,04,07,72,255,45,08,49,042,44,13,64,160,44,26,56,311,45*6C
###2023-11-09 13:06:48.444066$GBGSV,2,1,06,11,24,180,42,14,65,006,45,24,19,133,43,26,23,082,43*66
###2023-11-09 13:06:48.445997$GBGSV,2,2,06,28,43,289,47,33,58,302,47,,,,,,,,*6F
###2023-11-09 13:06:48.447432$GNVTG,22.10,T,,M,1.01,N,1.87,K,A*1C
###2023-11-09 13:06:48.531862$GNGGA,130648.70,3611.0459044,N,07544.9784086,W,1,24,0.6,0.905,M,-39.961,M,0.0,*67
###2023-11-09 13:06:48.534448$GPGSV,2,1,07,05,21,090,42,10,18,292,43,13,24,045,42,15,62,037,46*77
###2023-11-09 13:06:48.536695$GPGSV,2,2,07,18,77,281,47,23,50,315,45,24,49,136,45,,,,*43
###2023-11-09 13:06:48.539278$GLGSV,2,1,05,70,50,016,35,71,48,288,48,80,17,091,44,85,58,203,48*6F
###2023-11-09 13:06:48.540883$GLGSV,2,2,05,86,52,309,48,,,,,,,,,,,,*5F
###2023-11-09 13:06:48.543451$GAGSV,1,1,04,07,72,255,45,08,49,042,44,13,64,160,44,26,56,311,45*6C
###2023-11-09 13:06:48.546022$GBGSV,2,1,06,11,24,180,41,14,65,006,45,24,19,133,43,26,23,082,43*65
###2023-11-09 13:06:48.547971$GBGSV,2,2,06,28,43,289,47,33,58,302,47,,,,,,,,*6F
###2023-11-09 13:06:48.549397$GNVTG,22.10,T,,M,0.84,N,1.55,K,A*1F
###2023-11-09 13:06:48.630841$GNGGA,130648.80,3611.0459225,N,07544.9783959,W,1,24,0.6,0.902,M,-39.961,M,0.0,*66
###2023-11-09 13:06:48.633406$GPGSV,2,1,07,05,21,090,42,10,18,292,43,13,24,045,42,15,62,037,46*77
###2023-11-09 13:06:48.635656$GPGSV,2,2,07,18,77,281,47,23,50,315,45,24,49,136,45,,,,*43
###2023-11-09 13:06:48.638242$GLGSV,2,1,05,70,50,016,35,71,48,288,48,80,17,091,44,85,58,203,48*6F
###2023-11-09 13:06:48.639845$GLGSV,2,2,05,86,52,309,47,,,,,,,,,,,,*50
###2023-11-09 13:06:48.642400$GAGSV,1,1,04,07,72,255,45,08,49,042,44,13,64,160,44,26,56,311,45*6C
###2023-11-09 13:06:48.644969$GBGSV,2,1,06,11,24,180,41,14,65,006,45,24,19,133,43,26,23,082,43*65
###2023-11-09 13:06:48.646897$GBGSV,2,2,06,28,43,289,47,33,58,302,47,,,,,,,,*6F
###2023-11-09 13:06:48.648325$GNVTG,22.10,T,,M,0.68,N,1.26,K,A*19
###2023-11-09 13:06:48.729877$GNGGA,130648.90,3611.0459395,N,07544.9783833,W,1,24,0.6,0.898,M,-39.961,M,0.0,*62
###2023-11-09 13:06:48.732465$GPGSV,2,1,07,05,21,090,42,10,18,292,43,13,24,045,42,15,62,037,46*77
###2023-11-09 13:06:48.734711$GPGSV,2,2,07,18,77,281,47,23,50,315,45,24,49,136,46,,,,*40
###2023-11-09 13:06:48.737298$GLGSV,2,1,05,70,50,016,35,71,48,288,48,80,17,091,44,85,58,203,48*6F
###2023-11-09 13:06:48.738908$GLGSV,2,2,05,86,52,309,47,,,,,,,,,,,,*50
###2023-11-09 13:06:48.741467$GAGSV,1,1,04,07,72,255,45,08,49,042,44,13,64,160,44,26,56,311,45*6C
###2023-11-09 13:06:48.744039$GBGSV,2,1,06,11,24,180,41,14,65,006,45,24,19,133,43,26,23,082,43*65
###2023-11-09 13:06:48.745971$GBGSV,2,2,06,28,43,289,47,33,58,302,47,,,,,,,,*6F
###2023-11-09 13:06:48.747417$GNVTG,22.10,T,,M,0.76,N,1.40,K,A*16
###2023-11-09 13:06:48.832859$GNGGA,130649.00,3611.0459615,N,07544.9783686,W,1,24,0.6,0.897,M,-39.961,M,0.0,*68
###2023-11-09 13:06:48.835440$GPGSV,2,1,07,05,21,090,42,10,18,292,43,13,24,045,41,15,62,037,46*74
###2023-11-09 13:06:48.837717$GPGSV,2,2,07,18,77,281,47,23,50,315,45,24,49,136,46,,,,*40
###2023-11-09 13:06:48.840306$GLGSV,2,1,05,70,50,016,35,71,48,288,48,80,17,091,43,85,58,203,48*68
###2023-11-09 13:06:48.841927$GLGSV,2,2,05,86,52,309,47,,,,,,,,,,,,*50
###2023-11-09 13:06:48.844504$GAGSV,1,1,04,07,72,255,45,08,49,042,44,13,64,160,44,26,56,311,45*6C
###2023-11-09 13:06:48.847100$GBGSV,2,1,06,11,24,180,42,14,65,006,45,24,19,133,44,26,23,082,43*61
###2023-11-09 13:06:48.849038$GBGSV,2,2,06,28,43,289,47,33,58,302,47,,,,,,,,*6F
###2023-11-09 13:06:48.850467$GNVTG,24.44,T,,M,1.07,N,1.98,K,A*13
###2023-11-09 13:06:48.931975$GNGGA,130649.10,3611.0459914,N,07544.9783525,W,1,24,0.6,0.895,M,-39.961,M,0.0,*6F
###2023-11-09 13:06:48.934540$GPGSV,2,1,07,05,21,090,41,10,18,292,43,13,24,045,41,15,62,037,45*74
###2023-11-09 13:06:48.936790$GPGSV,2,2,07,18,77,281,47,23,50,315,45,24,49,136,46,,,,*40
###2023-11-09 13:06:48.939376$GLGSV,2,1,05,70,50,016,35,71,48,288,48,80,17,091,43,85,58,203,48*68
###2023-11-09 13:06:48.940975$GLGSV,2,2,05,86,52,309,47,,,,,,,,,,,,*50
###2023-11-09 13:06:48.943529$GAGSV,1,1,04,07,72,255,45,08,49,042,44,13,64,160,44,26,56,311,45*6C
###2023-11-09 13:06:48.946096$GBGSV,2,1,06,11,24,180,42,14,65,006,45,24,19,133,44,26,23,082,43*61
###2023-11-09 13:06:48.948032$GBGSV,2,2,06,28,43,289,47,33,58,302,47,,,,,,,,*6F
###2023-11-09 13:06:48.949456$GNVTG,21.73,T,,M,1.28,N,2.38,K,A*16
###2023-11-09 13:06:49.031987$GNGGA,130649.20,3611.0460248,N,07544.9783348,W,1,24,0.6,0.894,M,-39.961,M,0.0,*68
###2023-11-09 13:06:49.034903$GPGSV,2,1,07,05,21,090,41,10,18,292,43,13,24,045,41,15,62,037,46*77
###2023-11-09 13:06:49.037191$GPGSV,2,2,07,18,77,281,47,23,50,315,45,24,49,136,46,,,,*40
###2023-11-09 13:06:49.039762$GLGSV,2,1,05,70,50,016,35,71,48,288,47,80,17,091,43,85,58,203,48*67
###2023-11-09 13:06:49.041368$GLGSV,2,2,05,86,52,309,47,,,,,,,,,,,,*50
###2023-11-09 13:06:49.043932$GAGSV,1,1,04,07,72,255,45,08,49,042,44,13,64,160,44,26,56,311,45*6C
###2023-11-09 13:06:49.046517$GBGSV,2,1,06,11,24,180,42,14,65,006,45,24,19,133,44,26,23,082,43*61
###2023-11-09 13:06:49.048465$GBGSV,2,2,06,28,43,289,47,33,58,302,47,,,,,,,,*6F
###2023-11-09 13:06:49.049890$GNVTG,22.70,T,,M,1.34,N,2.48,K,A*1C
###2023-11-09 13:06:49.132854$GNGGA,130649.30,3611.0460575,N,07544.9783171,W,1,24,0.6,0.892,M,-39.961,M,0.0,*6E
