###2023-11-09 13:09:47.438233$GLGSV,2,2,05,86,53,308,47,,,,,,,,,,,,*50
###2023-11-09 13:09:47.440822$GAGSV,1,1,04,07,73,259,45,08,48,043,44,13,63,161,45,26,57,310,45*66
###2023-11-09 13:09:47.443409$GBGSV,2,1,06,11,22,180,42,14,65,009,44,24,21,132,43,26,23,080,43*66
###2023-11-09 13:09:47.445349$GBGSV,2,2,06,28,43,286,46,33,59,305,47,,,,,,,,*67
###2023-11-09 13:09:47.446773$GNVTG,41.05,T,,M,4.53,N,8.39,K,A*13
###2023-11-09 13:09:47.529161$GNGGA,130947.70,3611.0374015,N,07544.9164525,W,1,24,0.6,0.711,M,-39.961,M,0.0,*64
###2023-11-09 13:09:47.531772$GPGSV,2,1,07,05,20,090,43,10,19,293,44,13,24,045,40,15,61,037,46*71
###2023-11-09 13:09:47.534028$GPGSV,2,2,07,18,78,277,47,23,50,316,45,24,50,134,46,,,,*4F
###2023-11-09 13:09:47.536603$GLGSV,2,1,05,70,50,017,36,71,48,290,47,80,18,090,45,85,57,203,48*6B
###2023-11-09 13:09:47.538228$GLGSV,2,2,05,86,53,308,47,,,,,,,,,,,,*50
###2023-11-09 13:09:47.540810$GAGSV,1,1,04,07,73,259,45,08,48,043,44,13,63,161,45,26,57,310,45*66
###2023-11-09 13:09:47.543397$GBGSV,2,1,06,11,22,180,42,14,65,009,44,24,21,132,43,26,23,080,43*66
###2023-11-09 13:09:47.545341$GBGSV,2,2,06,28,43,286,46,33,59,305,47,,,,,,,,*67
###2023-11-09 13:09:47.546788$GNVTG,40.61,T,,M,4.61,N,8.53,K,A*1D
###2023-11-09 13:09:47.629153$GNGGA,130947.80,3611.0375000,N,07544.9163508,W,1,24,0.6,0.727,M,-39.961,M,0.0,*63
###2023-11-09 13:09:47.631762$GPGSV,2,1,07,05,20,090,43,10,19,293,44,13,24,045,40,15,61,037,46*71
###2023-11-09 13:09:47.634016$GPGSV,2,2,07,18,78,277,47,23,50,316,45,24,50,134,46,,,,*4F
###2023-11-09 13:09:47.636595$GLGSV,2,1,05,70,50,017,36,71,48,290,47,80,18,090,45,85,57,203,48*6B
###2023-11-09 13:09:47.638220$GLGSV,2,2,05,86,53,308,47,,,,,,,,,,,,*50
###2023-11-09 13:09:47.640796$GAGSV,1,1,04,07,73,259,45,08,48,043,44,13,63,161,45,26,57,310,45*66
###2023-11-09 13:09:47.643371$GBGSV,2,1,06,11,22,180,42,14,65,009,44,24,21,132,43,26,23,080,43*66
###2023-11-09 13:09:47.645311$GBGSV,2,2,06,28,43,286,46,33,59,305,47,,,,,,,,*67
###2023-11-09 13:09:47.646741$GNVTG,39.31,T,,M,4.59,N,8.50,K,A*1E
###2023-11-09 13:09:47.729264$GNGGA,130947.90,3611.0376010,N,07544.9162523,W,1,24,0.6,0.751,M,-39.961,M,0.0,*69
###2023-11-09 13:09:47.731852$GPGSV,2,1,07,05,20,090,43,10,19,293,43,13,24,045,40,15,61,037,46*76
###2023-11-09 13:09:47.734097$GPGSV,2,2,07,18,78,277,47,23,50,316,45,24,50,134,45,,,,*4C
###2023-11-09 13:09:47.736670$GLGSV,2,1,05,70,50,017,36,71,48,290,47,80,18,090,45,85,57,203,48*6B
###2023-11-09 13:09:47.738281$GLGSV,2,2,05,86,53,308,47,,,,,,,,,,,,*50
###2023-11-09 13:09:47.740837$GAGSV,1,1,04,07,73,259,45,08,48,043,44,13,63,161,45,26,57,310,45*66
###2023-11-09 13:09:47.743402$GBGSV,2,1,06,11,22,180,42,14,65,009,44,24,21,132,43,26,23,080,43*66
###2023-11-09 13:09:47.745327$GBGSV,2,2,06,28,43,286,46,33,59,305,47,,,,,,,,*67
###2023-11-09 13:09:47.746745$GNVTG,37.37,T,,M,4.63,N,8.57,K,A*18
###2023-11-09 13:09:47.832267$GNGGA,130948.00,3611.0377053,N,07544.9161576,W,1,24,0.6,0.767,M,-39.961,M,0.0,*6F
###2023-11-09 13:09:47.834885$GPGSV,2,1,07,05,20,090,43,10,19,293,43,13,24,045,40,15,61,037,46*76
###2023-11-09 13:09:47.837171$GPGSV,2,2,07,18,78,277,47,23,50,316,45,24,50,134,45,,,,*4C
###2023-11-09 13:09:47.839761$GLGSV,2,1,05,70,50,017,36,71,48,290,47,80,18,090,44,85,57,203,48*6A
###2023-11-09 13:09:47.841373$GLGSV,2,2,05,86,53,308,47,,,,,,,,,,,,*50
###2023-11-09 13:09:47.843949$GAGSV,1,1,04,07,73,259,45,08,48,043,44,13,63,161,45,26,57,310,45*66
###2023-11-09 13:09:47.846544$GBGSV,2,1,06,11,22,180,42,14,65,009,44,24,21,132,43,26,23,080,43*66
###2023-11-09 13:09:47.848505$GBGSV,2,2,06,28,43,286,46,33,59,305,47,,,,,,,,*67
###2023-11-09 13:09:47.849931$GNVTG,35.46,T,,M,4.65,N,8.60,K,A*1E
###2023-11-09 13:09:47.935238$GNGGA,130948.10,3611.0378116,N,07544.9160641,W,1,24,0.6,0.770,M,-39.961,M,0.0,*61
###2023-11-09 13:09:47.937849$GPGSV,2,1,07,05,20,090,42,10,19,293,43,13,24,045,40,15,61,037,46*77
###2023-11-09 13:09:47.940117$GPGSV,2,2,07,18,78,277,47,23,50,316,45,24,50,134,45,,,,*4C
###2023-11-09 13:09:47.942702$GLGSV,2,1,05,70,50,017,36,71,48,290,48,80,18,090,44,85,57,203,47*6A
###2023-11-09 13:09:47.944317$GLGSV,2,2,05,86,53,308,48,,,,,,,,,,,,*5F
###2023-11-09 13:09:47.946888$GAGSV,1,1,04,07,73,259,45,08,48,043,44,13,63,161,45,26,57,310,45*66
###2023-11-09 13:09:47.949485$GBGSV,2,1,06,11,22,180,42,14,65,009,44,24,21,132,43,26,23,080,42*67
###2023-11-09 13:09:47.951424$GBGSV,2,2,06,28,43,286,46,33,59,305,47,,,,,,,,*67
###2023-11-09 13:09:47.952858$GNVTG,35.84,T,,M,4.70,N,8.71,K,A*14
###2023-11-09 13:09:48.034984$GNGGA,130948.20,3611.0379178,N,07544.9159690,W,1,24,0.6,0.765,M,-39.961,M,0.0,*69
###2023-11-09 13:09:48.037581$GPGSV,2,1,07,05,20,090,42,10,19,293,43,13,24,045,40,15,61,037,46*77
###2023-11-09 13:09:48.039823$GPGSV,2,2,07,18,78,277,47,23,50,316,45,24,50,134,45,,,,*4C
###2023-11-09 13:09:48.042380$GLGSV,2,1,05,70,50,017,36,71,48,290,48,80,18,090,44,85,57,203,48*65
###2023-11-09 13:09:48.043978$GLGSV,2,2,05,86,53,308,47,,,,,,,,,,,,*50
###2023-11-09 13:09:48.046533$GAGSV,1,1,04,07,73,259,45,08,48,043,44,13,63,161,45,26,57,310,45*66
###2023-11-09 13:09:48.049146$GBGSV,2,1,06,11,22,180,42,14,65,009,44,24,21,132,43,26,23,080,42*67
###2023-11-09 13:09:48.051076$GBGSV,2,2,06,28,43,286,46,33,59,305,47,,,,,,,,*67
###2023-11-09 13:09:48.052497$GNVTG,36.09,T,,M,4.70,N,8.71,K,A*12
###2023-11-09 13:09:48.130513$GNGGA,130948.30,3611.0380222,N,07544.9158749,W,1,24,0.6,0.750,M,-39.961,M,0.0,*60
###2023-11-09 13:09:48.133103$GPGSV,2,1,07,05,20,090,42,10,19,293,43,13,24,045,40,15,61,037,46*77
###2023-11-09 13:09:48.135355$GPGSV,2,2,07,18,78,277,47,23,50,316,45,24,50,134,45,,,,*4C
###2023-11-09 13:09:48.137955$GLGSV,2,1,05,70,50,017,36,71,48,290,48,80,18,090,44,85,57,203,48*65
###2023-11-09 13:09:48.139570$GLGSV,2,2,05,86,53,308,47,,,,,,,,,,,,*50
###2023-11-09 13:09:48.142140$GAGSV,1,1,04,07,73,259,45,08,48,043,44,13,63,161,45,26,57,310,45*66
###2023-11-09 13:09:48.144723$GBGSV,2,1,06,11,22,180,42,14,65,009,44,24,21,132,43,26,23,080,42*67
###2023-11-09 13:09:48.146665$GBGSV,2,2,06,28,43,286,46,33,59,305,47,,,,,,,,*67
###2023-11-09 13:09:48.148115$GNVTG,35.95,T,,M,4.57,N,8.46,K,A*15
###2023-11-09 13:09:48.230508$GNGGA,130948.40,3611.0381254,N,07544.9157831,W,1,24,0.6,0.745,M,-39.961,M,0.0,*6C
###2023-11-09 13:09:48.233112$GPGSV,2,1,07,05,20,090,42,10,19,293,44,13,24,045,40,15,61,037,46*70
###2023-11-09 13:09:48.235371$GPGSV,2,2,07,18,78,277,47,23,50,316,45,24,50,134,46,,,,*4F
###2023-11-09 13:09:48.237979$GLGSV,2,1,05,70,50,017,36,71,48,290,48,80,18,090,44,85,57,203,48*65
###2023-11-09 13:09:48.239590$GLGSV,2,2,05,86,53,308,47,,,,,,,,,,,,*50
###2023-11-09 13:09:48.242161$GAGSV,1,1,04,07,73,259,45,08,48,043,44,13,63,161,45,26,57,310,45*66
###2023-11-09 13:09:48.244756$GBGSV,2,1,06,11,22,180,42,14,65,009,44,24,21,132,43,26,23,080,43*66
###2023-11-09 13:09:48.246697$GBGSV,2,2,06,28,43,286,46,33,59,305,47,,,,,,,,*67
###2023-11-09 13:09:48.248143$GNVTG,35.17,T,,M,4.57,N,8.46,K,A*1F
###2023-11-09 13:09:48.330732$GNGGA,130948.50,3611.0382306,N,07544.9156947,W,1,24,0.6,0.748,M,-39.961,M,0.0,*64
###2023-11-09 13:09:48.333309$GPGSV,2,1,07,05,20,090,42,10,19,293,44,13,24,045,40,15,61,037,46*70
###2023-11-09 13:09:48.335562$GPGSV,2,2,07,18,78,277,47,23,50,316,45,24,50,134,46,,,,*4F
###2023-11-09 13:09:48.338137$GLGSV,2,1,05,70,50,017,36,71,48,290,48,80,18,090,44,85,57,203,48*65
###2023-11-09 13:09:48.339736$GLGSV,2,2,05,86,53,308,47,,,,,,,,,,,,*50
###2023-11-09 13:09:48.342299$GAGSV,1,1,04,07,73,259,45,08,48,043,44,13,63,161,45,26,57,310,45*66
###2023-11-09 13:09:48.344870$GBGSV,2,1,06,11,22,180,42,14,65,009,44,24,21,132,43,26,23,080,43*66
###2023-11-09 13:09:48.346798$GBGSV,2,2,06,28,43,286,46,33,59,305,46,,,,,,,,*66
###2023-11-09 13:09:48.348233$GNVTG,32.87,T,,M,4.55,N,8.42,K,A*17
###2023-11-09 13:09:48.429810$GNGGA,130948.60,3611.0383381,N,07544.9156112,W,1,24,0.6,0.752,M,-39.961,M,0.0,*6A
###2023-11-09 13:09:48.432429$GPGSV,2,1,07,05,20,090,42,10,19,293,44,13,24,045,40,15,61,037,46*70
###2023-11-09 13:09:48.434703$GPGSV,2,2,07,18,78,277,47,23,50,316,45,24,50,134,46,,,,*4F
###2023-11-09 13:09:48.437313$GLGSV,2,1,05,70,50,017,36,71,48,290,48,80,18,090,44,85,57,203,48*65
###2023-11-09 13:09:48.438931$GLGSV,2,2,05,86,53,308,47,,,,,,,,,,,,*50
###2023-11-09 13:09:48.441829$GAGSV,1,1,04,07,73,259,45,08,48,043,44,13,63,161,45,26,57,310,45*66
###2023-11-09 13:09:48.444435$GBGSV,2,1,06,11,22,180,42,14,65,009,44,24,21,132,43,26,23,080,43*66
###2023-11-09 13:09:48.446381$GBGSV,2,2,06,28,43,286,46,33,59,305,46,,,,,,,,*66
###2023-11-09 13:09:48.447832$GNVTG,31.16,T,,M,4.55,N,8.42,K,A*1C
###2023-11-09 13:09:48.530401$GNGGA,130948.70,3611.0384466,N,07544.9155297,W,1,24,0.6,0.751,M,-39.961,M,0.0,*6C
###2023-11-09 13:09:48.533017$GPGSV,2,1,07,05,20,090,42,10,19,293,44,13,24,045,40,15,61,037,46*70
###2023-11-09 13:09:48.535290$GPGSV,2,2,07,18,78,277,47,23,50,316,45,24,50,134,46,,,,*4F
###2023-11-09 13:09:48.537889$GLGSV,2,1,05,70,50,017,36,71,48,290,48,80,18,090,44,85,57,203,48*65
###2023-11-09 13:09:48.539512$GLGSV,2,2,05,86,53,308,47,,,,,,,,,,,,*50
