###2023-11-09 13:09:12.842587$GPGSV,2,2,07,18,78,277,47,23,50,316,46,24,50,135,45,,,,*4E
###2023-11-09 13:09:12.845199$GLGSV,2,1,05,70,50,017,36,71,48,290,47,80,18,090,44,85,57,203,48*6A
###2023-11-09 13:09:12.846812$GLGSV,2,2,05,86,53,308,48,,,,,,,,,,,,*5F
###2023-11-09 13:09:12.849425$GAGSV,1,1,04,07,73,259,45,08,48,043,44,13,63,161,45,26,57,310,45*66
###2023-11-09 13:09:12.852017$GBGSV,2,1,06,11,23,180,42,14,65,008,45,24,20,132,44,26,23,081,43*60
###2023-11-09 13:09:12.853964$GBGSV,2,2,06,28,43,287,47,33,59,304,48,,,,,,,,*69
###2023-11-09 13:09:12.855397$GNVTG,49.48,T,,M,3.87,N,7.16,K,A*1E
###2023-11-09 13:09:12.928122$GNGGA,130913.10,3611.0288422,N,07544.9592370,W,1,24,0.6,1.025,M,-39.962,M,0.0,*68
###2023-11-09 13:09:12.930711$GPGSV,2,1,07,05,20,090,43,10,19,293,42,13,24,045,41,15,61,037,46*76
###2023-11-09 13:09:12.932975$GPGSV,2,2,07,18,78,277,47,23,50,316,45,24,50,134,46,,,,*4F
###2023-11-09 13:09:12.935550$GLGSV,2,1,05,70,50,017,36,71,48,290,47,80,18,090,44,85,57,203,48*6A
###2023-11-09 13:09:12.937162$GLGSV,2,2,05,86,53,308,48,,,,,,,,,,,,*5F
###2023-11-09 13:09:12.939725$GAGSV,1,1,04,07,73,259,45,08,48,043,44,13,63,161,45,26,57,310,45*66
###2023-11-09 13:09:12.942302$GBGSV,2,1,06,11,23,180,42,14,65,008,45,24,20,132,44,26,23,081,43*60
###2023-11-09 13:09:12.944229$GBGSV,2,2,06,28,43,287,47,33,59,304,48,,,,,,,,*69
###2023-11-09 13:09:12.945649$GNVTG,43.48,T,,M,3.67,N,6.80,K,A*14
###2023-11-09 13:09:13.031122$GNGGA,130913.20,3611.0289181,N,07544.9591535,W,1,24,0.6,0.957,M,-39.962,M,0.0,*6F
###2023-11-09 13:09:13.033728$GPGSV,2,1,07,05,20,090,43,10,19,293,40,13,24,045,41,15,61,037,45*77
###2023-11-09 13:09:13.035994$GPGSV,2,2,07,18,78,277,47,23,50,316,45,24,50,134,46,,,,*4F
###2023-11-09 13:09:13.038585$GLGSV,2,1,05,70,50,017,36,71,48,290,47,80,18,090,44,85,57,203,49*6B
###2023-11-09 13:09:13.040191$GLGSV,2,2,05,86,53,308,47,,,,,,,,,,,,*50
###2023-11-09 13:09:13.042763$GAGSV,1,1,04,07,73,259,45,08,48,043,44,13,63,161,45,26,57,310,45*66
###2023-11-09 13:09:13.045325$GBGSV,2,1,06,11,23,180,42,14,65,008,44,24,20,132,44,26,23,081,43*61
###2023-11-09 13:09:13.047266$GBGSV,2,2,06,28,43,287,46,33,59,304,47,,,,,,,,*67
###2023-11-09 13:09:13.048688$GNVTG,38.72,T,,M,3.63,N,6.73,K,A*19
###2023-11-09 13:09:13.129248$GNGGA,130913.30,3611.0289997,N,07544.9590789,W,1,24,0.6,0.901,M,-39.962,M,0.0,*66
###2023-11-09 13:09:13.131838$GPGSV,2,1,07,05,20,090,42,10,19,293,41,13,24,045,41,15,61,037,45*77
###2023-11-09 13:09:13.134091$GPGSV,2,2,07,18,78,277,47,23,50,316,45,24,50,134,46,,,,*4F
###2023-11-09 13:09:13.136663$GLGSV,2,1,05,70,50,017,36,71,48,290,47,80,18,090,44,85,57,203,49*6B
###2023-11-09 13:09:13.138298$GLGSV,2,2,05,86,53,308,48,,,,,,,,,,,,*5F
###2023-11-09 13:09:13.140878$GAGSV,1,1,04,07,73,259,45,08,48,043,44,13,63,161,45,26,57,310,45*66
###2023-11-09 13:09:13.143461$GBGSV,2,1,06,11,23,180,42,14,65,008,44,24,20,132,44,26,23,081,44*66
###2023-11-09 13:09:13.145410$GBGSV,2,2,06,28,43,287,46,33,59,304,47,,,,,,,,*67
###2023-11-09 13:09:13.146834$GNVTG,33.46,T,,M,3.67,N,6.80,K,A*1D
###2023-11-09 13:09:13.228110$GNGGA,130913.40,3611.0290850,N,07544.9590078,W,1,24,0.6,0.867,M,-39.962,M,0.0,*6B
###2023-11-09 13:09:13.230683$GPGSV,2,1,07,05,20,090,42,10,19,293,42,13,24,045,41,15,61,037,45*74
###2023-11-09 13:09:13.232933$GPGSV,2,2,07,18,78,277,47,23,50,316,46,24,50,134,46,,,,*4C
###2023-11-09 13:09:13.235489$GLGSV,2,1,05,70,50,017,36,71,48,290,47,80,18,090,44,85,57,203,49*6B
###2023-11-09 13:09:13.237098$GLGSV,2,2,05,86,53,308,49,,,,,,,,,,,,*5E
###2023-11-09 13:09:13.239651$GAGSV,1,1,04,07,73,259,45,08,48,043,44,13,63,161,45,26,57,310,45*66
###2023-11-09 13:09:13.242217$GBGSV,2,1,06,11,23,180,42,14,65,008,44,24,20,132,44,26,23,081,44*66
###2023-11-09 13:09:13.244136$GBGSV,2,2,06,28,43,287,46,33,59,304,47,,,,,,,,*67
###2023-11-09 13:09:13.245556$GNVTG,33.14,T,,M,3.71,N,6.88,K,A*15
###2023-11-09 13:09:13.328261$GNGGA,130913.50,3611.0291673,N,07544.9589302,W,1,24,0.6,0.828,M,-39.962,M,0.0,*69
###2023-11-09 13:09:13.330861$GPGSV,2,1,07,05,20,090,41,10,19,293,43,13,24,045,41,15,61,037,45*76
###2023-11-09 13:09:13.333117$GPGSV,2,2,07,18,78,277,47,23,50,316,46,24,50,134,46,,,,*4C
###2023-11-09 13:09:13.335689$GLGSV,2,1,05,70,50,017,36,71,48,290,48,80,18,090,43,85,57,203,49*63
###2023-11-09 13:09:13.337321$GLGSV,2,2,05,86,53,308,49,,,,,,,,,,,,*5E
###2023-11-09 13:09:13.339899$GAGSV,1,1,04,07,73,259,45,08,48,043,44,13,63,161,45,26,57,310,45*66
###2023-11-09 13:09:13.342476$GBGSV,2,1,06,11,23,180,41,14,65,008,44,24,20,132,44,26,23,081,42*63
###2023-11-09 13:09:13.344420$GBGSV,2,2,06,28,43,287,46,33,59,304,48,,,,,,,,*68
###2023-11-09 13:09:13.345856$GNVTG,40.69,T,,M,3.73,N,6.91,K,A*11
###2023-11-09 13:09:13.429161$GNGGA,130913.60,3611.0292395,N,07544.9588386,W,1,24,0.6,0.793,M,-39.962,M,0.0,*66
###2023-11-09 13:09:13.431755$GPGSV,2,1,07,05,20,090,40,10,19,293,43,13,24,045,41,15,61,037,45*77
###2023-11-09 13:09:13.434008$GPGSV,2,2,07,18,78,277,47,23,50,316,46,24,50,134,46,,,,*4C
###2023-11-09 13:09:13.436577$GLGSV,2,1,05,70,50,017,36,71,48,290,48,80,18,090,43,85,57,203,49*63
###2023-11-09 13:09:13.438196$GLGSV,2,2,05,86,53,308,49,,,,,,,,,,,,*5E
###2023-11-09 13:09:13.440769$GAGSV,1,1,04,07,73,259,45,08,48,043,44,13,63,161,45,26,57,310,45*66
###2023-11-09 13:09:13.443356$GBGSV,2,1,06,11,23,180,41,14,65,008,44,24,20,132,43,26,23,081,42*64
###2023-11-09 13:09:13.445295$GBGSV,2,2,06,28,43,287,45,33,59,304,48,,,,,,,,*6B
###2023-11-09 13:09:13.446726$GNVTG,49.70,T,,M,3.71,N,6.88,K,A*1A
###2023-11-09 13:09:13.528109$GNGGA,130913.70,3611.0293030,N,07544.9587390,W,1,24,0.6,0.748,M,-39.962,M,0.0,*64
###2023-11-09 13:09:13.530684$GPGSV,2,1,07,05,20,090,41,10,19,293,42,13,24,045,41,15,61,037,45*77
###2023-11-09 13:09:13.532929$GPGSV,2,2,07,18,78,277,47,23,50,316,45,24,50,134,46,,,,*4F
###2023-11-09 13:09:13.535492$GLGSV,2,1,05,70,50,017,36,71,48,290,47,80,18,090,44,85,57,203,49*6B
###2023-11-09 13:09:13.537106$GLGSV,2,2,05,86,53,308,49,,,,,,,,,,,,*5E
###2023-11-09 13:09:13.539671$GAGSV,1,1,04,07,73,259,45,08,48,043,44,13,63,161,45,26,57,310,45*66
###2023-11-09 13:09:13.542239$GBGSV,2,1,06,11,23,180,42,14,65,008,44,24,20,132,43,26,23,081,42*67
###2023-11-09 13:09:13.544160$GBGSV,2,2,06,28,43,287,45,33,59,304,48,,,,,,,,*6B
###2023-11-09 13:09:13.545582$GNVTG,52.78,T,,M,3.65,N,6.77,K,A*1D
###2023-11-09 13:09:13.627168$GNGGA,130913.80,3611.0293621,N,07544.9586416,W,1,24,0.6,0.707,M,-39.962,M,0.0,*6E
###2023-11-09 13:09:13.629765$GPGSV,2,1,07,05,20,090,43,10,19,293,42,13,24,045,41,15,61,037,45*75
###2023-11-09 13:09:13.632025$GPGSV,2,2,07,18,78,277,46,23,50,316,45,24,50,134,46,,,,*4E
###2023-11-09 13:09:13.634598$GLGSV,2,1,05,70,50,017,36,71,48,290,47,80,18,090,45,85,57,203,49*6A
###2023-11-09 13:09:13.636208$GLGSV,2,2,05,86,53,308,48,,,,,,,,,,,,*5F
###2023-11-09 13:09:13.638797$GAGSV,1,1,04,07,73,259,45,08,48,043,44,13,63,161,45,26,57,310,44*67
###2023-11-09 13:09:13.641382$GBGSV,2,1,06,11,23,180,43,14,65,008,44,24,20,132,45,26,23,081,44*66
###2023-11-09 13:09:13.643327$GBGSV,2,2,06,28,43,287,46,33,59,304,47,,,,,,,,*67
###2023-11-09 13:09:13.644761$GNVTG,52.30,T,,M,3.42,N,6.34,K,A*13
###2023-11-09 13:09:13.728264$GNGGA,130913.90,3611.0294236,N,07544.9585552,W,1,24,0.6,0.690,M,-39.962,M,0.0,*67
###2023-11-09 13:09:13.730855$GPGSV,2,1,07,05,20,090,43,10,19,293,41,13,24,045,41,15,61,037,45*76
###2023-11-09 13:09:13.733107$GPGSV,2,2,07,18,78,277,46,23,50,316,44,24,50,134,46,,,,*4F
###2023-11-09 13:09:13.735687$GLGSV,2,1,05,70,50,017,36,71,48,290,47,80,18,090,46,85,57,203,49*69
###2023-11-09 13:09:13.737315$GLGSV,2,2,05,86,53,308,47,,,,,,,,,,,,*50
###2023-11-09 13:09:13.739894$GAGSV,1,1,04,07,73,259,45,08,48,043,44,13,63,161,45,26,57,310,43*60
###2023-11-09 13:09:13.742472$GBGSV,2,1,06,11,23,180,43,14,65,008,44,24,20,132,46,26,23,081,44*65
###2023-11-09 13:09:13.744408$GBGSV,2,2,06,28,43,287,46,33,59,304,46,,,,,,,,*66
###2023-11-09 13:09:13.745833$GNVTG,43.81,T,,M,3.29,N,6.08,K,A*1B
###2023-11-09 13:09:13.831986$GNGGA,130914.00,3611.0294941,N,07544.9584832,W,1,24,0.6,0.697,M,-39.962,M,0.0,*6F
###2023-11-09 13:09:13.834578$GPGSV,2,1,07,05,20,090,43,10,19,293,41,13,24,045,41,15,61,037,45*76
###2023-11-09 13:09:13.836827$GPGSV,2,2,07,18,78,277,46,23,50,316,44,24,50,134,47,,,,*4E
###2023-11-09 13:09:13.839723$GLGSV,2,1,05,70,50,017,36,71,48,290,47,80,18,090,46,85,57,203,49*69
###2023-11-09 13:09:13.841334$GLGSV,2,2,05,86,53,308,47,,,,,,,,,,,,*50
###2023-11-09 13:09:13.843914$GAGSV,1,1,04,07,73,259,45,08,48,043,44,13,63,161,45,26,57,310,43*60
###2023-11-09 13:09:13.846501$GBGSV,2,1,06,11,23,180,43,14,65,008,44,24,20,132,45,26,23,081,44*66
###2023-11-09 13:09:13.848458$GBGSV,2,2,06,28,43,287,46,33,59,304,46,,,,,,,,*66
###2023-11-09 13:09:13.849890$GNVTG,34.31,T,,M,3.30,N,6.12,K,A*13
###2023-11-09 13:09:13.930126$GNGGA,130914.10,3611.0295680,N,07544.9584161,W,1,24,0.6,0.708,M,-39.962,M,0.0,*65
###2023-11-09 13:09:13.932729$GPGSV,2,1,07,05,20,090,42,10,19,293,43,13,24,045,40,15,61,037,45*74
###2023-11-09 13:09:13.934989$GPGSV,2,2,07,18,78,277,47,23,50,316,45,24,50,134,46,,,,*4F
