###2023-11-09 13:09:19.448425$GNVTG,55.24,T,,M,1.90,N,3.53,K,A*18
###2023-11-09 13:09:19.529878$GNGGA,130919.70,3611.0326508,N,07544.9536838,W,1,24,0.6,0.896,M,-39.961,M,0.0,*63
###2023-11-09 13:09:19.532471$GPGSV,2,1,07,05,20,090,44,10,19,293,44,13,24,045,39,15,61,037,45*7B
###2023-11-09 13:09:19.534726$GPGSV,2,2,07,18,78,277,46,23,50,316,44,24,50,134,46,,,,*4F
###2023-11-09 13:09:19.537309$GLGSV,2,1,05,70,50,017,35,71,48,290,48,80,18,090,45,85,57,203,49*66
###2023-11-09 13:09:19.538912$GLGSV,2,2,05,86,53,308,46,,,,,,,,,,,,*51
###2023-11-09 13:09:19.541470$GAGSV,1,1,04,07,73,259,45,08,48,043,44,13,63,161,45,26,57,310,43*60
###2023-11-09 13:09:19.544055$GBGSV,2,1,06,11,23,180,43,14,65,008,45,24,20,132,45,26,23,081,42*61
###2023-11-09 13:09:19.546002$GBGSV,2,2,06,28,43,287,46,33,59,304,46,,,,,,,,*66
###2023-11-09 13:09:19.547465$GNVTG,45.38,T,,M,2.06,N,3.82,K,A*14
###2023-11-09 13:09:19.629895$GNGGA,130919.80,3611.0326948,N,07544.9536333,W,1,24,0.6,0.892,M,-39.961,M,0.0,*60
###2023-11-09 13:09:19.632509$GPGSV,2,1,07,05,20,090,43,10,19,293,44,13,24,045,39,15,61,037,45*7C
###2023-11-09 13:09:19.634776$GPGSV,2,2,07,18,78,277,47,23,50,316,44,24,50,134,46,,,,*4E
###2023-11-09 13:09:19.637385$GLGSV,2,1,05,70,50,017,35,71,48,290,48,80,18,090,45,85,57,203,49*66
###2023-11-09 13:09:19.638999$GLGSV,2,2,05,86,53,308,47,,,,,,,,,,,,*50
###2023-11-09 13:09:19.641570$GAGSV,1,1,04,07,73,259,45,08,48,043,44,13,63,161,45,26,57,310,44*67
###2023-11-09 13:09:19.644160$GBGSV,2,1,06,11,23,180,42,14,65,008,45,24,20,132,44,26,23,081,42*61
###2023-11-09 13:09:19.646105$GBGSV,2,2,06,28,43,287,46,33,59,304,46,,,,,,,,*66
###2023-11-09 13:09:19.647549$GNVTG,40.48,T,,M,2.29,N,4.25,K,A*11
###2023-11-09 13:09:19.730097$GNGGA,130919.90,3611.0327415,N,07544.9535801,W,1,24,0.6,0.891,M,-39.961,M,0.0,*6F
###2023-11-09 13:09:19.732690$GPGSV,2,1,07,05,20,090,42,10,19,293,44,13,24,045,40,15,61,037,45*73
###2023-11-09 13:09:19.734949$GPGSV,2,2,07,18,78,277,47,23,50,316,44,24,50,134,46,,,,*4E
###2023-11-09 13:09:19.737542$GLGSV,2,1,05,70,50,017,35,71,48,290,48,80,18,090,44,85,57,203,48*66
###2023-11-09 13:09:19.739161$GLGSV,2,2,05,86,53,308,47,,,,,,,,,,,,*50
###2023-11-09 13:09:19.741738$GAGSV,1,1,04,07,73,259,45,08,48,043,44,13,63,161,45,26,57,310,44*67
###2023-11-09 13:09:19.744322$GBGSV,2,1,06,11,23,180,42,14,65,008,45,24,20,132,43,26,23,081,42*66
###2023-11-09 13:09:19.746259$GBGSV,2,2,06,28,43,287,46,33,59,304,47,,,,,,,,*67
###2023-11-09 13:09:19.747708$GNVTG,44.64,T,,M,2.33,N,4.32,K,A*16
###2023-11-09 13:09:19.831981$GNGGA,130920.00,3611.0327830,N,07544.9535214,W,1,24,0.6,0.887,M,-39.961,M,0.0,*6E
###2023-11-09 13:09:19.834591$GPGSV,2,1,07,05,20,090,41,10,19,293,44,13,24,045,40,15,61,037,45*70
###2023-11-09 13:09:19.836840$GPGSV,2,2,07,18,78,277,47,23,50,316,45,24,50,134,45,,,,*4C
###2023-11-09 13:09:19.839431$GLGSV,2,1,05,70,50,017,35,71,48,290,48,80,18,090,42,85,57,203,48*60
###2023-11-09 13:09:19.841041$GLGSV,2,2,05,86,53,308,48,,,,,,,,,,,,*5F
###2023-11-09 13:09:19.843610$GAGSV,1,1,04,07,73,259,45,08,48,043,45,13,63,161,45,26,57,310,44*66
###2023-11-09 13:09:19.846192$GBGSV,2,1,06,11,23,180,41,14,65,008,45,24,20,132,42,26,23,081,42*64
###2023-11-09 13:09:19.848153$GBGSV,2,2,06,28,43,287,46,33,59,304,47,,,,,,,,*67
###2023-11-09 13:09:19.849596$GNVTG,53.01,T,,M,2.27,N,4.21,K,A*14
###2023-11-09 13:09:19.938154$GNGGA,130920.10,3611.0328153,N,07544.9534555,W,1,24,0.6,0.867,M,-39.961,M,0.0,*61
###2023-11-09 13:09:19.940772$GPGSV,2,1,07,05,20,090,41,10,19,293,44,13,24,045,40,15,61,037,45*70
###2023-11-09 13:09:19.943040$GPGSV,2,2,07,18,78,277,47,23,50,316,44,24,50,134,45,,,,*4D
###2023-11-09 13:09:19.945624$GLGSV,2,1,05,70,50,017,35,71,48,290,48,80,18,090,42,85,57,203,48*60
###2023-11-09 13:09:19.947253$GLGSV,2,2,05,86,53,308,47,,,,,,,,,,,,*50
###2023-11-09 13:09:19.949839$GAGSV,1,1,04,07,73,259,45,08,48,043,45,13,63,161,45,26,57,310,44*66
###2023-11-09 13:09:19.952434$GBGSV,2,1,06,11,23,180,40,14,65,008,45,24,20,132,41,26,23,081,42*66
###2023-11-09 13:09:19.954387$GBGSV,2,2,06,28,43,287,46,33,59,304,47,,,,,,,,*67
###2023-11-09 13:09:19.955837$GNVTG,64.18,T,,M,2.27,N,4.21,K,A*18
###2023-11-09 13:09:20.032874$GNGGA,130920.20,3611.0328370,N,07544.9533842,W,1,24,0.6,0.838,M,-39.961,M,0.0,*67
###2023-11-09 13:09:20.035476$GPGSV,2,1,07,05,20,090,41,10,19,293,43,13,24,045,40,15,61,037,45*77
###2023-11-09 13:09:20.037750$GPGSV,2,2,07,18,78,277,47,23,50,316,44,24,50,134,45,,,,*4D
###2023-11-09 13:09:20.040334$GLGSV,2,1,05,70,50,017,35,71,48,290,48,80,18,090,42,85,57,203,48*60
###2023-11-09 13:09:20.041943$GLGSV,2,2,05,86,53,308,47,,,,,,,,,,,,*50
###2023-11-09 13:09:20.044516$GAGSV,1,1,04,07,73,259,45,08,48,043,45,13,63,161,45,26,57,310,44*66
###2023-11-09 13:09:20.047105$GBGSV,2,1,06,11,23,180,40,14,65,008,45,24,20,132,42,26,23,081,42*65
###2023-11-09 13:09:20.049042$GBGSV,2,2,06,28,43,287,46,33,59,304,47,,,,,,,,*67
###2023-11-09 13:09:20.050469$GNVTG,74.30,T,,M,2.22,N,4.10,K,A*14
###2023-11-09 13:09:20.133588$GNGGA,130920.30,3611.0328520,N,07544.9533118,W,1,24,0.6,0.803,M,-39.961,M,0.0,*6B
###2023-11-09 13:09:20.136163$GPGSV,2,1,07,05,20,090,41,10,19,293,43,13,24,045,40,15,61,037,45*77
###2023-11-09 13:09:20.138423$GPGSV,2,2,07,18,78,277,47,23,50,316,44,24,50,134,45,,,,*4D
###2023-11-09 13:09:20.140981$GLGSV,2,1,05,70,50,017,35,71,48,290,48,80,18,090,43,85,57,203,48*61
###2023-11-09 13:09:20.142585$GLGSV,2,2,05,86,53,308,47,,,,,,,,,,,,*50
###2023-11-09 13:09:20.145148$GAGSV,1,1,04,07,73,259,45,08,48,043,45,13,63,161,45,26,57,310,43*61
###2023-11-09 13:09:20.147725$GBGSV,2,1,06,11,23,180,41,14,65,008,45,24,20,132,43,26,23,081,42*65
###2023-11-09 13:09:20.149651$GBGSV,2,2,06,28,43,287,46,33,59,304,46,,,,,,,,*66
###2023-11-09 13:09:20.151069$GNVTG,76.08,T,,M,2.18,N,4.03,K,A*16
###2023-11-09 13:09:20.229876$GNGGA,130920.40,3611.0328678,N,07544.9532401,W,1,24,0.6,0.759,M,-39.961,M,0.0,*6E
###2023-11-09 13:09:20.232470$GPGSV,2,1,07,05,20,090,41,10,19,293,42,13,24,045,40,15,61,037,45*76
###2023-11-09 13:09:20.234726$GPGSV,2,2,07,18,78,277,47,23,50,316,44,24,50,134,46,,,,*4E
###2023-11-09 13:09:20.237320$GLGSV,2,1,05,70,50,017,35,71,48,290,47,80,18,090,44,85,57,203,49*68
###2023-11-09 13:09:20.238934$GLGSV,2,2,05,86,53,308,47,,,,,,,,,,,,*50
###2023-11-09 13:09:20.241493$GAGSV,1,1,04,07,73,259,45,08,48,043,44,13,63,161,45,26,57,310,43*60
###2023-11-09 13:09:20.244068$GBGSV,2,1,06,11,23,180,42,14,65,008,44,24,20,132,45,26,23,081,42*61
###2023-11-09 13:09:20.246007$GBGSV,2,2,06,28,43,287,46,33,59,304,46,,,,,,,,*66
###2023-11-09 13:09:20.247443$GNVTG,73.07,T,,M,2.20,N,4.07,K,A*13
###2023-11-09 13:09:20.338014$GNGGA,130920.50,3611.0328914,N,07544.9531672,W,1,24,0.6,0.726,M,-39.961,M,0.0,*67
###2023-11-09 13:09:20.340624$GPGSV,2,1,07,05,20,090,42,10,19,293,42,13,24,045,40,15,61,037,45*75
###2023-11-09 13:09:20.342883$GPGSV,2,2,07,18,78,277,47,23,50,316,44,24,50,134,46,,,,*4E
###2023-11-09 13:09:20.345461$GLGSV,2,1,05,70,50,017,35,71,48,290,47,80,18,090,43,85,57,203,49*6F
###2023-11-09 13:09:20.347076$GLGSV,2,2,05,86,53,308,46,,,,,,,,,,,,*51
###2023-11-09 13:09:20.349658$GAGSV,1,1,04,07,73,259,44,08,48,043,44,13,63,161,45,26,57,310,43*61
###2023-11-09 13:09:20.352265$GBGSV,2,1,06,11,23,180,42,14,65,008,44,24,20,132,45,26,23,081,42*61
###2023-11-09 13:09:20.354220$GBGSV,2,2,06,28,43,287,46,33,59,304,46,,,,,,,,*66
###2023-11-09 13:09:20.355655$GNVTG,63.80,T,,M,2.43,N,4.50,K,A*1A
###2023-11-09 13:09:20.429529$GNGGA,130920.60,3611.0329238,N,07544.9530934,W,1,24,0.6,0.714,M,-39.961,M,0.0,*6D
###2023-11-09 13:09:20.432114$GPGSV,2,1,07,05,20,090,42,10,19,293,42,13,24,045,40,15,61,037,45*75
###2023-11-09 13:09:20.434364$GPGSV,2,2,07,18,78,277,46,23,50,316,44,24,50,134,46,,,,*4F
###2023-11-09 13:09:20.436943$GLGSV,2,1,05,70,50,017,35,71,48,290,48,80,18,090,43,85,57,203,49*60
###2023-11-09 13:09:20.438549$GLGSV,2,2,05,86,53,308,46,,,,,,,,,,,,*51
###2023-11-09 13:09:20.441106$GAGSV,1,1,04,07,73,259,45,08,48,043,44,13,63,161,45,26,57,310,43*60
###2023-11-09 13:09:20.443676$GBGSV,2,1,06,11,23,180,42,14,65,008,44,24,20,132,45,26,23,081,42*61
###2023-11-09 13:09:20.445609$GBGSV,2,2,06,28,43,287,46,33,59,304,46,,,,,,,,*66
###2023-11-09 13:09:20.447050$GNVTG,58.85,T,,M,2.51,N,4.64,K,A*13
###2023-11-09 13:09:20.530077$GNGGA,130920.70,3611.0329562,N,07544.9530192,W,1,24,0.6,0.704,M,-39.961,M,0.0,*61
###2023-11-09 13:09:20.532751$GPGSV,2,1,07,05,20,090,41,10,19,293,44,13,24,045,40,15,61,037,45*70
###2023-11-09 13:09:20.535086$GPGSV,2,2,07,18,78,277,47,23,50,316,44,24,50,134,46,,,,*4E
###2023-11-09 13:09:20.537755$GLGSV,2,1,05,70,50,017,35,71,48,290,48,80,18,090,42,85,57,203,48*60
###2023-11-09 13:09:20.539422$GLGSV,2,2,05,86,53,308,47,,,,,,,,,,,,*50
###2023-11-09 13:09:20.542057$GAGSV,1,1,04,07,73,259,45,08,48,043,44,13,63,161,45,26,57,310,43*60
###2023-11-09 13:09:20.544702$GBGSV,2,1,06,11,23,180,41,14,65,008,44,24,20,132,43,26,23,081,42*64
###2023-11-09 13:09:20.546698$GBGSV,2,2,06,28,43,287,46,33,59,304,46,,,,,,,,*66
###2023-11-09 13:09:20.548210$GNVTG,64.23,T,,M,2.45,N,4.54,K,A*16
