###2023-11-09 13:08:30.533322$GPGSV,2,1,07,05,20,090,42,10,19,293,43,13,24,045,43,15,61,037,46*74
###2023-11-09 13:08:30.535633$GPGSV,2,2,07,18,77,281,46,23,50,315,46,24,49,136,45,,,,*41
###2023-11-09 13:08:30.538285$GLGSV,2,1,05,70,50,017,36,71,48,290,49,80,18,090,45,85,57,203,49*64
###2023-11-09 13:08:30.539918$GLGSV,2,2,05,86,53,308,48,,,,,,,,,,,,*5F
###2023-11-09 13:08:30.542505$GAGSV,1,1,04,07,72,258,45,08,48,043,45,13,64,160,44,26,57,310,45*60
###2023-11-09 13:08:30.545091$GBGSV,2,1,06,11,23,180,40,14,65,008,45,24,20,132,43,26,23,081,44*62
###2023-11-09 13:08:30.547051$GBGSV,2,2,06,28,43,287,47,33,59,304,47,,,,,,,,*66
###2023-11-09 13:08:30.548529$GNVTG,195.12,T,,M,4.78,N,8.86,K,A*20
###2023-11-09 13:08:30.629411$GNGGA,130830.80,3611.0267572,N,07545.0207866,W,1,24,0.6,0.784,M,-39.962,M,0.0,*66
###2023-11-09 13:08:30.632010$GPGSV,2,1,07,05,20,090,43,10,19,293,42,13,24,045,43,15,61,037,46*74
###2023-11-09 13:08:30.634271$GPGSV,2,2,07,18,77,281,46,23,50,315,46,24,49,136,45,,,,*41
###2023-11-09 13:08:30.636849$GLGSV,2,1,05,70,50,017,36,71,48,290,48,80,18,090,45,85,57,203,49*65
###2023-11-09 13:08:30.638471$GLGSV,2,2,05,86,53,308,48,,,,,,,,,,,,*5F
###2023-11-09 13:08:30.641046$GAGSV,1,1,04,07,72,258,45,08,48,043,45,13,64,160,44,26,57,310,45*60
###2023-11-09 13:08:30.643632$GBGSV,2,1,06,11,23,180,40,14,65,008,45,24,20,132,44,26,23,081,45*64
###2023-11-09 13:08:30.645562$GBGSV,2,2,06,28,43,287,47,33,59,304,47,,,,,,,,*66
###2023-11-09 13:08:30.647044$GNVTG,196.34,T,,M,4.94,N,9.14,K,A*2F
###2023-11-09 13:08:30.730258$GNGGA,130830.90,3611.0266244,N,07545.0208342,W,1,24,0.6,0.776,M,-39.962,M,0.0,*6B
###2023-11-09 13:08:30.732862$GPGSV,2,1,07,05,20,090,44,10,19,293,42,13,24,045,43,15,61,037,46*73
###2023-11-09 13:08:30.735134$GPGSV,2,2,07,18,77,281,46,23,50,315,46,24,49,136,45,,,,*41
###2023-11-09 13:08:30.737737$GLGSV,2,1,05,70,50,017,36,71,48,290,48,80,18,090,46,85,57,203,49*66
###2023-11-09 13:08:30.739355$GLGSV,2,2,05,86,53,308,48,,,,,,,,,,,,*5F
###2023-11-09 13:08:30.741943$GAGSV,1,1,04,07,72,258,45,08,48,043,45,13,64,160,44,26,57,310,45*60
###2023-11-09 13:08:30.744534$GBGSV,2,1,06,11,23,180,40,14,65,008,45,24,20,132,45,26,23,081,45*65
###2023-11-09 13:08:30.746474$GBGSV,2,2,06,28,43,287,46,33,59,304,47,,,,,,,,*67
###2023-11-09 13:08:30.747959$GNVTG,196.01,T,,M,5.00,N,9.25,K,A*27
###2023-11-09 13:08:30.832371$GNGGA,130831.00,3611.0264892,N,07545.0208840,W,1,24,0.6,0.768,M,-39.962,M,0.0,*66
###2023-11-09 13:08:30.834977$GPGSV,2,1,07,05,20,090,44,10,19,293,43,13,24,045,43,15,61,037,46*72
###2023-11-09 13:08:30.837254$GPGSV,2,2,07,18,77,281,46,23,50,315,46,24,49,136,46,,,,*42
###2023-11-09 13:08:30.839848$GLGSV,2,1,05,70,50,017,36,71,48,290,48,80,18,090,46,85,57,203,49*66
###2023-11-09 13:08:30.841459$GLGSV,2,2,05,86,53,308,48,,,,,,,,,,,,*5F
###2023-11-09 13:08:30.844055$GAGSV,1,1,04,07,72,258,45,08,48,043,45,13,64,160,44,26,57,310,45*60
###2023-11-09 13:08:30.846647$GBGSV,2,1,06,11,23,180,40,14,65,008,45,24,20,132,44,26,23,081,45*64
###2023-11-09 13:08:30.848614$GBGSV,2,2,06,28,43,287,46,33,59,304,47,,,,,,,,*67
###2023-11-09 13:08:30.850082$GNVTG,196.65,T,,M,5.13,N,9.50,K,A*25
###2023-11-09 13:08:30.930484$GNGGA,130831.10,3611.0263526,N,07545.0209348,W,1,24,0.6,0.755,M,-39.962,M,0.0,*6E
###2023-11-09 13:08:30.933065$GPGSV,2,1,07,05,20,090,44,10,19,293,44,13,24,045,43,15,61,037,46*75
###2023-11-09 13:08:30.935318$GPGSV,2,2,07,18,78,277,46,23,50,315,46,24,49,136,46,,,,*44
###2023-11-09 13:08:30.937905$GLGSV,2,1,05,70,50,017,36,71,48,290,48,80,18,090,46,85,57,203,49*66
###2023-11-09 13:08:30.939511$GLGSV,2,2,05,86,53,308,48,,,,,,,,,,,,*5F
###2023-11-09 13:08:30.942078$GAGSV,1,1,04,07,72,258,45,08,48,043,45,13,64,160,44,26,57,310,45*60
###2023-11-09 13:08:30.944649$GBGSV,2,1,06,11,23,180,40,14,65,008,45,24,20,132,44,26,23,081,45*64
###2023-11-09 13:08:30.946582$GBGSV,2,2,06,28,43,287,47,33,59,304,47,,,,,,,,*66
###2023-11-09 13:08:30.948052$GNVTG,196.40,T,,M,5.09,N,9.43,K,A*2B
###2023-11-09 13:08:31.032504$GNGGA,130831.20,3611.0262147,N,07545.0209788,W,1,24,0.6,0.739,M,-39.962,M,0.0,*6D
###2023-11-09 13:08:31.035110$GPGSV,2,1,07,05,20,090,42,10,19,293,45,13,24,045,43,15,61,037,46*72
###2023-11-09 13:08:31.037412$GPGSV,2,2,07,18,78,277,46,23,50,315,46,24,49,136,46,,,,*44
###2023-11-09 13:08:31.040015$GLGSV,2,1,05,70,50,017,36,71,48,290,48,80,18,090,45,85,57,203,49*65
###2023-11-09 13:08:31.041645$GLGSV,2,2,05,86,53,308,48,,,,,,,,,,,,*5F
###2023-11-09 13:08:31.044225$GAGSV,1,1,04,07,72,258,45,08,48,043,45,13,64,160,44,26,57,310,45*60
###2023-11-09 13:08:31.046809$GBGSV,2,1,06,11,23,180,40,14,65,008,45,24,20,132,43,26,23,081,44*62
###2023-11-09 13:08:31.048767$GBGSV,2,2,06,28,43,287,47,33,59,304,47,,,,,,,,*66
###2023-11-09 13:08:31.050242$GNVTG,192.27,T,,M,5.13,N,9.50,K,A*27
###2023-11-09 13:08:31.130139$GNGGA,130831.30,3611.0260753,N,07545.0210119,W,1,24,0.6,0.729,M,-39.962,M,0.0,*6A
###2023-11-09 13:08:31.132745$GPGSV,2,1,07,05,20,090,41,10,19,293,45,13,24,045,43,15,61,037,46*71
###2023-11-09 13:08:31.135011$GPGSV,2,2,07,18,78,277,46,23,50,315,46,24,49,136,46,,,,*44
###2023-11-09 13:08:31.137618$GLGSV,2,1,05,70,50,017,36,71,48,290,49,80,18,090,44,85,57,203,49*65
###2023-11-09 13:08:31.139227$GLGSV,2,2,05,86,53,308,48,,,,,,,,,,,,*5F
###2023-11-09 13:08:31.141792$GAGSV,1,1,04,07,72,258,45,08,48,043,45,13,64,160,44,26,57,310,45*60
###2023-11-09 13:08:31.144380$GBGSV,2,1,06,11,23,180,40,14,65,008,45,24,20,132,43,26,23,081,44*62
###2023-11-09 13:08:31.146318$GBGSV,2,2,06,28,43,287,47,33,59,304,48,,,,,,,,*69
###2023-11-09 13:08:31.147800$GNVTG,189.01,T,,M,5.07,N,9.40,K,A*2D
###2023-11-09 13:08:31.229494$GNGGA,130831.40,3611.0259344,N,07545.0210346,W,1,24,0.6,0.731,M,-39.962,M,0.0,*64
###2023-11-09 13:08:31.232077$GPGSV,2,1,07,05,20,090,41,10,19,293,45,13,24,045,43,15,61,037,46*71
###2023-11-09 13:08:31.234321$GPGSV,2,2,07,18,78,277,46,23,50,315,46,24,49,136,46,,,,*44
###2023-11-09 13:08:31.236886$GLGSV,2,1,05,70,50,017,36,71,48,290,49,80,18,090,44,85,57,203,49*65
###2023-11-09 13:08:31.238506$GLGSV,2,2,05,86,53,308,48,,,,,,,,,,,,*5F
###2023-11-09 13:08:31.241067$GAGSV,1,1,04,07,72,258,45,08,48,043,45,13,64,160,44,26,57,310,45*60
###2023-11-09 13:08:31.243643$GBGSV,2,1,06,11,23,180,40,14,65,008,45,24,20,132,43,26,23,081,44*62
###2023-11-09 13:08:31.245574$GBGSV,2,2,06,28,43,287,47,33,59,304,48,,,,,,,,*69
###2023-11-09 13:08:31.247040$GNVTG,185.52,T,,M,5.15,N,9.54,K,A*21
###2023-11-09 13:08:31.328763$GNGGA,130831.50,3611.0257928,N,07545.0210512,W,1,24,0.6,0.742,M,-39.962,M,0.0,*68
###2023-11-09 13:08:31.331374$GPGSV,2,1,07,05,20,090,41,10,19,293,45,13,24,045,43,15,61,037,46*71
###2023-11-09 13:08:31.333647$GPGSV,2,2,07,18,78,277,46,23,50,315,46,24,49,136,46,,,,*44
###2023-11-09 13:08:31.336231$GLGSV,2,1,05,70,50,017,36,71,48,290,49,80,18,090,44,85,57,203,49*65
###2023-11-09 13:08:31.337857$GLGSV,2,2,05,86,53,308,48,,,,,,,,,,,,*5F
###2023-11-09 13:08:31.340444$GAGSV,1,1,04,07,72,258,45,08,48,043,45,13,64,160,44,26,57,310,45*60
###2023-11-09 13:08:31.343036$GBGSV,2,1,06,11,23,180,39,14,65,008,45,24,20,132,43,26,23,081,44*6C
###2023-11-09 13:08:31.344978$GBGSV,2,2,06,28,43,287,47,33,59,304,48,,,,,,,,*69
###2023-11-09 13:08:31.346450$GNVTG,184.99,T,,M,5.07,N,9.40,K,A*21
###2023-11-09 13:08:31.430218$GNGGA,130831.60,3611.0256505,N,07545.0210693,W,1,24,0.6,0.750,M,-39.962,M,0.0,*60
###2023-11-09 13:08:31.432800$GPGSV,2,1,07,05,20,090,43,10,19,293,45,13,24,045,43,15,61,037,46*73
###2023-11-09 13:08:31.435043$GPGSV,2,2,07,18,78,277,46,23,50,315,46,24,49,136,46,,,,*44
###2023-11-09 13:08:31.437622$GLGSV,2,1,05,70,50,017,36,71,48,290,49,80,18,090,45,85,57,203,49*64
###2023-11-09 13:08:31.439241$GLGSV,2,2,05,86,53,308,48,,,,,,,,,,,,*5F
###2023-11-09 13:08:31.441826$GAGSV,1,1,04,07,72,258,45,08,48,043,45,13,64,160,44,26,57,310,45*60
###2023-11-09 13:08:31.444416$GBGSV,2,1,06,11,23,180,39,14,65,008,45,24,20,132,43,26,23,081,44*6C
###2023-11-09 13:08:31.446357$GBGSV,2,2,06,28,43,287,47,33,59,304,47,,,,,,,,*66
###2023-11-09 13:08:31.447838$GNVTG,186.30,T,,M,5.21,N,9.65,K,A*23
###2023-11-09 13:08:31.529143$GNGGA,130831.70,3611.0255070,N,07545.0210909,W,1,24,0.6,0.756,M,-39.962,M,0.0,*6F
###2023-11-09 13:08:31.532026$GPGSV,2,1,07,05,20,090,43,10,19,293,45,13,24,045,43,15,61,037,46*73
###2023-11-09 13:08:31.534285$GPGSV,2,2,07,18,78,277,46,23,50,315,46,24,49,136,46,,,,*44
###2023-11-09 13:08:31.536866$GLGSV,2,1,05,70,50,017,36,71,48,290,49,80,18,090,45,85,57,203,49*64
###2023-11-09 13:08:31.538504$GLGSV,2,2,05,86,53,308,48,,,,,,,,,,,,*5F
###2023-11-09 13:08:31.541090$GAGSV,1,1,04,07,72,258,45,08,48,043,45,13,64,160,44,26,57,310,45*60
###2023-11-09 13:08:31.543671$GBGSV,2,1,06,11,23,180,39,14,65,008,45,24,20,132,43,26,23,081,44*6C
###2023-11-09 13:08:31.545606$GBGSV,2,2,06,28,43,287,47,33,59,304,47,,,,,,,,*66
###2023-11-09 13:08:31.547090$GNVTG,187.19,T,,M,5.19,N,9.61,K,A*26
###2023-11-09 13:08:31.629400$GNGGA,130831.80,3611.0253643,N,07545.0211103,W,1,24,0.6,0.765,M,-39.962,M,0.0,*63
###2023-11-09 13:08:31.632016$GPGSV,2,1,07,05,20,090,43,10,19,293,44,13,24,045,43,15,61,037,46*72
