###2023-11-09 13:09:54.133081$GPGSV,2,1,07,05,20,090,42,10,19,293,41,13,24,045,41,15,61,037,46*74
###2023-11-09 13:09:54.135358$GPGSV,2,2,07,18,78,277,47,23,50,316,45,24,50,134,46,,,,*4F
###2023-11-09 13:09:54.138002$GLGSV,2,1,05,70,49,019,36,71,48,291,47,80,18,090,44,85,57,203,49*6C
###2023-11-09 13:09:54.139632$GLGSV,2,2,05,86,53,308,47,,,,,,,,,,,,*50
###2023-11-09 13:09:54.142203$GAGSV,1,1,04,07,73,259,46,08,48,043,44,13,63,161,46,26,57,310,45*66
###2023-11-09 13:09:54.144787$GBGSV,2,1,06,11,22,180,41,14,65,009,44,24,21,132,43,26,23,080,43*65
###2023-11-09 13:09:54.146723$GBGSV,2,2,06,28,43,286,47,33,59,305,47,,,,,,,,*66
###2023-11-09 13:09:54.148203$GNVTG,41.38,T,,M,4.72,N,8.75,K,A*16
###2023-11-09 13:09:54.232011$GNGGA,130954.40,3611.0435921,N,07544.9084885,W,1,24,0.6,0.814,M,-39.961,M,0.0,*6B
###2023-11-09 13:09:54.234615$GPGSV,2,1,07,05,20,090,42,10,19,293,41,13,24,045,42,15,61,037,46*77
###2023-11-09 13:09:54.236886$GPGSV,2,2,07,18,78,277,46,23,50,316,45,24,50,134,46,,,,*4E
###2023-11-09 13:09:54.239487$GLGSV,2,1,05,70,49,019,36,71,48,291,47,80,18,090,44,85,57,203,49*6C
###2023-11-09 13:09:54.241101$GLGSV,2,2,05,86,53,308,47,,,,,,,,,,,,*50
###2023-11-09 13:09:54.243671$GAGSV,1,1,04,07,73,259,45,08,48,043,44,13,63,161,46,26,57,310,45*65
###2023-11-09 13:09:54.246252$GBGSV,2,1,06,11,22,180,41,14,65,009,44,24,21,132,44,26,23,080,43*62
###2023-11-09 13:09:54.248198$GBGSV,2,2,06,28,43,286,46,33,59,305,48,,,,,,,,*68
###2023-11-09 13:09:54.249640$GNVTG,44.79,T,,M,4.72,N,8.75,K,A*16
###2023-11-09 13:09:54.331120$GNGGA,130954.50,3611.0436830,N,07544.9083729,W,1,24,0.6,0.741,M,-39.961,M,0.0,*69
###2023-11-09 13:09:54.333707$GPGSV,2,1,07,05,20,090,43,10,19,293,41,13,24,045,42,15,61,037,45*75
###2023-11-09 13:09:54.335951$GPGSV,2,2,07,18,78,277,46,23,50,316,45,24,50,134,46,,,,*4E
###2023-11-09 13:09:54.338535$GLGSV,2,1,05,70,49,019,35,71,48,291,47,80,18,090,45,85,57,203,49*6E
###2023-11-09 13:09:54.340144$GLGSV,2,2,05,86,53,308,47,,,,,,,,,,,,*50
###2023-11-09 13:09:54.342709$GAGSV,1,1,04,07,73,259,45,08,48,043,44,13,63,161,46,26,57,310,45*65
###2023-11-09 13:09:54.345278$GBGSV,2,1,06,11,22,180,43,14,65,009,44,24,21,132,45,26,23,080,43*61
###2023-11-09 13:09:54.347215$GBGSV,2,2,06,28,43,286,46,33,59,305,47,,,,,,,,*67
###2023-11-09 13:09:54.348640$GNVTG,47.49,T,,M,4.68,N,8.68,K,A*11
###2023-11-09 13:09:54.430257$GNGGA,130954.60,3611.0437699,N,07544.9082538,W,1,24,0.6,0.679,M,-39.961,M,0.0,*6F
###2023-11-09 13:09:54.432864$GPGSV,2,1,07,05,20,090,43,10,19,293,41,13,24,045,42,15,61,037,46*76
###2023-11-09 13:09:54.435127$GPGSV,2,2,07,18,78,277,47,23,50,316,45,24,50,134,46,,,,*4F
###2023-11-09 13:09:54.437776$GLGSV,2,1,05,70,49,019,35,71,48,291,47,80,18,090,45,85,57,203,49*6E
###2023-11-09 13:09:54.439393$GLGSV,2,2,05,86,53,308,47,,,,,,,,,,,,*50
###2023-11-09 13:09:54.441980$GAGSV,1,1,04,07,73,259,45,08,48,043,44,13,63,161,46,26,57,310,45*65
###2023-11-09 13:09:54.444571$GBGSV,2,1,06,11,22,180,44,14,65,009,44,24,21,132,46,26,23,080,43*65
###2023-11-09 13:09:54.446524$GBGSV,2,2,06,28,43,286,46,33,59,305,47,,,,,,,,*67
###2023-11-09 13:09:54.447976$GNVTG,48.87,T,,M,4.68,N,8.68,K,A*1C
###2023-11-09 13:09:54.532150$GNGGA,130954.70,3611.0438573,N,07544.9081339,W,1,24,0.6,0.645,M,-39.961,M,0.0,*6D
###2023-11-09 13:09:54.534777$GPGSV,2,1,07,05,20,090,43,10,19,293,41,13,24,045,42,15,61,037,46*76
###2023-11-09 13:09:54.537074$GPGSV,2,2,07,18,78,277,47,23,50,316,45,24,50,134,46,,,,*4F
###2023-11-09 13:09:54.539666$GLGSV,2,1,05,70,49,019,35,71,48,291,47,80,18,090,45,85,57,203,49*6E
###2023-11-09 13:09:54.541280$GLGSV,2,2,05,86,53,308,47,,,,,,,,,,,,*50
###2023-11-09 13:09:54.543869$GAGSV,1,1,04,07,73,259,45,08,48,043,44,13,63,161,46,26,57,310,45*65
###2023-11-09 13:09:54.546467$GBGSV,2,1,06,11,22,180,43,14,65,009,44,24,21,132,45,26,23,080,43*61
###2023-11-09 13:09:54.548429$GBGSV,2,2,06,28,43,286,46,33,59,305,48,,,,,,,,*68
###2023-11-09 13:09:54.549867$GNVTG,47.46,T,,M,4.74,N,8.78,K,A*12
###2023-11-09 13:09:54.630520$GNGGA,130954.80,3611.0439496,N,07544.9080142,W,1,24,0.6,0.633,M,-39.961,M,0.0,*67
###2023-11-09 13:09:54.633120$GPGSV,2,1,07,05,20,090,43,10,19,293,43,13,24,045,42,15,61,037,46*74
###2023-11-09 13:09:54.635378$GPGSV,2,2,07,18,78,277,47,23,50,316,45,24,50,134,46,,,,*4F
###2023-11-09 13:09:54.637979$GLGSV,2,1,05,70,49,019,35,71,48,291,48,80,18,090,45,85,57,203,49*61
###2023-11-09 13:09:54.639592$GLGSV,2,2,05,86,53,308,48,,,,,,,,,,,,*5F
###2023-11-09 13:09:54.642159$GAGSV,1,1,04,07,73,259,45,08,48,043,44,13,63,161,46,26,57,310,45*65
###2023-11-09 13:09:54.644731$GBGSV,2,1,06,11,22,180,43,14,65,009,44,24,21,132,45,26,23,080,43*61
###2023-11-09 13:09:54.646665$GBGSV,2,2,06,28,43,286,47,33,59,305,48,,,,,,,,*69
###2023-11-09 13:09:54.648136$GNVTG,45.87,T,,M,4.92,N,9.11,K,A*1B
###2023-11-09 13:09:54.730378$GNGGA,130954.90,3611.0440438,N,07544.9078909,W,1,24,0.6,0.634,M,-39.961,M,0.0,*6B
###2023-11-09 13:09:54.732979$GPGSV,2,1,07,05,20,090,43,10,19,293,44,13,24,045,42,15,61,037,46*73
###2023-11-09 13:09:54.735241$GPGSV,2,2,07,18,78,277,47,23,50,316,46,24,50,134,45,,,,*4F
###2023-11-09 13:09:54.737837$GLGSV,2,1,05,70,49,019,35,71,48,291,48,80,18,090,44,85,57,203,49*60
###2023-11-09 13:09:54.739450$GLGSV,2,2,05,86,53,308,48,,,,,,,,,,,,*5F
###2023-11-09 13:09:54.742012$GAGSV,1,1,04,07,73,259,46,08,48,043,44,13,63,161,45,26,57,310,45*65
###2023-11-09 13:09:54.744584$GBGSV,2,1,06,11,22,180,42,14,65,009,44,24,21,132,44,26,23,080,43*61
###2023-11-09 13:09:54.746515$GBGSV,2,2,06,28,43,286,47,33,59,305,48,,,,,,,,*69
###2023-11-09 13:09:54.747956$GNVTG,47.76,T,,M,5.00,N,9.25,K,A*1A
###2023-11-09 13:09:54.833012$GNGGA,130955.00,3611.0441333,N,07544.9077615,W,1,24,0.6,0.627,M,-39.961,M,0.0,*61
###2023-11-09 13:09:54.835618$GPGSV,2,1,07,05,20,090,43,10,19,293,44,13,24,045,42,15,61,037,46*73
###2023-11-09 13:09:54.837893$GPGSV,2,2,07,18,78,277,47,23,50,316,46,24,50,134,46,,,,*4C
###2023-11-09 13:09:54.840465$GLGSV,2,1,05,70,49,019,35,71,48,291,48,80,18,090,44,85,57,203,49*60
###2023-11-09 13:09:54.842073$GLGSV,2,2,05,86,53,308,48,,,,,,,,,,,,*5F
###2023-11-09 13:09:54.844647$GAGSV,1,1,04,07,73,259,46,08,48,043,44,13,63,161,45,26,57,310,45*65
###2023-11-09 13:09:54.847241$GBGSV,2,1,06,11,22,180,41,14,65,009,44,24,21,132,44,26,23,080,43*62
###2023-11-09 13:09:54.849178$GBGSV,2,2,06,28,43,286,47,33,59,305,48,,,,,,,,*69
###2023-11-09 13:09:54.850612$GNVTG,51.82,T,,M,4.98,N,9.22,K,A*11
###2023-11-09 13:09:54.931234$GNGGA,130955.10,3611.0442198,N,07544.9076273,W,1,24,0.6,0.625,M,-39.961,M,0.0,*67
###2023-11-09 13:09:54.933819$GPGSV,2,1,07,05,20,090,42,10,19,293,44,13,24,045,42,15,61,037,46*72
###2023-11-09 13:09:54.936070$GPGSV,2,2,07,18,78,277,47,23,50,316,46,24,50,134,45,,,,*4F
###2023-11-09 13:09:54.938659$GLGSV,2,1,05,70,49,019,36,71,48,291,48,80,18,090,44,85,57,203,48*62
###2023-11-09 13:09:54.940262$GLGSV,2,2,05,86,53,308,48,,,,,,,,,,,,*5F
###2023-11-09 13:09:54.942833$GAGSV,1,1,04,07,73,259,46,08,48,043,44,13,63,161,45,26,57,310,45*65
###2023-11-09 13:09:54.945417$GBGSV,2,1,06,11,22,180,41,14,65,009,44,24,21,132,44,26,23,080,43*62
###2023-11-09 13:09:54.947370$GBGSV,2,2,06,28,43,286,47,33,59,305,47,,,,,,,,*66
###2023-11-09 13:09:54.948799$GNVTG,51.44,T,,M,5.05,N,9.36,K,A*1B
###2023-11-09 13:09:55.033107$GNGGA,130955.20,3611.0443082,N,07544.9074917,W,1,24,0.6,0.625,M,-39.961,M,0.0,*64
###2023-11-09 13:09:55.035699$GPGSV,2,1,07,05,20,090,42,10,19,293,43,13,24,045,41,15,61,037,46*76
###2023-11-09 13:09:55.037973$GPGSV,2,2,07,18,78,277,47,23,50,316,46,24,50,134,45,,,,*4F
###2023-11-09 13:09:55.040559$GLGSV,2,1,05,70,49,019,36,71,48,291,47,80,18,090,44,85,57,203,48*6D
###2023-11-09 13:09:55.042159$GLGSV,2,2,05,86,53,308,48,,,,,,,,,,,,*5F
###2023-11-09 13:09:55.044718$GAGSV,1,1,04,07,73,259,46,08,48,043,44,13,63,161,45,26,57,310,45*65
###2023-11-09 13:09:55.047311$GBGSV,2,1,06,11,22,180,41,14,65,009,44,24,21,132,44,26,23,080,43*62
###2023-11-09 13:09:55.049247$GBGSV,2,2,06,28,43,286,47,33,59,305,47,,,,,,,,*66
###2023-11-09 13:09:55.050672$GNVTG,51.28,T,,M,5.13,N,9.50,K,A*16
###2023-11-09 13:09:55.136610$GNGGA,130955.30,3611.0443982,N,07544.9073560,W,1,24,0.6,0.622,M,-39.961,M,0.0,*60
###2023-11-09 13:09:55.139250$GPGSV,2,1,07,05,20,090,42,10,19,293,42,13,24,045,41,15,61,037,46*77
###2023-11-09 13:09:55.141827$GPGSV,2,2,07,18,78,277,47,23,50,316,46,24,50,134,45,,,,*4F
###2023-11-09 13:09:55.144406$GLGSV,2,1,05,70,49,019,36,71,48,291,47,80,18,090,44,85,57,203,48*6D
###2023-11-09 13:09:55.146009$GLGSV,2,2,05,86,53,308,48,,,,,,,,,,,,*5F
###2023-11-09 13:09:55.148600$GAGSV,1,1,04,07,73,259,46,08,48,043,44,13,63,161,45,26,57,310,45*65
###2023-11-09 13:09:55.151189$GBGSV,2,1,06,11,22,180,42,14,65,009,44,24,21,132,44,26,23,080,43*61
###2023-11-09 13:09:55.153121$GBGSV,2,2,06,28,43,286,47,33,59,305,47,,,,,,,,*66
###2023-11-09 13:09:55.154547$GNVTG,50.56,T,,M,5.13,N,9.50,K,A*1E
###2023-11-09 13:09:55.229609$GNGGA,130955.40,3611.0444899,N,07544.9072207,W,1,24,0.6,0.624,M,-39.961,M,0.0,*6A
###2023-11-09 13:09:55.232186$GPGSV,2,1,07,05,20,090,42,10,19,293,41,13,24,045,41,15,61,037,45*77
