###2023-11-09 13:09:48.542410$GAGSV,1,1,04,07,73,259,45,08,48,043,44,13,63,161,45,26,57,310,45*66
###2023-11-09 13:09:48.545022$GBGSV,2,1,06,11,22,180,40,14,65,009,44,24,21,132,43,26,23,080,43*64
###2023-11-09 13:09:48.547019$GBGSV,2,2,06,28,43,286,46,33,59,305,46,,,,,,,,*66
###2023-11-09 13:09:48.548470$GNVTG,31.10,T,,M,4.57,N,8.46,K,A*1C
###2023-11-09 13:09:48.630366$GNGGA,130948.80,3611.0385517,N,07544.9154449,W,1,24,0.6,0.740,M,-39.961,M,0.0,*61
###2023-11-09 13:09:48.632948$GPGSV,2,1,07,05,20,090,42,10,19,293,44,13,24,045,40,15,61,037,46*70
###2023-11-09 13:09:48.635196$GPGSV,2,2,07,18,78,277,47,23,50,316,45,24,50,134,45,,,,*4C
###2023-11-09 13:09:48.637789$GLGSV,2,1,05,70,50,017,36,71,48,290,48,80,18,090,44,85,57,203,48*65
###2023-11-09 13:09:48.639403$GLGSV,2,2,05,86,53,308,47,,,,,,,,,,,,*50
###2023-11-09 13:09:48.641990$GAGSV,1,1,04,07,73,259,45,08,48,043,44,13,63,161,45,26,57,310,45*66
###2023-11-09 13:09:48.644575$GBGSV,2,1,06,11,22,180,40,14,65,009,44,24,21,132,43,26,23,080,43*64
###2023-11-09 13:09:48.646513$GBGSV,2,2,06,28,43,286,46,33,59,305,46,,,,,,,,*66
###2023-11-09 13:09:48.647954$GNVTG,34.95,T,,M,4.45,N,8.24,K,A*13
###2023-11-09 13:09:48.729280$GNGGA,130948.90,3611.0386511,N,07544.9153531,W,1,24,0.6,0.714,M,-39.961,M,0.0,*6D
###2023-11-09 13:09:48.731892$GPGSV,2,1,07,05,20,090,42,10,19,293,44,13,24,045,40,15,61,037,46*70
###2023-11-09 13:09:48.734151$GPGSV,2,2,07,18,78,277,47,23,50,316,45,24,50,134,46,,,,*4F
###2023-11-09 13:09:48.736742$GLGSV,2,1,05,70,50,017,36,71,48,290,48,80,18,090,44,85,57,203,48*65
###2023-11-09 13:09:48.738375$GLGSV,2,2,05,86,53,308,47,,,,,,,,,,,,*50
###2023-11-09 13:09:48.740955$GAGSV,1,1,04,07,73,259,45,08,48,043,44,13,63,161,45,26,57,310,45*66
###2023-11-09 13:09:48.743542$GBGSV,2,1,06,11,22,180,40,14,65,009,44,24,21,132,43,26,23,080,43*64
###2023-11-09 13:09:48.745473$GBGSV,2,2,06,28,43,286,46,33,59,305,47,,,,,,,,*67
###2023-11-09 13:09:48.746914$GNVTG,38.49,T,,M,4.45,N,8.24,K,A*1E
###2023-11-09 13:09:48.833393$GNGGA,130949.00,3611.0387450,N,07544.9152546,W,1,24,0.6,0.683,M,-39.961,M,0.0,*6E
###2023-11-09 13:09:48.835995$GPGSV,2,1,07,05,20,090,42,10,19,293,44,13,24,045,40,15,61,037,46*70
###2023-11-09 13:09:48.838275$GPGSV,2,2,07,18,78,277,47,23,50,316,45,24,50,134,46,,,,*4F
###2023-11-09 13:09:48.840853$GLGSV,2,1,05,70,50,017,36,71,48,290,47,80,18,090,44,85,57,203,48*6A
###2023-11-09 13:09:48.842475$GLGSV,2,2,05,86,53,308,47,,,,,,,,,,,,*50
###2023-11-09 13:09:48.845048$GAGSV,1,1,04,07,73,259,45,08,48,043,44,13,63,161,45,26,57,310,45*66
###2023-11-09 13:09:48.847645$GBGSV,2,1,06,11,22,180,40,14,65,009,44,24,21,132,44,26,23,080,43*63
###2023-11-09 13:09:48.849590$GBGSV,2,2,06,28,43,286,46,33,59,305,47,,,,,,,,*67
###2023-11-09 13:09:48.851026$GNVTG,42.02,T,,M,4.39,N,8.14,K,A*14
###2023-11-09 13:09:48.931345$GNGGA,130949.10,3611.0388359,N,07544.9151529,W,1,24,0.6,0.656,M,-39.961,M,0.0,*6C
###2023-11-09 13:09:48.933934$GPGSV,2,1,07,05,20,090,43,10,19,293,43,13,24,045,40,15,61,037,46*76
###2023-11-09 13:09:48.936187$GPGSV,2,2,07,18,78,277,47,23,50,316,45,24,50,134,46,,,,*4F
###2023-11-09 13:09:48.938766$GLGSV,2,1,05,70,50,017,36,71,48,290,47,80,18,090,44,85,57,203,48*6A
###2023-11-09 13:09:48.940368$GLGSV,2,2,05,86,53,308,47,,,,,,,,,,,,*50
###2023-11-09 13:09:48.942920$GAGSV,1,1,04,07,73,259,45,08,48,043,44,13,63,161,45,26,57,310,45*66
###2023-11-09 13:09:48.945496$GBGSV,2,1,06,11,22,180,42,14,65,009,44,24,21,132,44,26,23,080,43*61
###2023-11-09 13:09:48.947439$GBGSV,2,2,06,28,43,286,45,33,59,305,47,,,,,,,,*64
###2023-11-09 13:09:48.948861$GNVTG,41.95,T,,M,4.41,N,8.17,K,A*15
###2023-11-09 13:09:49.032117$GNGGA,130949.20,3611.0389295,N,07544.9150532,W,1,24,0.6,0.628,M,-39.961,M,0.0,*6D
###2023-11-09 13:09:49.034716$GPGSV,2,1,07,05,20,090,43,10,19,293,43,13,24,045,40,15,61,037,46*76
###2023-11-09 13:09:49.036995$GPGSV,2,2,07,18,78,277,46,23,50,316,45,24,50,134,46,,,,*4E
###2023-11-09 13:09:49.039573$GLGSV,2,1,05,70,50,017,36,71,48,290,47,80,18,090,44,85,57,203,48*6A
###2023-11-09 13:09:49.041180$GLGSV,2,2,05,86,53,308,47,,,,,,,,,,,,*50
###2023-11-09 13:09:49.043747$GAGSV,1,1,04,07,73,259,45,08,48,043,44,13,63,161,45,26,57,310,45*66
###2023-11-09 13:09:49.046330$GBGSV,2,1,06,11,22,180,42,14,65,009,44,24,21,132,44,26,23,080,43*61
###2023-11-09 13:09:49.048313$GBGSV,2,2,06,28,43,286,45,33,59,305,47,,,,,,,,*64
###2023-11-09 13:09:49.049760$GNVTG,39.48,T,,M,4.45,N,8.24,K,A*1E
###2023-11-09 13:09:49.130236$GNGGA,130949.30,3611.0390280,N,07544.9149568,W,1,24,0.6,0.602,M,-39.961,M,0.0,*6F
###2023-11-09 13:09:49.132824$GPGSV,2,1,07,05,20,090,43,10,19,293,43,13,24,045,40,15,61,037,46*76
###2023-11-09 13:09:49.135080$GPGSV,2,2,07,18,78,277,47,23,50,316,45,24,50,134,46,,,,*4F
###2023-11-09 13:09:49.137678$GLGSV,2,1,05,70,50,017,36,71,48,290,47,80,18,090,44,85,57,203,48*6A
###2023-11-09 13:09:49.139287$GLGSV,2,2,05,86,53,308,47,,,,,,,,,,,,*50
###2023-11-09 13:09:49.141856$GAGSV,1,1,04,07,73,259,45,08,48,043,44,13,63,161,45,26,57,310,45*66
###2023-11-09 13:09:49.144439$GBGSV,2,1,06,11,22,180,42,14,65,009,44,24,21,132,44,26,23,080,43*61
###2023-11-09 13:09:49.146371$GBGSV,2,2,06,28,43,286,45,33,59,305,47,,,,,,,,*64
###2023-11-09 13:09:49.147814$GNVTG,37.20,T,,M,4.55,N,8.42,K,A*1F
###2023-11-09 13:09:49.230342$GNGGA,130949.40,3611.0391274,N,07544.9148602,W,1,24,0.6,0.574,M,-39.961,M,0.0,*6E
###2023-11-09 13:09:49.232919$GPGSV,2,1,07,05,20,090,42,10,19,293,44,13,24,045,40,15,61,037,46*70
###2023-11-09 13:09:49.235159$GPGSV,2,2,07,18,78,277,47,23,50,316,45,24,50,134,46,,,,*4F
###2023-11-09 13:09:49.237741$GLGSV,2,1,05,70,50,017,36,71,48,290,47,80,18,090,44,85,57,203,48*6A
###2023-11-09 13:09:49.239343$GLGSV,2,2,05,86,53,308,47,,,,,,,,,,,,*50
###2023-11-09 13:09:49.241897$GAGSV,1,1,04,07,73,259,45,08,48,043,44,13,63,161,45,26,57,310,45*66
###2023-11-09 13:09:49.244455$GBGSV,2,1,06,11,22,180,42,14,65,009,44,24,21,132,43,26,23,080,43*66
###2023-11-09 13:09:49.246379$GBGSV,2,2,06,28,43,286,45,33,59,305,47,,,,,,,,*64
###2023-11-09 13:09:49.247815$GNVTG,38.55,T,,M,4.51,N,8.35,K,A*16
###2023-11-09 13:09:49.330483$GNGGA,130949.50,3611.0392243,N,07544.9147578,W,1,24,0.6,0.531,M,-39.961,M,0.0,*68
###2023-11-09 13:09:49.333077$GPGSV,2,1,07,05,20,090,41,10,19,293,45,13,24,045,40,15,61,037,46*72
###2023-11-09 13:09:49.335324$GPGSV,2,2,07,18,78,277,47,23,50,316,46,24,50,134,46,,,,*4C
###2023-11-09 13:09:49.337915$GLGSV,2,1,05,70,50,017,36,71,48,290,47,80,18,090,44,85,57,203,48*6A
###2023-11-09 13:09:49.339525$GLGSV,2,2,05,86,53,308,47,,,,,,,,,,,,*50
###2023-11-09 13:09:49.342099$GAGSV,1,1,04,07,73,259,45,08,48,043,44,13,63,161,45,26,57,310,45*66
###2023-11-09 13:09:49.344680$GBGSV,2,1,06,11,22,180,42,14,65,009,44,24,21,132,43,26,23,080,43*66
###2023-11-09 13:09:49.346618$GBGSV,2,2,06,28,43,286,45,33,59,305,47,,,,,,,,*64
###2023-11-09 13:09:49.348064$GNVTG,42.44,T,,M,4.65,N,8.60,K,A*1C
###2023-11-09 13:09:49.429770$GNGGA,130949.60,3611.0393163,N,07544.9146448,W,1,24,0.6,0.490,M,-39.961,M,0.0,*62
###2023-11-09 13:09:49.432362$GPGSV,2,1,07,05,20,090,41,10,19,293,45,13,24,045,40,15,61,037,46*72
###2023-11-09 13:09:49.434618$GPGSV,2,2,07,18,78,277,47,23,50,316,46,24,50,134,46,,,,*4C
###2023-11-09 13:09:49.437205$GLGSV,2,1,05,70,50,017,36,71,48,290,47,80,18,090,43,85,57,203,48*6D
###2023-11-09 13:09:49.438814$GLGSV,2,2,05,86,53,308,47,,,,,,,,,,,,*50
###2023-11-09 13:09:49.441394$GAGSV,1,1,04,07,73,259,45,08,48,043,44,13,63,161,44,26,57,310,45*67
###2023-11-09 13:09:49.443970$GBGSV,2,1,06,11,22,180,42,14,65,009,44,24,21,132,42,26,23,080,43*67
###2023-11-09 13:09:49.445904$GBGSV,2,2,06,28,43,286,46,33,59,305,47,,,,,,,,*67
###2023-11-09 13:09:49.447345$GNVTG,46.94,T,,M,4.67,N,8.64,K,A*13
###2023-11-09 13:09:49.529756$GNGGA,130949.70,3611.0394029,N,07544.9145227,W,1,24,0.6,0.457,M,-39.961,M,0.0,*6C
###2023-11-09 13:09:49.532330$GPGSV,2,1,07,05,20,090,41,10,19,293,45,13,24,045,40,15,61,037,46*72
###2023-11-09 13:09:49.534581$GPGSV,2,2,07,18,78,277,47,23,50,316,46,24,50,134,46,,,,*4C
###2023-11-09 13:09:49.537162$GLGSV,2,1,05,70,50,017,36,71,48,290,47,80,18,090,43,85,57,203,48*6D
###2023-11-09 13:09:49.538766$GLGSV,2,2,05,86,53,308,48,,,,,,,,,,,,*5F
###2023-11-09 13:09:49.541323$GAGSV,1,1,04,07,73,259,46,08,48,043,44,13,63,161,44,26,57,310,45*64
###2023-11-09 13:09:49.544198$GBGSV,2,1,06,11,22,180,42,14,65,009,44,24,21,132,43,26,23,080,43*66
###2023-11-09 13:09:49.546135$GBGSV,2,2,06,28,43,286,46,33,59,305,47,,,,,,,,*67
###2023-11-09 13:09:49.547584$GNVTG,50.26,T,,M,4.74,N,8.78,K,A*12
###2023-11-09 13:09:49.629144$GNGGA,130949.80,3611.0394893,N,07544.9143963,W,1,24,0.6,0.428,M,-39.961,M,0.0,*6F
###2023-11-09 13:09:49.631754$GPGSV,2,1,07,05,20,090,41,10,19,293,43,13,24,045,40,15,61,037,46*74
###2023-11-09 13:09:49.634006$GPGSV,2,2,07,18,78,277,47,23,50,316,46,24,50,134,46,,,,*4C
###2023-11-09 13:09:49.636584$GLGSV,2,1,05,70,50,017,36,71,48,290,46,80,18,090,43,85,57,203,48*6C
###2023-11-09 13:09:49.638207$GLGSV,2,2,05,86,53,308,47,,,,,,,,,,,,*50
###2023-11-09 13:09:49.640777$GAGSV,1,1,04,07,73,259,45,08,48,043,44,13,63,161,45,26,57,310,45*66
