###2023-11-09 13:09:00.538911$GLGSV,2,2,05,86,53,308,47,,,,,,,,,,,,*50
###2023-11-09 13:09:00.541512$GAGSV,1,1,04,07,72,258,45,08,48,043,44,13,64,160,44,26,57,310,44*60
###2023-11-09 13:09:00.544089$GBGSV,2,1,06,11,23,180,42,14,65,008,44,24,20,132,43,26,23,081,42*67
###2023-11-09 13:09:00.546040$GBGSV,2,2,06,28,43,287,47,33,59,304,47,,,,,,,,*66
###2023-11-09 13:09:00.547512$GNVTG,92.03,T,,M,4.86,N,9.00,K,A*18
###2023-11-09 13:09:00.628391$GNGGA,130900.80,3611.0231828,N,07544.9783191,W,1,24,0.6,0.833,M,-39.962,M,0.0,*66
###2023-11-09 13:09:00.630975$GPGSV,2,1,07,05,20,090,41,10,19,293,43,13,24,045,42,15,61,037,46*76
###2023-11-09 13:09:00.633227$GPGSV,2,2,07,18,78,277,47,23,50,316,46,24,50,135,46,,,,*4D
###2023-11-09 13:09:00.635796$GLGSV,2,1,05,70,50,017,35,71,48,290,48,80,18,090,43,85,57,203,48*61
###2023-11-09 13:09:00.637418$GLGSV,2,2,05,86,53,308,48,,,,,,,,,,,,*5F
###2023-11-09 13:09:00.640005$GAGSV,1,1,04,07,72,258,45,08,48,043,44,13,64,160,44,26,57,310,44*60
###2023-11-09 13:09:00.642601$GBGSV,2,1,06,11,23,180,42,14,65,008,44,24,20,132,43,26,23,081,42*67
###2023-11-09 13:09:00.644541$GBGSV,2,2,06,28,43,287,47,33,59,304,47,,,,,,,,*66
###2023-11-09 13:09:00.645975$GNVTG,96.91,T,,M,4.84,N,8.96,K,A*1B
###2023-11-09 13:09:00.728536$GNGGA,130900.90,3611.0231625,N,07544.9781565,W,1,24,0.6,0.832,M,-39.962,M,0.0,*68
###2023-11-09 13:09:00.731161$GPGSV,2,1,07,05,20,090,41,10,19,293,43,13,24,045,43,15,61,037,46*77
###2023-11-09 13:09:00.733433$GPGSV,2,2,07,18,78,277,46,23,50,316,46,24,50,135,46,,,,*4C
###2023-11-09 13:09:00.736031$GLGSV,2,1,05,70,50,017,35,71,48,290,48,80,18,090,44,85,57,203,48*66
###2023-11-09 13:09:00.737679$GLGSV,2,2,05,86,53,308,48,,,,,,,,,,,,*5F
###2023-11-09 13:09:00.740278$GAGSV,1,1,04,07,72,258,45,08,48,043,44,13,64,160,44,26,57,310,44*60
###2023-11-09 13:09:00.742875$GBGSV,2,1,06,11,23,180,42,14,65,008,45,24,20,132,43,26,23,081,43*67
###2023-11-09 13:09:00.744824$GBGSV,2,2,06,28,43,287,47,33,59,304,47,,,,,,,,*66
###2023-11-09 13:09:00.746299$GNVTG,100.88,T,,M,4.72,N,8.75,K,A*29
###2023-11-09 13:09:00.832600$GNGGA,130901.00,3611.0231361,N,07544.9779964,W,1,24,0.6,0.827,M,-39.962,M,0.0,*6B
###2023-11-09 13:09:00.835182$GPGSV,2,1,07,05,20,090,41,10,19,293,44,13,24,045,43,15,61,037,46*70
###2023-11-09 13:09:00.837456$GPGSV,2,2,07,18,78,277,47,23,50,316,46,24,50,135,46,,,,*4D
###2023-11-09 13:09:00.840036$GLGSV,2,1,05,70,50,017,35,71,48,290,49,80,18,090,44,85,57,203,48*67
###2023-11-09 13:09:00.841649$GLGSV,2,2,05,86,53,308,48,,,,,,,,,,,,*5F
###2023-11-09 13:09:00.844227$GAGSV,1,1,04,07,72,258,45,08,48,043,44,13,64,160,44,26,57,310,44*60
###2023-11-09 13:09:00.846819$GBGSV,2,1,06,11,23,180,42,14,65,008,45,24,20,132,43,26,23,081,43*67
###2023-11-09 13:09:00.848788$GBGSV,2,2,06,28,43,287,47,33,59,304,47,,,,,,,,*66
###2023-11-09 13:09:00.850264$GNVTG,102.36,T,,M,4.78,N,8.86,K,A*28
###2023-11-09 13:09:00.930484$GNGGA,130901.10,3611.0231064,N,07544.9778346,W,1,24,0.6,0.831,M,-39.962,M,0.0,*60
###2023-11-09 13:09:00.933075$GPGSV,2,1,07,05,20,090,41,10,19,293,44,13,24,045,43,15,61,037,45*73
###2023-11-09 13:09:00.935326$GPGSV,2,2,07,18,78,277,47,23,50,316,46,24,50,135,46,,,,*4D
###2023-11-09 13:09:00.937909$GLGSV,2,1,05,70,50,017,35,71,48,290,48,80,18,090,44,85,57,203,48*66
###2023-11-09 13:09:00.939516$GLGSV,2,2,05,86,53,308,48,,,,,,,,,,,,*5F
###2023-11-09 13:09:00.942083$GAGSV,1,1,04,07,73,259,45,08,48,043,44,13,64,160,44,26,57,310,44*60
###2023-11-09 13:09:00.944654$GBGSV,2,1,06,11,23,180,42,14,65,008,45,24,20,132,43,26,23,081,43*67
###2023-11-09 13:09:00.946591$GBGSV,2,2,06,28,43,287,47,33,59,304,48,,,,,,,,*69
###2023-11-09 13:09:00.948062$GNVTG,103.35,T,,M,4.84,N,8.96,K,A*28
###2023-11-09 13:09:01.031608$GNGGA,130901.20,3611.0230773,N,07544.9776715,W,1,24,0.6,0.829,M,-39.962,M,0.0,*66
###2023-11-09 13:09:01.034198$GPGSV,2,1,07,05,20,090,41,10,19,293,44,13,24,045,42,15,61,037,45*72
###2023-11-09 13:09:01.036455$GPGSV,2,2,07,18,78,277,47,23,50,316,45,24,50,135,46,,,,*4E
###2023-11-09 13:09:01.039044$GLGSV,2,1,05,70,50,017,35,71,48,290,49,80,18,090,43,85,57,203,48*60
###2023-11-09 13:09:01.040657$GLGSV,2,2,05,86,53,308,48,,,,,,,,,,,,*5F
###2023-11-09 13:09:01.043225$GAGSV,1,1,04,07,73,259,45,08,48,043,44,13,64,160,44,26,57,310,44*60
###2023-11-09 13:09:01.045805$GBGSV,2,1,06,11,23,180,42,14,65,008,45,24,20,132,43,26,23,081,43*67
###2023-11-09 13:09:01.047755$GBGSV,2,2,06,28,43,287,47,33,59,304,47,,,,,,,,*66
###2023-11-09 13:09:01.049225$GNVTG,101.77,T,,M,4.86,N,9.00,K,A*20
###2023-11-09 13:09:01.129011$GNGGA,130901.30,3611.0230526,N,07544.9775066,W,1,24,0.6,0.827,M,-39.962,M,0.0,*6B
###2023-11-09 13:09:01.131610$GPGSV,2,1,07,05,20,090,41,10,19,293,44,13,24,045,42,15,61,037,45*72
###2023-11-09 13:09:01.133874$GPGSV,2,2,07,18,78,277,47,23,50,316,45,24,50,135,46,,,,*4E
###2023-11-09 13:09:01.136457$GLGSV,2,1,05,70,50,017,35,71,48,290,48,80,18,090,43,85,57,203,48*61
###2023-11-09 13:09:01.138079$GLGSV,2,2,05,86,53,308,48,,,,,,,,,,,,*5F
###2023-11-09 13:09:01.140657$GAGSV,1,1,04,07,73,259,45,08,48,043,44,13,64,160,44,26,57,310,44*60
###2023-11-09 13:09:01.143244$GBGSV,2,1,06,11,23,180,42,14,65,008,44,24,20,132,43,26,23,081,43*66
###2023-11-09 13:09:01.145189$GBGSV,2,2,06,28,43,287,47,33,59,304,47,,,,,,,,*66
###2023-11-09 13:09:01.146624$GNVTG,99.44,T,,M,4.86,N,9.00,K,A*10
###2023-11-09 13:09:01.229360$GNGGA,130901.40,3611.0230300,N,07544.9773390,W,1,24,0.6,0.819,M,-39.962,M,0.0,*6F
###2023-11-09 13:09:01.231939$GPGSV,2,1,07,05,20,090,41,10,19,293,44,13,24,045,42,15,61,037,45*72
###2023-11-09 13:09:01.234183$GPGSV,2,2,07,18,78,277,47,23,50,316,45,24,50,135,46,,,,*4E
###2023-11-09 13:09:01.236760$GLGSV,2,1,05,70,50,017,35,71,48,290,49,80,18,090,43,85,57,203,48*60
###2023-11-09 13:09:01.238392$GLGSV,2,2,05,86,53,308,48,,,,,,,,,,,,*5F
###2023-11-09 13:09:01.240964$GAGSV,1,1,04,07,73,259,45,08,48,043,44,13,64,160,44,26,57,310,44*60
###2023-11-09 13:09:01.243541$GBGSV,2,1,06,11,23,180,42,14,65,008,45,24,20,132,43,26,23,081,43*67
###2023-11-09 13:09:01.245480$GBGSV,2,2,06,28,43,287,47,33,59,304,47,,,,,,,,*66
###2023-11-09 13:09:01.246916$GNVTG,99.71,T,,M,5.00,N,9.25,K,A*1E
###2023-11-09 13:09:01.329392$GNGGA,130901.50,3611.0230057,N,07544.9771722,W,1,24,0.6,0.808,M,-39.962,M,0.0,*60
###2023-11-09 13:09:01.331994$GPGSV,2,1,07,05,20,090,41,10,19,293,44,13,24,045,42,15,61,037,45*72
###2023-11-09 13:09:01.334252$GPGSV,2,2,07,18,78,277,47,23,50,316,45,24,50,135,46,,,,*4E
###2023-11-09 13:09:01.336818$GLGSV,2,1,05,70,50,017,35,71,48,290,48,80,18,090,44,85,57,203,48*66
###2023-11-09 13:09:01.338448$GLGSV,2,2,05,86,53,308,48,,,,,,,,,,,,*5F
###2023-11-09 13:09:01.341025$GAGSV,1,1,04,07,73,259,45,08,48,043,44,13,64,160,44,26,57,310,44*60
###2023-11-09 13:09:01.343613$GBGSV,2,1,06,11,23,180,42,14,65,008,45,24,20,132,43,26,23,081,43*67
###2023-11-09 13:09:01.345560$GBGSV,2,2,06,28,43,287,47,33,59,304,47,,,,,,,,*66
###2023-11-09 13:09:01.347052$GNVTG,100.99,T,,M,4.86,N,9.00,K,A*21
###2023-11-09 13:09:01.429035$GNGGA,130901.60,3611.0229795,N,07544.9770116,W,1,24,0.6,0.804,M,-39.962,M,0.0,*6E
###2023-11-09 13:09:01.431636$GPGSV,2,1,07,05,20,090,42,10,19,293,44,13,24,045,42,15,61,037,45*71
###2023-11-09 13:09:01.433899$GPGSV,2,2,07,18,78,277,47,23,50,316,45,24,50,135,46,,,,*4E
###2023-11-09 13:09:01.436485$GLGSV,2,1,05,70,50,017,35,71,48,290,49,80,18,090,44,85,57,203,48*67
###2023-11-09 13:09:01.438108$GLGSV,2,2,05,86,53,308,48,,,,,,,,,,,,*5F
###2023-11-09 13:09:01.440687$GAGSV,1,1,04,07,73,259,45,08,48,043,44,13,64,160,44,26,57,310,44*60
###2023-11-09 13:09:01.443271$GBGSV,2,1,06,11,23,180,42,14,65,008,45,24,20,132,43,26,23,081,43*67
###2023-11-09 13:09:01.445205$GBGSV,2,2,06,28,43,287,47,33,59,304,47,,,,,,,,*66
###2023-11-09 13:09:01.446674$GNVTG,101.97,T,,M,4.65,N,8.60,K,A*24
###2023-11-09 13:09:01.529379$GNGGA,130901.70,3611.0229535,N,07544.9768537,W,1,24,0.6,0.824,M,-39.962,M,0.0,*6B
###2023-11-09 13:09:01.531955$GPGSV,2,1,07,05,20,090,42,10,19,293,44,13,24,045,42,15,61,037,45*71
###2023-11-09 13:09:01.534197$GPGSV,2,2,07,18,78,277,47,23,50,316,45,24,50,135,45,,,,*4D
###2023-11-09 13:09:01.536753$GLGSV,2,1,05,70,50,017,35,71,48,290,49,80,18,090,44,85,57,203,48*67
###2023-11-09 13:09:01.538662$GLGSV,2,2,05,86,53,308,48,,,,,,,,,,,,*5F
###2023-11-09 13:09:01.541235$GAGSV,1,1,04,07,73,259,45,08,48,043,44,13,64,160,45,26,57,310,44*61
###2023-11-09 13:09:01.543814$GBGSV,2,1,06,11,23,180,42,14,65,008,45,24,20,132,43,26,23,081,43*67
###2023-11-09 13:09:01.545751$GBGSV,2,2,06,28,43,287,47,33,59,304,47,,,,,,,,*66
###2023-11-09 13:09:01.547228$GNVTG,101.13,T,,M,4.68,N,8.68,K,A*2D
###2023-11-09 13:09:01.628373$GNGGA,130901.80,3611.0229292,N,07544.9766941,W,1,24,0.6,0.859,M,-39.962,M,0.0,*67
###2023-11-09 13:09:01.630964$GPGSV,2,1,07,05,20,090,41,10,19,293,44,13,24,045,42,15,61,037,45*72
###2023-11-09 13:09:01.633214$GPGSV,2,2,07,18,78,277,47,23,50,316,45,24,50,135,45,,,,*4D
###2023-11-09 13:09:01.635790$GLGSV,2,1,05,70,50,017,35,71,48,290,49,80,18,090,43,85,57,203,48*60
###2023-11-09 13:09:01.637407$GLGSV,2,2,05,86,53,308,48,,,,,,,,,,,,*5F
