###2023-11-09 13:10:08.644707$GAGSV,1,1,04,07,73,259,45,08,48,043,44,13,63,161,44,26,57,310,45*67
###2023-11-09 13:10:08.647363$GBGSV,2,1,06,11,22,180,39,14,65,009,45,24,21,132,41,26,23,080,43*69
###2023-11-09 13:10:08.649325$GBGSV,2,2,06,28,43,286,47,33,59,305,47,,,,,,,,*66
###2023-11-09 13:10:08.650765$GNVTG,92.70,T,,M,3.36,N,6.23,K,A*1E
###2023-11-09 13:10:08.732865$GNGGA,131008.90,3611.0500200,N,07544.8898802,W,1,24,0.6,0.971,M,-39.961,M,0.0,*61
###2023-11-09 13:10:08.735466$GPGSV,2,1,07,05,20,090,41,10,19,293,44,13,24,045,44,15,61,037,46*77
###2023-11-09 13:10:08.737784$GPGSV,2,2,07,18,78,277,46,23,50,316,45,24,50,134,45,,,,*4D
###2023-11-09 13:10:08.740367$GLGSV,2,1,05,70,49,019,35,71,48,291,48,80,19,089,43,85,56,202,48*6F
###2023-11-09 13:10:08.741984$GLGSV,2,2,05,86,53,308,48,,,,,,,,,,,,*5F
###2023-11-09 13:10:08.744559$GAGSV,1,1,04,07,73,259,44,08,48,043,44,13,63,161,44,26,57,310,45*66
###2023-11-09 13:10:08.747160$GBGSV,2,1,06,11,22,180,39,14,65,009,46,24,21,132,41,26,23,080,43*6A
###2023-11-09 13:10:08.749095$GBGSV,2,2,06,28,43,286,47,33,59,305,47,,,,,,,,*66
###2023-11-09 13:10:08.750554$GNVTG,106.39,T,,M,3.38,N,6.26,K,A*24
###2023-11-09 13:10:08.834762$GNGGA,131009.00,3611.0499881,N,07544.8897741,W,1,24,0.6,0.904,M,-39.961,M,0.0,*6E
###2023-11-09 13:10:08.837391$GPGSV,2,1,07,05,20,090,41,10,19,293,44,13,24,045,43,15,61,037,46*70
###2023-11-09 13:10:08.839650$GPGSV,2,2,07,18,78,277,46,23,50,316,45,24,50,134,46,,,,*4E
###2023-11-09 13:10:08.842233$GLGSV,2,1,05,70,49,019,35,71,48,291,48,80,19,089,43,85,56,202,48*6F
###2023-11-09 13:10:08.843844$GLGSV,2,2,05,86,53,308,48,,,,,,,,,,,,*5F
###2023-11-09 13:10:08.846429$GAGSV,1,1,04,07,73,259,45,08,48,043,44,13,63,161,44,26,57,310,45*67
###2023-11-09 13:10:08.849028$GBGSV,2,1,06,11,22,180,41,14,65,009,45,24,21,132,42,26,23,080,43*65
###2023-11-09 13:10:08.850972$GBGSV,2,2,06,28,43,286,47,33,59,305,47,,,,,,,,*66
###2023-11-09 13:10:08.852442$GNVTG,114.39,T,,M,3.32,N,6.16,K,A*2E
###2023-11-09 13:10:08.929784$GNGGA,131009.10,3611.0499526,N,07544.8896712,W,1,24,0.6,0.828,M,-39.961,M,0.0,*67
###2023-11-09 13:10:08.932397$GPGSV,2,1,07,05,20,090,41,10,19,293,43,13,24,045,40,15,61,037,45*77
###2023-11-09 13:10:08.934654$GPGSV,2,2,07,18,78,277,46,23,50,316,45,24,50,134,46,,,,*4E
###2023-11-09 13:10:08.937262$GLGSV,2,1,05,70,49,019,35,71,48,291,47,80,19,089,42,85,56,202,49*60
###2023-11-09 13:10:08.938884$GLGSV,2,2,05,86,54,306,47,,,,,,,,,,,,*59
###2023-11-09 13:10:08.941471$GAGSV,1,1,04,07,73,259,45,08,48,043,44,13,63,161,45,26,57,310,44*67
###2023-11-09 13:10:08.944064$GBGSV,2,1,06,11,22,180,44,14,65,009,44,24,21,132,43,26,23,080,41*62
###2023-11-09 13:10:08.946015$GBGSV,2,2,06,28,43,286,47,33,59,305,47,,,,,,,,*66
###2023-11-09 13:10:08.947501$GNVTG,112.11,T,,M,3.29,N,6.08,K,A*27
###2023-11-09 13:10:09.031495$GNGGA,131009.20,3611.0499342,N,07544.8895650,W,1,23,0.6,0.781,M,-39.961,M,0.0,*6F
###2023-11-09 13:10:09.034080$GPGSV,2,1,07,05,20,090,41,10,19,293,43,13,24,045,39,15,61,037,45*79
###2023-11-09 13:10:09.036336$GPGSV,2,2,07,18,78,277,46,23,50,316,44,24,50,134,46,,,,*4F
###2023-11-09 13:10:09.038927$GLGSV,1,1,04,71,48,291,47,80,19,089,42,85,56,202,49,86,54,306,47*6F
###2023-11-09 13:10:09.041509$GAGSV,1,1,04,07,73,259,45,08,48,043,43,13,63,161,45,26,57,310,44*60
###2023-11-09 13:10:09.044082$GBGSV,2,1,06,11,22,180,44,14,65,009,44,24,21,132,44,26,23,080,41*65
###2023-11-09 13:10:09.046017$GBGSV,2,2,06,28,43,286,47,33,59,305,47,,,,,,,,*66
###2023-11-09 13:10:09.047461$GNVTG,92.70,T,,M,3.19,N,5.90,K,A*18
###2023-11-09 13:10:09.129518$GNGGA,131009.30,3611.0499427,N,07544.8894513,W,1,23,0.6,0.765,M,-39.961,M,0.0,*65
###2023-11-09 13:10:09.132116$GPGSV,2,1,07,05,20,090,40,10,19,293,44,13,24,045,39,15,61,037,45*7F
###2023-11-09 13:10:09.134367$GPGSV,2,2,07,18,78,277,46,23,50,316,45,24,50,134,46,,,,*4E
###2023-11-09 13:10:09.136953$GLGSV,1,1,04,71,48,291,48,80,19,089,41,85,56,202,49,86,54,306,47*63
###2023-11-09 13:10:09.139533$GAGSV,1,1,04,07,73,259,45,08,48,043,43,13,63,161,45,26,57,310,44*60
###2023-11-09 13:10:09.142118$GBGSV,2,1,06,11,22,180,44,14,65,009,44,24,21,132,44,26,23,080,41*65
###2023-11-09 13:10:09.144062$GBGSV,2,2,06,28,43,286,47,33,59,305,47,,,,,,,,*66
###2023-11-09 13:10:09.145497$GNVTG,78.81,T,,M,3.56,N,6.59,K,A*1F
###2023-11-09 13:10:09.229885$GNGGA,131009.40,3611.0499581,N,07544.8893309,W,1,24,0.6,0.747,M,-39.961,M,0.0,*62
###2023-11-09 13:10:09.232482$GPGSV,2,1,07,05,20,090,40,10,19,293,45,13,24,045,40,15,61,037,45*70
###2023-11-09 13:10:09.234740$GPGSV,2,2,07,18,78,277,46,23,50,316,45,24,50,134,46,,,,*4E
###2023-11-09 13:10:09.237367$GLGSV,2,1,05,70,49,019,35,71,48,291,48,80,19,089,41,85,56,202,49*6C
###2023-11-09 13:10:09.238993$GLGSV,2,2,05,86,54,306,47,,,,,,,,,,,,*59
###2023-11-09 13:10:09.241566$GAGSV,1,1,04,07,73,259,45,08,48,043,43,13,63,161,45,26,57,310,44*60
###2023-11-09 13:10:09.244146$GBGSV,2,1,06,11,22,180,42,14,65,009,44,24,21,132,43,26,23,080,41*64
###2023-11-09 13:10:09.246078$GBGSV,2,2,06,28,43,286,47,33,59,305,47,,,,,,,,*66
###2023-11-09 13:10:09.247531$GNVTG,84.11,T,,M,3.60,N,6.66,K,A*1C
###2023-11-09 13:10:09.329247$GNGGA,131009.50,3611.0499593,N,07544.8892092,W,1,24,0.6,0.702,M,-39.961,M,0.0,*61
###2023-11-09 13:10:09.331837$GPGSV,2,1,07,05,20,090,40,10,19,293,45,13,24,045,42,15,61,037,45*72
###2023-11-09 13:10:09.334082$GPGSV,2,2,07,18,78,277,47,23,50,316,45,24,50,134,46,,,,*4F
###2023-11-09 13:10:09.336646$GLGSV,2,1,05,70,49,019,35,71,48,291,49,80,19,089,43,85,56,202,48*6E
###2023-11-09 13:10:09.338262$GLGSV,2,2,05,86,54,306,47,,,,,,,,,,,,*59
###2023-11-09 13:10:09.340827$GAGSV,1,1,04,07,73,259,45,08,48,043,44,13,63,161,44,26,57,310,45*67
###2023-11-09 13:10:09.343396$GBGSV,2,1,06,11,22,180,41,14,65,009,45,24,21,132,42,26,23,080,42*64
###2023-11-09 13:10:09.345323$GBGSV,2,2,06,28,43,286,46,33,59,305,47,,,,,,,,*67
###2023-11-09 13:10:09.346744$GNVTG,95.21,T,,M,3.60,N,6.66,K,A*1F
###2023-11-09 13:10:09.428275$GNGGA,131009.60,3611.0499429,N,07544.8890917,W,1,24,0.6,0.656,M,-39.961,M,0.0,*64
###2023-11-09 13:10:09.430883$GPGSV,2,1,07,05,20,090,42,10,19,293,45,13,24,045,43,15,61,037,45*71
###2023-11-09 13:10:09.433135$GPGSV,2,2,07,18,78,277,46,23,50,316,45,24,50,134,46,,,,*4E
###2023-11-09 13:10:09.435698$GLGSV,2,1,05,70,49,019,36,71,48,291,49,80,19,089,44,85,56,202,47*65
###2023-11-09 13:10:09.437317$GLGSV,2,2,05,86,54,306,47,,,,,,,,,,,,*59
###2023-11-09 13:10:09.439892$GAGSV,1,1,04,07,73,259,45,08,48,043,45,13,63,161,44,26,57,310,45*66
###2023-11-09 13:10:09.442475$GBGSV,2,1,06,11,22,180,41,14,65,009,45,24,21,132,43,26,23,080,43*64
###2023-11-09 13:10:09.444422$GBGSV,2,2,06,28,43,286,47,33,59,305,47,,,,,,,,*66
###2023-11-09 13:10:09.445891$GNVTG,104.86,T,,M,3.44,N,6.37,K,A*29
###2023-11-09 13:10:09.529768$GNGGA,131009.70,3611.0499171,N,07544.8889788,W,1,24,0.6,0.639,M,-39.961,M,0.0,*64
###2023-11-09 13:10:09.532359$GPGSV,2,1,07,05,20,090,42,10,19,293,45,13,24,045,44,15,61,037,45*76
###2023-11-09 13:10:09.534613$GPGSV,2,2,07,18,78,277,46,23,50,316,46,24,50,134,46,,,,*4D
###2023-11-09 13:10:09.537206$GLGSV,2,1,05,70,49,019,36,71,48,291,49,80,19,089,44,85,56,202,48*6A
###2023-11-09 13:10:09.538816$GLGSV,2,2,05,86,54,306,48,,,,,,,,,,,,*56
###2023-11-09 13:10:09.541381$GAGSV,1,1,04,07,73,259,45,08,48,043,45,13,63,161,44,26,57,310,45*66
###2023-11-09 13:10:09.543969$GBGSV,2,1,06,11,22,180,41,14,65,009,45,24,21,132,43,26,23,080,43*64
###2023-11-09 13:10:09.545900$GBGSV,2,2,06,28,43,286,47,33,59,305,47,,,,,,,,*66
###2023-11-09 13:10:09.547387$GNVTG,106.75,T,,M,3.46,N,6.41,K,A*24
###2023-11-09 13:10:09.629864$GNGGA,131009.80,3611.0498959,N,07544.8888631,W,1,24,0.6,0.640,M,-39.961,M,0.0,*64
###2023-11-09 13:10:09.632443$GPGSV,2,1,07,05,20,090,41,10,19,293,44,13,24,045,42,15,61,037,45*72
###2023-11-09 13:10:09.634693$GPGSV,2,2,07,18,78,277,46,23,50,316,46,24,50,134,46,,,,*4D
###2023-11-09 13:10:09.637275$GLGSV,2,1,05,70,49,019,36,71,48,291,49,80,19,089,42,85,56,202,49*6D
###2023-11-09 13:10:09.638880$GLGSV,2,2,05,86,54,306,48,,,,,,,,,,,,*56
###2023-11-09 13:10:09.641441$GAGSV,1,1,04,07,73,259,45,08,48,043,45,13,63,161,44,26,57,310,45*66
###2023-11-09 13:10:09.644007$GBGSV,2,1,06,11,22,180,41,14,65,009,45,24,21,132,43,26,23,080,42*65
###2023-11-09 13:10:09.646244$GBGSV,2,2,06,28,43,286,47,33,59,305,47,,,,,,,,*66
###2023-11-09 13:10:09.647697$GNVTG,99.20,T,,M,3.54,N,6.55,K,A*15
###2023-11-09 13:10:09.728295$GNGGA,131009.90,3611.0498903,N,07544.8887391,W,1,24,0.6,0.645,M,-39.961,M,0.0,*6F
###2023-11-09 13:10:09.730931$GPGSV,2,1,07,05,20,090,39,10,19,293,44,13,24,045,40,15,61,037,45*7F
###2023-11-09 13:10:09.733194$GPGSV,2,2,07,18,78,277,46,23,50,316,45,24,50,134,46,,,,*4E
###2023-11-09 13:10:09.735771$GLGSV,2,1,05,70,49,019,35,71,48,291,49,80,19,089,42,85,56,202,49*6E
###2023-11-09 13:10:09.737449$GLGSV,2,2,05,86,54,306,48,,,,,,,,,,,,*56
###2023-11-09 13:10:09.740051$GAGSV,1,1,04,07,73,259,45,08,48,043,44,13,63,161,45,26,57,310,45*66
###2023-11-09 13:10:09.742643$GBGSV,2,1,06,11,22,180,42,14,65,009,45,24,21,132,43,26,23,080,42*66
###2023-11-09 13:10:09.744588$GBGSV,2,2,06,28,43,286,47,33,59,305,47,,,,,,,,*66
