###2023-11-09 13:06:22.442098$GLGSV,2,2,05,86,52,309,47,,,,,,,,,,,,*50
###2023-11-09 13:06:22.444702$GAGSV,1,1,04,07,72,255,45,08,49,042,44,13,64,160,44,26,56,311,45*6C
###2023-11-09 13:06:22.447325$GBGSV,2,1,06,11,24,180,41,14,65,006,46,24,19,133,42,26,23,082,43*67
###2023-11-09 13:06:22.449271$GBGSV,2,2,06,28,43,289,47,33,58,302,47,,,,,,,,*6F
###2023-11-09 13:06:22.450739$GNVTG,327.65,T,,M,0.27,N,0.50,K,A*26
###2023-11-09 13:06:22.531488$GNGGA,130622.70,3611.0407964,N,07544.9808864,W,1,24,0.6,1.129,M,-39.961,M,0.0,*63
###2023-11-09 13:06:22.534074$GPGSV,2,1,07,05,21,090,40,10,17,292,44,13,25,045,42,15,62,036,46*7D
###2023-11-09 13:06:22.536316$GPGSV,2,2,07,18,77,282,47,23,49,314,46,24,49,137,45,,,,*4B
###2023-11-09 13:06:22.538897$GLGSV,2,1,05,70,50,016,35,71,48,288,48,80,17,091,43,85,58,203,48*68
###2023-11-09 13:06:22.540495$GLGSV,2,2,05,86,52,309,47,,,,,,,,,,,,*50
###2023-11-09 13:06:22.543044$GAGSV,1,1,04,07,72,255,45,08,49,042,44,13,64,160,44,26,56,311,45*6C
###2023-11-09 13:06:22.545606$GBGSV,2,1,06,11,24,180,41,14,65,006,46,24,19,133,42,26,23,082,43*67
###2023-11-09 13:06:22.547535$GBGSV,2,2,06,28,43,289,47,33,58,302,47,,,,,,,,*6F
###2023-11-09 13:06:22.548988$GNVTG,327.65,T,,M,0.33,N,0.61,K,A*21
###2023-11-09 13:06:22.630613$GNGGA,130622.80,3611.0407933,N,07544.9808965,W,1,24,0.6,1.107,M,-39.961,M,0.0,*62
###2023-11-09 13:06:22.633199$GPGSV,2,1,07,05,21,090,40,10,17,292,44,13,25,045,42,15,62,036,46*7D
###2023-11-09 13:06:22.635472$GPGSV,2,2,07,18,77,282,47,23,49,314,46,24,49,137,45,,,,*4B
###2023-11-09 13:06:22.638098$GLGSV,2,1,05,70,50,016,35,71,48,288,48,80,17,091,43,85,58,203,48*68
###2023-11-09 13:06:22.639719$GLGSV,2,2,05,86,52,309,47,,,,,,,,,,,,*50
###2023-11-09 13:06:22.642285$GAGSV,1,1,04,07,72,255,45,08,49,042,44,13,64,160,44,26,56,311,45*6C
###2023-11-09 13:06:22.644865$GBGSV,2,1,06,11,24,180,41,14,65,006,46,24,19,133,42,26,23,082,41*65
###2023-11-09 13:06:22.646804$GBGSV,2,2,06,28,43,289,47,33,58,302,47,,,,,,,,*6F
###2023-11-09 13:06:22.648287$GNVTG,327.65,T,,M,0.29,N,0.54,K,A*2C
###2023-11-09 13:06:22.732618$GNGGA,130622.90,3611.0407906,N,07544.9809043,W,1,24,0.6,1.087,M,-39.961,M,0.0,*60
###2023-11-09 13:06:22.735232$GPGSV,2,1,07,05,21,090,40,10,17,292,45,13,25,045,42,15,62,036,46*7C
###2023-11-09 13:06:22.737516$GPGSV,2,2,07,18,77,282,47,23,49,314,46,24,49,137,45,,,,*4B
###2023-11-09 13:06:22.740101$GLGSV,2,1,05,70,50,016,35,71,48,288,48,80,17,091,43,85,58,203,48*68
###2023-11-09 13:06:22.741709$GLGSV,2,2,05,86,52,309,47,,,,,,,,,,,,*50
###2023-11-09 13:06:22.744281$GAGSV,1,1,04,07,72,255,45,08,49,042,44,13,64,160,44,26,56,311,45*6C
###2023-11-09 13:06:22.746894$GBGSV,2,1,06,11,24,180,42,14,65,006,46,24,19,133,42,26,23,082,41*66
###2023-11-09 13:06:22.748847$GBGSV,2,2,06,28,43,289,47,33,58,302,47,,,,,,,,*6F
###2023-11-09 13:06:22.750319$GNVTG,327.65,T,,M,0.17,N,0.32,K,A*21
###2023-11-09 13:06:22.837124$GNGGA,130623.00,3611.0407948,N,07544.9809075,W,1,24,0.6,1.066,M,-39.961,M,0.0,*68
###2023-11-09 13:06:22.839710$GPGSV,2,1,07,05,21,090,41,10,17,292,45,13,25,045,42,15,62,036,46*7D
###2023-11-09 13:06:22.841951$GPGSV,2,2,07,18,77,282,47,23,49,314,46,24,49,137,45,,,,*4B
###2023-11-09 13:06:22.844532$GLGSV,2,1,05,70,50,016,35,71,48,288,49,80,17,091,43,85,58,203,48*69
###2023-11-09 13:06:22.846140$GLGSV,2,2,05,86,52,309,47,,,,,,,,,,,,*50
###2023-11-09 13:06:22.848705$GAGSV,1,1,04,07,72,255,45,08,49,042,44,13,64,160,44,26,56,311,45*6C
###2023-11-09 13:06:22.851276$GBGSV,2,1,06,11,24,180,42,14,65,006,46,24,19,133,42,26,23,082,40*67
###2023-11-09 13:06:22.853238$GBGSV,2,2,06,28,43,289,47,33,58,302,47,,,,,,,,*6F
###2023-11-09 13:06:22.854703$GNVTG,327.65,T,,M,0.37,N,0.68,K,A*2C
###2023-11-09 13:06:22.934121$GNGGA,130623.10,3611.0408083,N,07544.9809040,W,1,24,0.6,1.053,M,-39.961,M,0.0,*68
###2023-11-09 13:06:22.936723$GPGSV,2,1,07,05,21,090,41,10,17,292,44,13,25,045,42,15,62,036,46*7C
###2023-11-09 13:06:22.938998$GPGSV,2,2,07,18,77,282,47,23,49,314,45,24,49,137,45,,,,*48
###2023-11-09 13:06:22.941576$GLGSV,2,1,05,70,50,016,35,71,48,288,49,80,17,091,43,85,58,203,48*69
###2023-11-09 13:06:22.943187$GLGSV,2,2,05,86,52,309,47,,,,,,,,,,,,*50
###2023-11-09 13:06:22.945738$GAGSV,1,1,04,07,72,255,45,08,49,042,44,13,64,160,44,26,56,311,45*6C
###2023-11-09 13:06:22.948341$GBGSV,2,1,06,11,24,180,42,14,65,006,46,24,19,133,43,26,23,082,40*66
###2023-11-09 13:06:22.950269$GBGSV,2,2,06,28,43,289,47,33,58,302,47,,,,,,,,*6F
###2023-11-09 13:06:22.951732$GNVTG,327.65,T,,M,0.66,N,1.22,K,A*27
###2023-11-09 13:06:23.035111$GNGGA,130623.20,3611.0408263,N,07544.9808956,W,1,24,0.6,1.040,M,-39.961,M,0.0,*6A
###2023-11-09 13:06:23.037710$GPGSV,2,1,07,05,21,090,41,10,17,292,44,13,25,045,42,15,62,036,46*7C
###2023-11-09 13:06:23.039958$GPGSV,2,2,07,18,77,282,47,23,49,314,45,24,49,137,45,,,,*48
###2023-11-09 13:06:23.042520$GLGSV,2,1,05,70,50,016,35,71,48,288,48,80,17,091,44,85,58,203,47*60
###2023-11-09 13:06:23.044124$GLGSV,2,2,05,86,52,309,47,,,,,,,,,,,,*50
###2023-11-09 13:06:23.046682$GAGSV,1,1,04,07,72,255,45,08,49,042,44,13,64,160,44,26,56,311,45*6C
###2023-11-09 13:06:23.049266$GBGSV,2,1,06,11,24,180,42,14,65,006,46,24,19,133,43,26,23,082,40*66
###2023-11-09 13:06:23.051198$GBGSV,2,2,06,28,43,289,47,33,58,302,47,,,,,,,,*6F
###2023-11-09 13:06:23.052649$GNVTG,327.65,T,,M,0.76,N,1.40,K,A*22
###2023-11-09 13:06:23.131596$GNGGA,130623.30,3611.0408444,N,07544.9808859,W,1,24,0.6,1.020,M,-39.961,M,0.0,*60
###2023-11-09 13:06:23.134158$GPGSV,2,1,07,05,21,090,41,10,17,292,44,13,25,045,42,15,62,036,46*7C
###2023-11-09 13:06:23.136387$GPGSV,2,2,07,18,77,282,47,23,49,314,45,24,49,137,45,,,,*48
###2023-11-09 13:06:23.138961$GLGSV,2,1,05,70,50,016,35,71,48,288,48,80,17,091,44,85,58,203,47*60
###2023-11-09 13:06:23.140555$GLGSV,2,2,05,86,52,309,47,,,,,,,,,,,,*50
###2023-11-09 13:06:23.143099$GAGSV,1,1,04,07,72,255,45,08,49,042,44,13,64,160,44,26,56,311,45*6C
###2023-11-09 13:06:23.145658$GBGSV,2,1,06,11,24,180,42,14,65,006,46,24,19,133,43,26,23,082,41*67
###2023-11-09 13:06:23.147587$GBGSV,2,2,06,28,43,289,47,33,58,302,47,,,,,,,,*6F
###2023-11-09 13:06:23.149042$GNVTG,327.65,T,,M,0.68,N,1.26,K,A*2D
###2023-11-09 13:06:23.232476$GNGGA,130623.40,3611.0408596,N,07544.9808754,W,1,24,0.6,1.001,M,-39.961,M,0.0,*68
###2023-11-09 13:06:23.235078$GPGSV,2,1,07,05,21,090,41,10,17,292,43,13,25,045,42,15,62,036,46*7B
###2023-11-09 13:06:23.237348$GPGSV,2,2,07,18,77,282,47,23,49,314,45,24,49,137,45,,,,*48
###2023-11-09 13:06:23.239931$GLGSV,2,1,05,70,50,016,35,71,48,288,47,80,17,091,45,85,58,203,47*6E
###2023-11-09 13:06:23.241546$GLGSV,2,2,05,86,52,309,47,,,,,,,,,,,,*50
###2023-11-09 13:06:23.244132$GAGSV,1,1,04,07,72,255,45,08,49,042,44,13,64,160,44,26,56,311,45*6C
###2023-11-09 13:06:23.246721$GBGSV,2,1,06,11,24,180,41,14,65,006,46,24,19,133,42,26,23,082,41*65
###2023-11-09 13:06:23.248671$GBGSV,2,2,06,28,43,289,47,33,58,302,47,,,,,,,,*6F
###2023-11-09 13:06:23.250138$GNVTG,327.65,T,,M,0.60,N,1.12,K,A*22
###2023-11-09 13:06:23.331969$GNGGA,130623.50,3611.0408699,N,07544.9808649,W,1,24,0.6,0.988,M,-39.961,M,0.0,*61
###2023-11-09 13:06:23.334559$GPGSV,2,1,07,05,21,090,41,10,17,292,43,13,25,045,42,15,62,036,46*7B
###2023-11-09 13:06:23.336806$GPGSV,2,2,07,18,77,282,47,23,49,314,45,24,49,137,45,,,,*48
###2023-11-09 13:06:23.339398$GLGSV,2,1,05,70,50,016,36,71,48,288,47,80,17,091,45,85,58,203,47*6D
###2023-11-09 13:06:23.340998$GLGSV,2,2,05,86,52,309,47,,,,,,,,,,,,*50
###2023-11-09 13:06:23.343561$GAGSV,1,1,04,07,72,255,45,08,49,042,44,13,64,160,44,26,56,311,45*6C
###2023-11-09 13:06:23.346136$GBGSV,2,1,06,11,24,180,41,14,65,006,46,24,19,133,42,26,23,082,42*66
###2023-11-09 13:06:23.348074$GBGSV,2,2,06,28,43,289,47,33,58,302,47,,,,,,,,*6F
###2023-11-09 13:06:23.349529$GNVTG,327.65,T,,M,0.39,N,0.72,K,A*29
###2023-11-09 13:06:23.431721$GNGGA,130623.60,3611.0408765,N,07544.9808548,W,1,24,0.6,0.971,M,-39.961,M,0.0,*64
###2023-11-09 13:06:23.434275$GPGSV,2,1,07,05,21,090,41,10,17,292,43,13,25,045,42,15,62,036,46*7B
###2023-11-09 13:06:23.436513$GPGSV,2,2,07,18,77,282,47,23,49,314,45,24,49,137,45,,,,*48
###2023-11-09 13:06:23.439119$GLGSV,2,1,05,70,50,016,36,71,48,288,48,80,17,091,45,85,58,203,48*6D
###2023-11-09 13:06:23.441019$GLGSV,2,2,05,86,52,309,47,,,,,,,,,,,,*50
###2023-11-09 13:06:23.443593$GAGSV,1,1,04,07,72,255,45,08,49,042,44,13,64,160,44,26,56,311,45*6C
###2023-11-09 13:06:23.446165$GBGSV,2,1,06,11,24,180,41,14,65,006,46,24,19,133,42,26,23,082,42*66
###2023-11-09 13:06:23.448116$GBGSV,2,2,06,28,43,289,47,33,58,302,47,,,,,,,,*6F
###2023-11-09 13:06:23.449577$GNVTG,327.65,T,,M,0.39,N,0.72,K,A*29
###2023-11-09 13:06:23.530515$GNGGA,130623.70,3611.0408846,N,07544.9808415,W,1,24,0.6,0.951,M,-39.961,M,0.0,*60
###2023-11-09 13:06:23.533113$GPGSV,2,1,07,05,21,090,41,10,17,292,43,13,25,045,42,15,62,036,46*7B
###2023-11-09 13:06:23.535359$GPGSV,2,2,07,18,77,282,47,23,49,314,45,24,49,137,45,,,,*48
###2023-11-09 13:06:23.537952$GLGSV,2,1,05,70,50,016,36,71,48,288,48,80,17,091,45,85,58,203,48*6D
###2023-11-09 13:06:23.539558$GLGSV,2,2,05,86,52,309,47,,,,,,,,,,,,*50
