###2023-11-09 13:09:10.537810$GLGSV,2,2,05,86,53,308,48,,,,,,,,,,,,*5F
###2023-11-09 13:09:10.540403$GAGSV,1,1,04,07,73,259,45,08,48,043,44,13,63,161,45,26,57,310,45*66
###2023-11-09 13:09:10.542977$GBGSV,2,1,06,11,23,180,43,14,65,008,45,24,20,132,45,26,23,081,44*67
###2023-11-09 13:09:10.544915$GBGSV,2,2,06,28,43,287,47,33,59,304,47,,,,,,,,*66
###2023-11-09 13:09:10.546340$GNVTG,56.15,T,,M,5.33,N,9.86,K,A*16
###2023-11-09 13:09:10.628275$GNGGA,130910.80,3611.0268439,N,07544.9620952,W,1,24,0.6,0.704,M,-39.962,M,0.0,*63
###2023-11-09 13:09:10.630881$GPGSV,2,1,07,05,20,090,43,10,19,293,41,13,24,045,40,15,61,037,45*77
###2023-11-09 13:09:10.633146$GPGSV,2,2,07,18,78,277,47,23,50,316,46,24,50,135,45,,,,*4E
###2023-11-09 13:09:10.635725$GLGSV,2,1,05,70,50,017,36,71,48,290,47,80,18,090,45,85,57,203,49*6A
###2023-11-09 13:09:10.637367$GLGSV,2,2,05,86,53,308,48,,,,,,,,,,,,*5F
###2023-11-09 13:09:10.639934$GAGSV,1,1,04,07,73,259,45,08,48,043,44,13,63,161,45,26,57,310,45*66
###2023-11-09 13:09:10.642522$GBGSV,2,1,06,11,23,180,43,14,65,008,45,24,20,132,45,26,23,081,44*67
###2023-11-09 13:09:10.644466$GBGSV,2,2,06,28,43,287,47,33,59,304,47,,,,,,,,*66
###2023-11-09 13:09:10.645932$GNVTG,54.63,T,,M,5.42,N,10.04,K,A*21
###2023-11-09 13:09:10.728141$GNGGA,130910.90,3611.0269302,N,07544.9619440,W,1,24,0.6,0.718,M,-39.962,M,0.0,*65
###2023-11-09 13:09:10.730725$GPGSV,2,1,07,05,20,090,43,10,19,293,43,13,24,045,40,15,61,037,45*75
###2023-11-09 13:09:10.732966$GPGSV,2,2,07,18,78,277,47,23,50,316,46,24,50,135,45,,,,*4E
###2023-11-09 13:09:10.735542$GLGSV,2,1,05,70,50,017,36,71,48,290,47,80,18,090,45,85,57,203,49*6A
###2023-11-09 13:09:10.737162$GLGSV,2,2,05,86,53,308,49,,,,,,,,,,,,*5E
###2023-11-09 13:09:10.739735$GAGSV,1,1,04,07,73,259,45,08,48,043,44,13,63,161,45,26,57,310,45*66
###2023-11-09 13:09:10.742320$GBGSV,2,1,06,11,23,180,42,14,65,008,45,24,20,132,45,26,23,081,44*66
###2023-11-09 13:09:10.744261$GBGSV,2,2,06,28,43,287,47,33,59,304,48,,,,,,,,*69
###2023-11-09 13:09:10.745690$GNVTG,54.90,T,,M,5.33,N,9.86,K,A*19
###2023-11-09 13:09:10.831484$GNGGA,130911.00,3611.0270156,N,07544.9617925,W,1,24,0.6,0.734,M,-39.962,M,0.0,*68
###2023-11-09 13:09:10.834081$GPGSV,2,1,07,05,20,090,43,10,19,293,44,13,24,045,40,15,61,037,46*71
###2023-11-09 13:09:10.836334$GPGSV,2,2,07,18,78,277,47,23,50,316,46,24,50,135,45,,,,*4E
###2023-11-09 13:09:10.838926$GLGSV,2,1,05,70,50,017,36,71,48,290,48,80,18,090,45,85,57,203,48*64
###2023-11-09 13:09:10.840534$GLGSV,2,2,05,86,53,308,49,,,,,,,,,,,,*5E
###2023-11-09 13:09:10.843093$GAGSV,1,1,04,07,73,259,45,08,48,043,44,13,63,161,45,26,57,310,45*66
###2023-11-09 13:09:10.845673$GBGSV,2,1,06,11,23,180,42,14,65,008,45,24,20,132,44,26,23,081,44*67
###2023-11-09 13:09:10.847627$GBGSV,2,2,06,28,43,287,48,33,59,304,48,,,,,,,,*66
###2023-11-09 13:09:10.849097$GNVTG,55.25,T,,M,5.40,N,10.01,K,A*25
###2023-11-09 13:09:10.928146$GNGGA,130911.10,3611.0270987,N,07544.9616378,W,1,24,0.6,0.753,M,-39.962,M,0.0,*6F
###2023-11-09 13:09:10.930751$GPGSV,2,1,07,05,20,090,43,10,19,293,44,13,24,045,41,15,61,037,46*70
###2023-11-09 13:09:10.933021$GPGSV,2,2,07,18,78,277,47,23,50,316,46,24,50,135,45,,,,*4E
###2023-11-09 13:09:10.935605$GLGSV,2,1,05,70,50,017,36,71,48,290,48,80,18,090,45,85,57,203,48*64
###2023-11-09 13:09:10.937347$GLGSV,2,2,05,86,53,308,49,,,,,,,,,,,,*5E
###2023-11-09 13:09:10.939919$GAGSV,1,1,04,07,73,259,45,08,48,043,44,13,63,161,45,26,57,310,45*66
###2023-11-09 13:09:10.942503$GBGSV,2,1,06,11,23,180,42,14,65,008,45,24,20,132,44,26,23,081,43*60
###2023-11-09 13:09:10.944434$GBGSV,2,2,06,28,43,287,48,33,59,304,48,,,,,,,,*66
###2023-11-09 13:09:10.945864$GNVTG,57.62,T,,M,5.38,N,9.97,K,A*1C
###2023-11-09 13:09:11.031345$GNGGA,130911.20,3611.0271772,N,07544.9614805,W,1,24,0.6,0.783,M,-39.962,M,0.0,*67
###2023-11-09 13:09:11.033922$GPGSV,2,1,07,05,20,090,43,10,19,293,43,13,24,045,41,15,61,037,45*74
###2023-11-09 13:09:11.036179$GPGSV,2,2,07,18,78,277,47,23,50,316,46,24,50,135,45,,,,*4E
###2023-11-09 13:09:11.038777$GLGSV,2,1,05,70,50,017,36,71,48,290,47,80,18,090,45,85,57,203,48*6B
###2023-11-09 13:09:11.040389$GLGSV,2,2,05,86,53,308,49,,,,,,,,,,,,*5E
###2023-11-09 13:09:11.042953$GAGSV,1,1,04,07,73,259,46,08,48,043,44,13,63,161,45,26,57,310,45*65
###2023-11-09 13:09:11.045531$GBGSV,2,1,06,11,23,180,42,14,65,008,45,24,20,132,44,26,23,081,44*67
###2023-11-09 13:09:11.047474$GBGSV,2,2,06,28,43,287,48,33,59,304,48,,,,,,,,*66
###2023-11-09 13:09:11.048901$GNVTG,58.74,T,,M,5.35,N,9.90,K,A*1E
###2023-11-09 13:09:11.128489$GNGGA,130911.30,3611.0272580,N,07544.9613252,W,1,24,0.6,0.812,M,-39.962,M,0.0,*62
###2023-11-09 13:09:11.131071$GPGSV,2,1,07,05,20,090,43,10,19,293,42,13,24,045,40,15,61,037,45*74
###2023-11-09 13:09:11.133313$GPGSV,2,2,07,18,78,277,47,23,50,316,46,24,50,135,45,,,,*4E
###2023-11-09 13:09:11.135860$GLGSV,2,1,05,70,50,017,36,71,48,290,47,80,18,090,45,85,57,203,49*6A
###2023-11-09 13:09:11.137464$GLGSV,2,2,05,86,53,308,48,,,,,,,,,,,,*5F
###2023-11-09 13:09:11.139997$GAGSV,1,1,04,07,73,259,45,08,48,043,44,13,63,161,45,26,57,310,45*66
###2023-11-09 13:09:11.142566$GBGSV,2,1,06,11,23,180,42,14,65,008,45,24,20,132,45,26,23,081,44*66
###2023-11-09 13:09:11.144487$GBGSV,2,2,06,28,43,287,47,33,59,304,47,,,,,,,,*66
###2023-11-09 13:09:11.145904$GNVTG,55.73,T,,M,5.38,N,9.97,K,A*1E
###2023-11-09 13:09:11.228133$GNGGA,130911.40,3611.0273479,N,07544.9611796,W,1,24,0.6,0.846,M,-39.962,M,0.0,*6D
###2023-11-09 13:09:11.230718$GPGSV,2,1,07,05,20,090,43,10,19,293,42,13,24,045,40,15,61,037,45*74
###2023-11-09 13:09:11.232967$GPGSV,2,2,07,18,78,277,47,23,50,316,46,24,50,135,45,,,,*4E
###2023-11-09 13:09:11.235530$GLGSV,2,1,05,70,50,017,36,71,48,290,47,80,18,090,45,85,57,203,49*6A
###2023-11-09 13:09:11.237146$GLGSV,2,2,05,86,53,308,48,,,,,,,,,,,,*5F
###2023-11-09 13:09:11.239705$GAGSV,1,1,04,07,73,259,45,08,48,043,44,13,63,161,45,26,57,310,45*66
###2023-11-09 13:09:11.242277$GBGSV,2,1,06,11,23,180,43,14,65,008,45,24,20,132,45,26,23,081,44*67
###2023-11-09 13:09:11.244207$GBGSV,2,2,06,28,43,287,46,33,59,304,47,,,,,,,,*67
###2023-11-09 13:09:11.245635$GNVTG,49.61,T,,M,5.27,N,9.76,K,A*11
###2023-11-09 13:09:11.329136$GNGGA,130911.50,3611.0274484,N,07544.9610478,W,1,24,0.6,0.890,M,-39.962,M,0.0,*60
###2023-11-09 13:09:11.331731$GPGSV,2,1,07,05,20,090,43,10,19,293,42,13,24,045,40,15,61,037,45*74
###2023-11-09 13:09:11.333980$GPGSV,2,2,07,18,78,277,47,23,50,316,46,24,50,135,45,,,,*4E
###2023-11-09 13:09:11.336545$GLGSV,2,1,05,70,50,017,36,71,48,290,47,80,18,090,45,85,57,203,49*6A
###2023-11-09 13:09:11.338158$GLGSV,2,2,05,86,53,308,48,,,,,,,,,,,,*5F
###2023-11-09 13:09:11.340714$GAGSV,1,1,04,07,73,259,45,08,48,043,44,13,63,161,45,26,57,310,45*66
###2023-11-09 13:09:11.343280$GBGSV,2,1,06,11,23,180,43,14,65,008,45,24,20,132,45,26,23,081,44*67
###2023-11-09 13:09:11.345213$GBGSV,2,2,06,28,43,287,46,33,59,304,47,,,,,,,,*67
###2023-11-09 13:09:11.346644$GNVTG,43.60,T,,M,5.27,N,9.76,K,A*1A
###2023-11-09 13:09:11.430337$GNGGA,130911.60,3611.0275570,N,07544.9609245,W,1,24,0.6,0.930,M,-39.962,M,0.0,*63
###2023-11-09 13:09:11.432910$GPGSV,2,1,07,05,20,090,43,10,19,293,42,13,24,045,40,15,61,037,45*74
###2023-11-09 13:09:11.435153$GPGSV,2,2,07,18,78,277,47,23,50,316,46,24,50,135,45,,,,*4E
###2023-11-09 13:09:11.437760$GLGSV,2,1,05,70,50,017,36,71,48,290,47,80,18,090,45,85,57,203,49*6A
###2023-11-09 13:09:11.439361$GLGSV,2,2,05,86,53,308,48,,,,,,,,,,,,*5F
###2023-11-09 13:09:11.441912$GAGSV,1,1,04,07,73,259,45,08,48,043,44,13,63,161,45,26,57,310,45*66
###2023-11-09 13:09:11.444477$GBGSV,2,1,06,11,23,180,42,14,65,008,44,24,20,132,44,26,23,081,43*61
###2023-11-09 13:09:11.446393$GBGSV,2,2,06,28,43,287,46,33,59,304,47,,,,,,,,*67
###2023-11-09 13:09:11.447829$GNVTG,41.29,T,,M,5.33,N,9.86,K,A*1F
###2023-11-09 13:09:11.528263$GNGGA,130911.70,3611.0276674,N,07544.9608024,W,1,24,0.6,0.961,M,-39.962,M,0.0,*66
###2023-11-09 13:09:11.530857$GPGSV,2,1,07,05,20,090,43,10,19,293,44,13,24,045,40,15,61,037,45*72
###2023-11-09 13:09:11.533110$GPGSV,2,2,07,18,78,277,47,23,50,316,46,24,50,135,45,,,,*4E
###2023-11-09 13:09:11.535679$GLGSV,2,1,05,70,50,017,36,71,48,290,48,80,18,090,44,85,57,203,48*65
###2023-11-09 13:09:11.537302$GLGSV,2,2,05,86,53,308,49,,,,,,,,,,,,*5E
###2023-11-09 13:09:11.540180$GAGSV,1,1,04,07,73,259,45,08,48,043,44,13,63,161,45,26,57,310,45*66
###2023-11-09 13:09:11.542784$GBGSV,2,1,06,11,23,180,41,14,65,008,45,24,20,132,43,26,23,081,43*64
###2023-11-09 13:09:11.544738$GBGSV,2,2,06,28,43,287,47,33,59,304,48,,,,,,,,*69
###2023-11-09 13:09:11.546177$GNVTG,42.10,T,,M,5.31,N,9.83,K,A*11
###2023-11-09 13:09:11.629142$GNGGA,130911.80,3611.0277749,N,07544.9606775,W,1,24,0.6,0.982,M,-39.962,M,0.0,*67
###2023-11-09 13:09:11.631736$GPGSV,2,1,07,05,20,090,42,10,19,293,44,13,24,045,40,15,61,037,45*73
###2023-11-09 13:09:11.633990$GPGSV,2,2,07,18,78,277,47,23,50,316,46,24,50,135,45,,,,*4E
###2023-11-09 13:09:11.636569$GLGSV,2,1,05,70,50,017,36,71,48,290,48,80,18,090,44,85,57,203,48*65
###2023-11-09 13:09:11.638198$GLGSV,2,2,05,86,53,308,49,,,,,,,,,,,,*5E
