###2023-11-09 13:09:56.338990$GLGSV,2,1,05,70,49,019,35,71,48,291,47,80,18,090,44,85,57,203,49*6F
###2023-11-09 13:09:56.340624$GLGSV,2,2,05,86,53,308,48,,,,,,,,,,,,*5F
###2023-11-09 13:09:56.343189$GAGSV,1,1,04,07,73,259,46,08,48,043,44,13,63,161,46,26,57,310,45*66
###2023-11-09 13:09:56.345771$GBGSV,2,1,06,11,22,180,43,14,65,009,44,24,21,132,45,26,23,080,43*61
###2023-11-09 13:09:56.347739$GBGSV,2,2,06,28,43,286,46,33,59,305,48,,,,,,,,*68
###2023-11-09 13:09:56.349177$GNVTG,50.88,T,,M,5.29,N,9.79,K,A*1F
###2023-11-09 13:09:56.430766$GNGGA,130956.60,3611.0455632,N,07544.9055610,W,1,24,0.6,0.534,M,-39.961,M,0.0,*61
###2023-11-09 13:09:56.433353$GPGSV,2,1,07,05,20,090,41,10,19,293,42,13,24,045,40,15,61,037,46*75
###2023-11-09 13:09:56.435611$GPGSV,2,2,07,18,78,277,47,23,50,316,45,24,50,134,45,,,,*4C
###2023-11-09 13:09:56.438208$GLGSV,2,1,05,70,49,019,35,71,48,291,47,80,18,090,44,85,57,203,49*6F
###2023-11-09 13:09:56.439826$GLGSV,2,2,05,86,53,308,48,,,,,,,,,,,,*5F
###2023-11-09 13:09:56.442411$GAGSV,1,1,04,07,73,259,46,08,48,043,44,13,63,161,45,26,57,310,45*65
###2023-11-09 13:09:56.445007$GBGSV,2,1,06,11,22,180,43,14,65,009,44,24,21,132,44,26,23,080,43*60
###2023-11-09 13:09:56.446964$GBGSV,2,2,06,28,43,286,46,33,59,305,48,,,,,,,,*68
###2023-11-09 13:09:56.448394$GNVTG,52.69,T,,M,5.23,N,9.68,K,A*18
###2023-11-09 13:09:56.530146$GNGGA,130956.70,3611.0456511,N,07544.9054171,W,1,24,0.6,0.527,M,-39.961,M,0.0,*62
###2023-11-09 13:09:56.532770$GPGSV,2,1,07,05,20,090,41,10,19,293,43,13,24,045,40,15,61,037,46*74
###2023-11-09 13:09:56.535043$GPGSV,2,2,07,18,78,277,47,23,50,316,46,24,50,134,45,,,,*4F
###2023-11-09 13:09:56.537643$GLGSV,2,1,05,70,49,019,35,71,48,291,47,80,18,090,44,85,57,203,49*6F
###2023-11-09 13:09:56.539258$GLGSV,2,2,05,86,53,308,48,,,,,,,,,,,,*5F
###2023-11-09 13:09:56.541846$GAGSV,1,1,04,07,73,259,46,08,48,043,44,13,63,161,45,26,57,310,45*65
###2023-11-09 13:09:56.544437$GBGSV,2,1,06,11,22,180,42,14,65,009,44,24,21,132,44,26,23,080,42*60
###2023-11-09 13:09:56.546388$GBGSV,2,2,06,28,43,286,46,33,59,305,48,,,,,,,,*68
###2023-11-09 13:09:56.547836$GNVTG,53.85,T,,M,5.33,N,9.86,K,A*1A
###2023-11-09 13:09:56.631265$GNGGA,130956.80,3611.0457376,N,07544.9052691,W,1,24,0.6,0.521,M,-39.961,M,0.0,*62
###2023-11-09 13:09:56.633883$GPGSV,2,1,07,05,20,090,41,10,19,293,43,13,24,045,40,15,61,037,46*74
###2023-11-09 13:09:56.636152$GPGSV,2,2,07,18,78,277,47,23,50,316,46,24,50,134,45,,,,*4F
###2023-11-09 13:09:56.638797$GLGSV,2,1,05,70,49,019,35,71,48,291,48,80,18,090,45,85,57,203,49*61
###2023-11-09 13:09:56.640431$GLGSV,2,2,05,86,53,308,48,,,,,,,,,,,,*5F
###2023-11-09 13:09:56.643028$GAGSV,1,1,04,07,73,259,46,08,48,043,44,13,63,161,45,26,57,310,45*65
###2023-11-09 13:09:56.645625$GBGSV,2,1,06,11,22,180,42,14,65,009,44,24,21,132,44,26,23,080,42*60
###2023-11-09 13:09:56.647594$GBGSV,2,2,06,28,43,286,46,33,59,305,48,,,,,,,,*68
###2023-11-09 13:09:56.649030$GNVTG,55.04,T,,M,5.37,N,9.94,K,A*12
###2023-11-09 13:09:56.731286$GNGGA,130956.90,3611.0458211,N,07544.9051186,W,1,24,0.6,0.524,M,-39.961,M,0.0,*6B
###2023-11-09 13:09:56.733896$GPGSV,2,1,07,05,20,090,43,10,19,293,43,13,24,045,41,15,61,037,46*77
###2023-11-09 13:09:56.736153$GPGSV,2,2,07,18,78,277,47,23,50,316,46,24,50,134,45,,,,*4F
###2023-11-09 13:09:56.738750$GLGSV,2,1,05,70,49,019,36,71,48,291,47,80,18,090,45,85,57,203,49*6D
###2023-11-09 13:09:56.740361$GLGSV,2,2,05,86,53,308,48,,,,,,,,,,,,*5F
###2023-11-09 13:09:56.742933$GAGSV,1,1,04,07,73,259,46,08,48,043,44,13,63,161,45,26,57,310,45*65
###2023-11-09 13:09:56.745506$GBGSV,2,1,06,11,22,180,42,14,65,009,44,24,21,132,44,26,23,080,43*61
###2023-11-09 13:09:56.747453$GBGSV,2,2,06,28,43,286,46,33,59,305,48,,,,,,,,*68
###2023-11-09 13:09:56.748884$GNVTG,56.57,T,,M,5.33,N,9.86,K,A*10
###2023-11-09 13:09:56.832146$GNGGA,130957.00,3611.0459059,N,07544.9049701,W,1,24,0.6,0.533,M,-39.961,M,0.0,*6A
###2023-11-09 13:09:56.834743$GPGSV,2,1,07,05,20,090,44,10,19,293,42,13,24,045,40,15,61,037,46*70
###2023-11-09 13:09:56.837033$GPGSV,2,2,07,18,78,277,47,23,50,316,45,24,50,134,45,,,,*4C
###2023-11-09 13:09:56.839632$GLGSV,2,1,05,70,49,019,36,71,48,291,47,80,18,090,46,85,57,203,48*6F
###2023-11-09 13:09:56.841254$GLGSV,2,2,05,86,53,308,48,,,,,,,,,,,,*5F
###2023-11-09 13:09:56.843837$GAGSV,1,1,04,07,73,259,46,08,48,043,44,13,63,161,45,26,57,310,45*65
###2023-11-09 13:09:56.846436$GBGSV,2,1,06,11,22,180,42,14,65,009,44,24,21,132,45,26,23,080,43*60
###2023-11-09 13:09:56.848400$GBGSV,2,2,06,28,43,286,46,33,59,305,48,,,,,,,,*68
###2023-11-09 13:09:56.849836$GNVTG,53.69,T,,M,5.33,N,9.86,K,A*18
###2023-11-09 13:09:56.931024$GNGGA,130957.10,3611.0459968,N,07544.9048305,W,1,24,0.6,0.556,M,-39.961,M,0.0,*62
###2023-11-09 13:09:56.933632$GPGSV,2,1,07,05,20,090,44,10,19,293,42,13,24,045,40,15,61,037,45*73
###2023-11-09 13:09:56.935893$GPGSV,2,2,07,18,78,277,47,23,50,316,45,24,50,134,45,,,,*4C
###2023-11-09 13:09:56.938504$GLGSV,2,1,05,70,49,019,36,71,48,291,47,80,18,090,46,85,57,203,49*6E
###2023-11-09 13:09:56.940114$GLGSV,2,2,05,86,53,308,48,,,,,,,,,,,,*5F
###2023-11-09 13:09:56.942686$GAGSV,1,1,04,07,73,259,46,08,48,043,44,13,63,161,46,26,57,310,44*67
###2023-11-09 13:09:56.945260$GBGSV,2,1,06,11,22,180,43,14,65,009,44,24,21,132,45,26,23,080,44*66
###2023-11-09 13:09:56.947208$GBGSV,2,2,06,28,43,286,46,33,59,305,47,,,,,,,,*67
###2023-11-09 13:09:56.948636$GNVTG,49.15,T,,M,5.19,N,9.61,K,A*19
###2023-11-09 13:09:57.032987$GNGGA,130957.20,3611.0460940,N,07544.9047035,W,1,24,0.6,0.593,M,-39.961,M,0.0,*67
###2023-11-09 13:09:57.035575$GPGSV,2,1,07,05,20,090,43,10,19,293,42,13,24,045,40,15,61,037,46*77
###2023-11-09 13:09:57.037824$GPGSV,2,2,07,18,78,277,47,23,50,316,45,24,50,134,45,,,,*4C
###2023-11-09 13:09:57.040371$GLGSV,2,1,05,70,49,019,35,71,48,291,48,80,18,090,45,85,57,203,49*61
###2023-11-09 13:09:57.041969$GLGSV,2,2,05,86,53,308,48,,,,,,,,,,,,*5F
###2023-11-09 13:09:57.044530$GAGSV,1,1,04,07,73,259,46,08,48,043,44,13,63,161,46,26,57,310,44*67
###2023-11-09 13:09:57.047122$GBGSV,2,1,06,11,22,180,43,14,65,009,44,24,21,132,45,26,23,080,44*66
###2023-11-09 13:09:57.049048$GBGSV,2,2,06,28,43,286,46,33,59,305,47,,,,,,,,*67
###2023-11-09 13:09:57.050468$GNVTG,44.72,T,,M,5.05,N,9.36,K,A*1A
###2023-11-09 13:09:57.130488$GNGGA,130957.30,3611.0461963,N,07544.9045851,W,1,24,0.6,0.638,M,-39.961,M,0.0,*6C
###2023-11-09 13:09:57.133095$GPGSV,2,1,07,05,20,090,42,10,19,293,42,13,24,045,40,15,61,037,46*76
###2023-11-09 13:09:57.135362$GPGSV,2,2,07,18,78,277,47,23,50,316,45,24,50,134,45,,,,*4C
###2023-11-09 13:09:57.137978$GLGSV,2,1,05,70,49,019,35,71,48,291,48,80,18,090,45,85,57,203,49*61
###2023-11-09 13:09:57.139602$GLGSV,2,2,05,86,53,308,48,,,,,,,,,,,,*5F
###2023-11-09 13:09:57.142182$GAGSV,1,1,04,07,73,259,46,08,48,043,44,13,63,161,46,26,57,310,44*67
###2023-11-09 13:09:57.144763$GBGSV,2,1,06,11,22,180,43,14,65,009,44,24,21,132,43,26,23,080,43*67
###2023-11-09 13:09:57.146697$GBGSV,2,2,06,28,43,286,47,33,59,305,47,,,,,,,,*66
###2023-11-09 13:09:57.148169$GNVTG,42.12,T,,M,5.07,N,9.40,K,A*19
###2023-11-09 13:09:57.231258$GNGGA,130957.40,3611.0463006,N,07544.9044681,W,1,24,0.6,0.673,M,-39.961,M,0.0,*6E
###2023-11-09 13:09:57.233844$GPGSV,2,1,07,05,20,090,42,10,19,293,43,13,24,045,40,15,61,037,46*77
###2023-11-09 13:09:57.236106$GPGSV,2,2,07,18,78,277,47,23,50,316,45,24,50,134,45,,,,*4C
###2023-11-09 13:09:57.238697$GLGSV,2,1,05,70,49,019,36,71,48,291,48,80,18,090,44,85,57,203,49*63
###2023-11-09 13:09:57.240299$GLGSV,2,2,05,86,53,308,48,,,,,,,,,,,,*5F
###2023-11-09 13:09:57.242877$GAGSV,1,1,04,07,73,259,46,08,48,043,44,13,63,161,45,26,57,310,44*64
###2023-11-09 13:09:57.245451$GBGSV,2,1,06,11,22,180,42,14,65,009,44,24,21,132,43,26,23,080,43*66
###2023-11-09 13:09:57.247399$GBGSV,2,2,06,28,43,286,47,33,59,305,47,,,,,,,,*66
###2023-11-09 13:09:57.248830$GNVTG,42.92,T,,M,5.11,N,9.47,K,A*11
###2023-11-09 13:09:57.330344$GNGGA,130957.50,3611.0464018,N,07544.9043472,W,1,24,0.6,0.692,M,-39.961,M,0.0,*61
###2023-11-09 13:09:57.332914$GPGSV,2,1,07,05,20,090,42,10,19,293,43,13,24,045,40,15,61,037,46*77
###2023-11-09 13:09:57.335157$GPGSV,2,2,07,18,78,277,47,23,50,316,45,24,50,134,45,,,,*4C
###2023-11-09 13:09:57.337749$GLGSV,2,1,05,70,49,019,36,71,48,291,48,80,18,090,44,85,57,203,49*63
###2023-11-09 13:09:57.339658$GLGSV,2,2,05,86,53,308,48,,,,,,,,,,,,*5F
###2023-11-09 13:09:57.342229$GAGSV,1,1,04,07,73,259,46,08,48,043,44,13,63,161,45,26,57,310,45*65
###2023-11-09 13:09:57.344818$GBGSV,2,1,06,11,22,180,42,14,65,009,44,24,21,132,42,26,23,080,43*67
###2023-11-09 13:09:57.346756$GBGSV,2,2,06,28,43,286,47,33,59,305,47,,,,,,,,*66
###2023-11-09 13:09:57.348198$GNVTG,45.90,T,,M,5.09,N,9.43,K,A*19
###2023-11-09 13:09:57.430254$GNGGA,130957.60,3611.0464980,N,07544.9042195,W,1,24,0.6,0.700,M,-39.961,M,0.0,*6D
###2023-11-09 13:09:57.432861$GPGSV,2,1,07,05,20,090,42,10,19,293,43,13,24,045,40,15,61,037,46*77
###2023-11-09 13:09:57.435120$GPGSV,2,2,07,18,78,277,47,23,50,316,45,24,50,134,45,,,,*4C
###2023-11-09 13:09:57.437745$GLGSV,2,1,05,70,49,019,36,71,48,291,48,80,18,090,44,85,57,203,49*63
