###2023-11-09 13:07:44.930385$GNGGA,130745.10,3611.0529193,N,07544.9690274,W,1,23,0.6,0.834,M,-39.961,M,0.0,*6F
###2023-11-09 13:07:44.932992$GPGSV,2,1,07,05,21,090,42,10,18,292,45,13,24,045,42,15,62,037,47*70
###2023-11-09 13:07:44.935267$GPGSV,2,2,07,18,77,281,46,23,50,315,46,24,49,136,45,,,,*41
###2023-11-09 13:07:44.937868$GLGSV,1,1,04,71,48,288,49,80,17,091,44,85,58,203,48,86,52,309,48*60
###2023-11-09 13:07:44.940451$GAGSV,1,1,04,07,72,257,45,08,49,042,44,13,64,160,44,26,56,310,45*6F
###2023-11-09 13:07:44.943027$GBGSV,2,1,06,11,23,180,41,14,65,008,45,24,20,132,42,26,23,081,43*65
###2023-11-09 13:07:44.944967$GBGSV,2,2,06,28,43,287,48,33,58,302,47,,,,,,,,*6E
###2023-11-09 13:07:44.946432$GNVTG,144.97,T,,M,4.65,N,8.60,K,A*25
###2023-11-09 13:07:45.031328$GNGGA,130745.20,3611.0528102,N,07544.9689418,W,1,23,0.6,0.851,M,-39.961,M,0.0,*62
###2023-11-09 13:07:45.033904$GPGSV,2,1,07,05,21,090,42,10,18,292,45,13,24,045,42,15,62,037,46*71
###2023-11-09 13:07:45.036143$GPGSV,2,2,07,18,77,281,46,23,50,315,45,24,49,136,45,,,,*42
###2023-11-09 13:07:45.038714$GLGSV,1,1,04,71,48,288,49,80,17,091,44,85,58,203,49,86,52,309,48*61
###2023-11-09 13:07:45.041271$GAGSV,1,1,04,07,72,257,45,08,49,042,44,13,64,160,44,26,56,310,45*6F
###2023-11-09 13:07:45.043827$GBGSV,2,1,06,11,23,180,41,14,65,008,45,24,20,132,42,26,23,081,43*65
###2023-11-09 13:07:45.045748$GBGSV,2,2,06,28,43,287,48,33,58,302,47,,,,,,,,*6E
###2023-11-09 13:07:45.047222$GNVTG,149.64,T,,M,4.65,N,8.60,K,A*24
###2023-11-09 13:07:45.129518$GNGGA,130745.30,3611.0526978,N,07544.9688620,W,1,24,0.6,0.880,M,-39.961,M,0.0,*6B
###2023-11-09 13:07:45.132107$GPGSV,2,1,07,05,21,090,42,10,18,292,45,13,24,045,42,15,62,037,46*71
###2023-11-09 13:07:45.134369$GPGSV,2,2,07,18,77,281,46,23,50,315,46,24,49,136,45,,,,*41
###2023-11-09 13:07:45.136963$GLGSV,2,1,05,70,50,016,35,71,48,288,49,80,17,091,43,85,58,203,49*68
###2023-11-09 13:07:45.138574$GLGSV,2,2,05,86,52,309,48,,,,,,,,,,,,*5F
###2023-11-09 13:07:45.141150$GAGSV,1,1,04,07,72,257,45,08,49,042,44,13,64,160,44,26,56,310,45*6F
###2023-11-09 13:07:45.143743$GBGSV,2,1,06,11,23,180,41,14,65,008,45,24,20,132,41,26,23,081,43*66
###2023-11-09 13:07:45.145678$GBGSV,2,2,06,28,43,287,48,33,58,302,47,,,,,,,,*6E
###2023-11-09 13:07:45.147158$GNVTG,150.08,T,,M,4.68,N,8.68,K,A*23
###2023-11-09 13:07:45.230510$GNGGA,130745.40,3611.0525839,N,07544.9687803,W,1,23,0.6,0.908,M,-39.961,M,0.0,*6D
###2023-11-09 13:07:45.233109$GPGSV,2,1,07,05,21,090,41,10,18,292,45,13,24,045,42,15,62,037,46*72
###2023-11-09 13:07:45.235369$GPGSV,2,2,07,18,77,281,46,23,50,315,46,24,49,136,45,,,,*41
###2023-11-09 13:07:45.237982$GLGSV,1,1,04,71,48,288,49,80,17,091,43,85,58,203,48,86,52,309,47*68
###2023-11-09 13:07:45.240564$GAGSV,1,1,04,07,72,257,45,08,49,042,44,13,64,160,44,26,56,310,45*6F
###2023-11-09 13:07:45.243139$GBGSV,2,1,06,11,23,180,41,14,65,008,45,24,20,132,41,26,23,081,42*67
###2023-11-09 13:07:45.245078$GBGSV,2,2,06,28,43,287,48,33,58,302,47,,,,,,,,*6E
###2023-11-09 13:07:45.246545$GNVTG,149.13,T,,M,4.82,N,8.93,K,A*21
###2023-11-09 13:07:45.329858$GNGGA,130745.50,3611.0524682,N,07544.9686989,W,1,23,0.6,0.924,M,-39.961,M,0.0,*6F
###2023-11-09 13:07:45.332439$GPGSV,2,1,07,05,21,090,41,10,18,292,44,13,24,045,42,15,62,037,46*73
###2023-11-09 13:07:45.334688$GPGSV,2,2,07,18,77,281,47,23,50,315,46,24,49,136,45,,,,*40
###2023-11-09 13:07:45.337259$GLGSV,1,1,04,71,48,288,48,80,17,091,43,85,58,203,48,86,52,309,47*69
###2023-11-09 13:07:45.339826$GAGSV,1,1,04,07,72,257,45,08,49,042,43,13,64,160,44,26,56,310,45*68
###2023-11-09 13:07:45.342387$GBGSV,2,1,06,11,23,180,41,14,65,008,45,24,20,132,41,26,23,081,42*67
###2023-11-09 13:07:45.344307$GBGSV,2,2,06,28,43,287,48,33,58,302,47,,,,,,,,*6E
###2023-11-09 13:07:45.345759$GNVTG,150.97,T,,M,4.78,N,8.86,K,A*24
###2023-11-09 13:07:45.428271$GNGGA,130745.60,3611.0523494,N,07544.9686248,W,1,23,0.6,0.912,M,-39.961,M,0.0,*6D
###2023-11-09 13:07:45.430858$GPGSV,2,1,07,05,21,090,41,10,18,292,44,13,24,045,42,15,62,037,46*73
###2023-11-09 13:07:45.433112$GPGSV,2,2,07,18,77,281,47,23,50,315,46,24,49,136,45,,,,*40
###2023-11-09 13:07:45.435682$GLGSV,1,1,04,71,48,288,49,80,17,091,43,85,58,203,48,86,52,309,47*68
###2023-11-09 13:07:45.438273$GAGSV,1,1,04,07,72,257,45,08,49,042,43,13,64,160,44,26,56,310,45*68
###2023-11-09 13:07:45.440843$GBGSV,2,1,06,11,23,180,41,14,65,008,45,24,20,132,41,26,23,081,42*67
###2023-11-09 13:07:45.442772$GBGSV,2,2,06,28,43,287,48,33,58,302,47,,,,,,,,*6E
###2023-11-09 13:07:45.444230$GNVTG,154.78,T,,M,4.82,N,8.93,K,A*20
###2023-11-09 13:07:45.530358$GNGGA,130745.70,3611.0522260,N,07544.9685621,W,1,24,0.6,0.892,M,-39.961,M,0.0,*66
###2023-11-09 13:07:45.532948$GPGSV,2,1,07,05,21,090,41,10,18,292,45,13,24,045,41,15,62,037,46*71
###2023-11-09 13:07:45.535204$GPGSV,2,2,07,18,77,281,47,23,50,315,46,24,49,136,45,,,,*40
###2023-11-09 13:07:45.537798$GLGSV,2,1,05,70,50,016,35,71,48,288,49,80,17,091,43,85,58,203,48*69
###2023-11-09 13:07:45.539413$GLGSV,2,2,05,86,52,309,48,,,,,,,,,,,,*5F
###2023-11-09 13:07:45.541980$GAGSV,1,1,04,07,72,257,45,08,49,042,43,13,64,160,44,26,56,310,45*68
###2023-11-09 13:07:45.544561$GBGSV,2,1,06,11,23,180,41,14,65,008,45,24,20,132,41,26,23,081,42*67
###2023-11-09 13:07:45.546493$GBGSV,2,2,06,28,43,287,48,33,58,302,47,,,,,,,,*6E
###2023-11-09 13:07:45.547978$GNVTG,159.82,T,,M,4.80,N,8.89,K,A*21
###2023-11-09 13:07:45.629476$GNGGA,130745.80,3611.0521014,N,07544.9685052,W,1,24,0.6,0.885,M,-39.961,M,0.0,*6F
###2023-11-09 13:07:45.632053$GPGSV,2,1,07,05,21,090,41,10,18,292,45,13,24,045,41,15,62,037,45*72
###2023-11-09 13:07:45.634299$GPGSV,2,2,07,18,77,281,46,23,50,315,47,24,49,136,45,,,,*40
###2023-11-09 13:07:45.636857$GLGSV,2,1,05,70,50,016,35,71,48,288,49,80,17,091,42,85,58,203,49*69
###2023-11-09 13:07:45.638464$GLGSV,2,2,05,86,52,309,50,,,,,,,,,,,,*56
###2023-11-09 13:07:45.641016$GAGSV,1,1,04,07,72,257,45,08,49,042,43,13,64,160,44,26,56,310,46*6B
###2023-11-09 13:07:45.643570$GBGSV,2,1,06,11,23,180,41,14,65,008,45,24,20,132,41,26,23,081,42*67
###2023-11-09 13:07:45.645489$GBGSV,2,2,06,28,43,287,47,33,58,302,48,,,,,,,,*6E
###2023-11-09 13:07:45.646951$GNVTG,158.94,T,,M,4.76,N,8.82,K,A*25
###2023-11-09 13:07:45.729142$GNGGA,130745.90,3611.0519794,N,07544.9684439,W,1,24,0.6,0.894,M,-39.961,M,0.0,*62
###2023-11-09 13:07:45.731752$GPGSV,2,1,07,05,21,090,41,10,18,292,45,13,24,045,41,15,62,037,45*72
###2023-11-09 13:07:45.734013$GPGSV,2,2,07,18,77,281,46,23,50,315,47,24,49,136,45,,,,*40
###2023-11-09 13:07:45.736594$GLGSV,2,1,05,70,50,016,35,71,48,288,49,80,17,091,43,85,58,203,49*68
###2023-11-09 13:07:45.738229$GLGSV,2,2,05,86,52,309,49,,,,,,,,,,,,*5E
###2023-11-09 13:07:45.740826$GAGSV,1,1,04,07,72,257,45,08,49,042,43,13,64,160,44,26,56,310,46*6B
###2023-11-09 13:07:45.743418$GBGSV,2,1,06,11,23,180,41,14,65,008,45,24,20,132,41,26,23,081,42*67
###2023-11-09 13:07:45.745349$GBGSV,2,2,06,28,43,287,47,33,58,302,48,,,,,,,,*6E
###2023-11-09 13:07:45.746820$GNVTG,156.07,T,,M,4.72,N,8.75,K,A*2D
###2023-11-09 13:07:45.833643$GNGGA,130746.00,3611.0518609,N,07544.9683801,W,1,24,0.6,0.912,M,-39.961,M,0.0,*63
###2023-11-09 13:07:45.836243$GPGSV,2,1,07,05,21,090,41,10,18,292,45,13,24,045,42,15,62,037,46*72
###2023-11-09 13:07:45.838526$GPGSV,2,2,07,18,77,281,46,23,50,315,47,24,49,136,45,,,,*40
###2023-11-09 13:07:45.841104$GLGSV,2,1,05,70,50,016,35,71,48,288,49,80,17,091,44,85,58,203,49*6F
###2023-11-09 13:07:45.842711$GLGSV,2,2,05,86,52,309,48,,,,,,,,,,,,*5F
###2023-11-09 13:07:45.845283$GAGSV,1,1,04,07,72,257,45,08,49,042,43,13,64,160,44,26,56,310,45*68
###2023-11-09 13:07:45.847880$GBGSV,2,1,06,11,23,180,41,14,65,008,45,24,20,132,41,26,23,081,42*67
###2023-11-09 13:07:45.849816$GBGSV,2,2,06,28,43,287,47,33,58,302,47,,,,,,,,*61
###2023-11-09 13:07:45.851280$GNVTG,156.05,T,,M,4.59,N,8.50,K,A*21
###2023-11-09 13:07:45.933736$GNGGA,130746.10,3611.0517442,N,07544.9683223,W,1,24,0.6,0.932,M,-39.961,M,0.0,*68
###2023-11-09 13:07:45.936308$GPGSV,2,1,07,05,21,090,41,10,18,292,45,13,24,045,42,15,62,037,46*72
###2023-11-09 13:07:45.938570$GPGSV,2,2,07,18,77,281,46,23,50,315,46,24,49,136,45,,,,*41
###2023-11-09 13:07:45.941137$GLGSV,2,1,05,70,50,016,35,71,48,288,49,80,17,091,44,85,58,203,49*6F
###2023-11-09 13:07:45.943038$GLGSV,2,2,05,86,52,309,48,,,,,,,,,,,,*5F
###2023-11-09 13:07:45.945617$GAGSV,1,1,04,07,72,257,45,08,49,042,44,13,64,160,44,26,56,310,45*6F
###2023-11-09 13:07:45.948221$GBGSV,2,1,06,11,23,180,41,14,65,008,45,24,20,132,41,26,23,081,43*66
###2023-11-09 13:07:45.950154$GBGSV,2,2,06,28,43,287,47,33,58,302,48,,,,,,,,*6E
###2023-11-09 13:07:45.951618$GNVTG,159.53,T,,M,4.47,N,8.28,K,A*2D
###2023-11-09 13:07:46.031745$GNGGA,130746.20,3611.0516276,N,07544.9682727,W,1,24,0.6,0.954,M,-39.961,M,0.0,*6B
###2023-11-09 13:07:46.034332$GPGSV,2,1,07,05,21,090,41,10,18,292,45,13,24,045,42,15,62,037,46*72
###2023-11-09 13:07:46.036587$GPGSV,2,2,07,18,77,281,46,23,50,315,46,24,49,136,45,,,,*41
###2023-11-09 13:07:46.039180$GLGSV,2,1,05,70,50,016,35,71,48,288,49,80,17,091,44,85,58,203,49*6F
###2023-11-09 13:07:46.040798$GLGSV,2,2,05,86,52,309,48,,,,,,,,,,,,*5F
###2023-11-09 13:07:46.043386$GAGSV,1,1,04,07,72,257,45,08,49,042,44,13,64,160,44,26,56,310,45*6F
