###2023-11-09 13:06:23.542466$GAGSV,1,1,04,07,72,255,45,08,49,042,44,13,64,160,44,26,56,311,45*6C
###2023-11-09 13:06:23.545068$GBGSV,2,1,06,11,24,180,41,14,65,006,46,24,19,133,42,26,23,082,41*65
###2023-11-09 13:06:23.547028$GBGSV,2,2,06,28,43,289,47,33,58,302,47,,,,,,,,*6F
###2023-11-09 13:06:23.548498$GNVTG,327.65,T,,M,0.60,N,1.12,K,A*22
###2023-11-09 13:06:23.632626$GNGGA,130623.80,3611.0408988,N,07544.9808226,W,1,24,0.6,0.934,M,-39.961,M,0.0,*69
###2023-11-09 13:06:23.635227$GPGSV,2,1,07,05,21,090,41,10,17,292,43,13,25,045,40,15,62,036,46*79
###2023-11-09 13:06:23.637505$GPGSV,2,2,07,18,77,282,47,23,49,314,45,24,49,137,46,,,,*4B
###2023-11-09 13:06:23.640085$GLGSV,2,1,05,70,50,016,35,71,48,288,48,80,17,091,44,85,58,203,48*6F
###2023-11-09 13:06:23.641708$GLGSV,2,2,05,86,52,309,47,,,,,,,,,,,,*50
###2023-11-09 13:06:23.644284$GAGSV,1,1,04,07,72,255,45,08,49,042,44,13,64,160,44,26,56,311,45*6C
###2023-11-09 13:06:23.646864$GBGSV,2,1,06,11,24,180,41,14,65,006,46,24,19,133,42,26,23,082,40*64
###2023-11-09 13:06:23.648808$GBGSV,2,2,06,28,43,289,46,33,58,302,47,,,,,,,,*6E
###2023-11-09 13:06:23.650273$GNVTG,327.65,T,,M,0.91,N,1.69,K,A*20
###2023-11-09 13:06:23.731491$GNGGA,130623.90,3611.0409190,N,07544.9807995,W,1,24,0.6,0.916,M,-39.961,M,0.0,*64
###2023-11-09 13:06:23.734076$GPGSV,2,1,07,05,21,090,41,10,17,292,43,13,25,045,40,15,62,036,46*79
###2023-11-09 13:06:23.736319$GPGSV,2,2,07,18,77,282,47,23,49,314,45,24,49,137,46,,,,*4B
###2023-11-09 13:06:23.738908$GLGSV,2,1,05,70,50,016,35,71,48,288,48,80,17,091,44,85,58,203,48*6F
###2023-11-09 13:06:23.740516$GLGSV,2,2,05,86,52,309,47,,,,,,,,,,,,*50
###2023-11-09 13:06:23.743082$GAGSV,1,1,04,07,72,255,45,08,49,042,44,13,64,160,44,26,56,311,45*6C
###2023-11-09 13:06:23.745653$GBGSV,2,1,06,11,24,180,41,14,65,006,46,24,19,133,43,26,23,082,40*65
###2023-11-09 13:06:23.747598$GBGSV,2,2,06,28,43,289,46,33,58,302,47,,,,,,,,*6E
###2023-11-09 13:06:23.749014$GNVTG,42.00,T,,M,1.09,N,2.02,K,A*1D
###2023-11-09 13:06:23.836880$GNGGA,130624.00,3611.0409428,N,07544.9807728,W,1,24,0.6,0.902,M,-39.961,M,0.0,*61
###2023-11-09 13:06:23.839512$GPGSV,2,1,07,05,21,090,41,10,17,292,43,13,25,045,42,15,62,036,46*7B
###2023-11-09 13:06:23.841770$GPGSV,2,2,07,18,77,282,47,23,49,314,45,24,49,137,46,,,,*4B
###2023-11-09 13:06:23.844336$GLGSV,2,1,05,70,50,016,35,71,48,288,48,80,17,091,44,85,58,203,48*6F
###2023-11-09 13:06:23.845945$GLGSV,2,2,05,86,52,309,47,,,,,,,,,,,,*50
###2023-11-09 13:06:23.848525$GAGSV,1,1,04,07,72,255,45,08,49,042,44,13,64,160,44,26,56,311,45*6C
###2023-11-09 13:06:23.851095$GBGSV,2,1,06,11,24,180,41,14,65,006,46,24,19,133,43,26,23,082,40*65
###2023-11-09 13:06:23.853036$GBGSV,2,2,06,28,43,289,46,33,58,302,47,,,,,,,,*6E
###2023-11-09 13:06:23.854460$GNVTG,42.00,T,,M,1.24,N,2.30,K,A*13
###2023-11-09 13:06:23.942497$GNGGA,130624.10,3611.0409678,N,07544.9807457,W,1,24,0.6,0.891,M,-39.961,M,0.0,*67
###2023-11-09 13:06:23.945072$GPGSV,2,1,07,05,21,090,41,10,17,292,43,13,25,045,42,15,62,036,46*7B
###2023-11-09 13:06:23.947338$GPGSV,2,2,07,18,77,282,47,23,49,314,45,24,49,137,46,,,,*4B
###2023-11-09 13:06:23.949904$GLGSV,2,1,05,70,50,016,35,71,48,288,48,80,17,091,44,85,58,203,47*60
###2023-11-09 13:06:23.951506$GLGSV,2,2,05,86,52,309,47,,,,,,,,,,,,*50
###2023-11-09 13:06:23.954066$GAGSV,1,1,04,07,72,255,45,08,49,042,44,13,64,160,44,26,56,311,45*6C
###2023-11-09 13:06:23.956639$GBGSV,2,1,06,11,24,180,41,14,65,006,46,24,19,133,43,26,23,082,40*65
###2023-11-09 13:06:23.958574$GBGSV,2,2,06,28,43,289,47,33,58,302,47,,,,,,,,*6F
###2023-11-09 13:06:23.960008$GNVTG,40.61,T,,M,1.17,N,2.16,K,A*12
###2023-11-09 13:06:24.034075$GNGGA,130624.20,3611.0409899,N,07544.9807219,W,1,24,0.6,0.882,M,-39.961,M,0.0,*6B
###2023-11-09 13:06:24.036644$GPGSV,2,1,07,05,21,090,42,10,17,292,43,13,25,045,42,15,62,036,46*78
###2023-11-09 13:06:24.038899$GPGSV,2,2,07,18,77,282,47,23,49,314,45,24,49,137,45,,,,*48
###2023-11-09 13:06:24.041448$GLGSV,2,1,05,70,50,016,36,71,48,288,48,80,17,091,45,85,58,203,47*62
###2023-11-09 13:06:24.043043$GLGSV,2,2,05,86,52,309,48,,,,,,,,,,,,*5F
###2023-11-09 13:06:24.045601$GAGSV,1,1,04,07,72,255,45,08,49,042,44,13,64,160,44,26,56,311,45*6C
###2023-11-09 13:06:24.048182$GBGSV,2,1,06,11,24,180,41,14,65,006,46,24,19,133,43,26,23,082,41*64
###2023-11-09 13:06:24.050103$GBGSV,2,2,06,28,43,289,47,33,58,302,47,,,,,,,,*6F
###2023-11-09 13:06:24.051545$GNVTG,40.61,T,,M,0.97,N,1.80,K,A*17
###2023-11-09 13:06:24.131728$GNGGA,130624.30,3611.0410065,N,07544.9807022,W,1,24,0.6,0.882,M,-39.961,M,0.0,*63
###2023-11-09 13:06:24.134324$GPGSV,2,1,07,05,21,090,42,10,17,292,43,13,25,045,42,15,62,036,46*78
###2023-11-09 13:06:24.136569$GPGSV,2,2,07,18,77,282,47,23,49,314,45,24,49,137,45,,,,*48
###2023-11-09 13:06:24.139150$GLGSV,2,1,05,70,50,016,36,71,48,288,48,80,17,091,45,85,58,203,47*62
###2023-11-09 13:06:24.140759$GLGSV,2,2,05,86,52,309,48,,,,,,,,,,,,*5F
###2023-11-09 13:06:24.143312$GAGSV,1,1,04,07,72,255,45,08,49,042,44,13,64,160,44,26,56,311,45*6C
###2023-11-09 13:06:24.145876$GBGSV,2,1,06,11,24,180,41,14,65,006,46,24,19,133,43,26,23,082,42*67
###2023-11-09 13:06:24.147819$GBGSV,2,2,06,28,43,289,47,33,58,302,47,,,,,,,,*6F
###2023-11-09 13:06:24.149244$GNVTG,40.61,T,,M,0.70,N,1.30,K,A*15
###2023-11-09 13:06:24.234383$GNGGA,130624.40,3611.0410198,N,07544.9806855,W,1,24,0.6,0.889,M,-39.961,M,0.0,*65
###2023-11-09 13:06:24.237011$GPGSV,2,1,07,05,21,090,42,10,17,292,43,13,25,045,42,15,62,036,46*78
###2023-11-09 13:06:24.239271$GPGSV,2,2,07,18,77,282,47,23,49,314,45,24,49,137,45,,,,*48
###2023-11-09 13:06:24.241839$GLGSV,2,1,05,70,50,016,36,71,48,288,48,80,17,091,45,85,58,203,47*62
###2023-11-09 13:06:24.243449$GLGSV,2,2,05,86,52,309,47,,,,,,,,,,,,*50
###2023-11-09 13:06:24.246017$GAGSV,1,1,04,07,72,255,45,08,49,042,44,13,64,160,44,26,56,311,45*6C
###2023-11-09 13:06:24.248608$GBGSV,2,1,06,11,24,180,41,14,65,006,46,24,19,133,43,26,23,082,42*67
###2023-11-09 13:06:24.250543$GBGSV,2,2,06,28,43,289,47,33,58,302,47,,,,,,,,*6F
###2023-11-09 13:06:24.251967$GNVTG,40.61,T,,M,0.68,N,1.26,K,A*1B
###2023-11-09 13:06:24.333590$GNGGA,130624.50,3611.0410351,N,07544.9806694,W,1,24,0.6,0.906,M,-39.961,M,0.0,*66
###2023-11-09 13:06:24.336157$GPGSV,2,1,07,05,21,090,42,10,17,292,43,13,25,045,42,15,62,036,46*78
###2023-11-09 13:06:24.338411$GPGSV,2,2,07,18,77,282,47,23,49,314,45,24,49,137,45,,,,*48
###2023-11-09 13:06:24.340953$GLGSV,2,1,05,70,50,016,36,71,48,288,48,80,17,091,44,85,58,203,47*63
###2023-11-09 13:06:24.342548$GLGSV,2,2,05,86,52,309,47,,,,,,,,,,,,*50
###2023-11-09 13:06:24.345100$GAGSV,1,1,04,07,72,255,45,08,49,042,44,13,64,160,44,26,56,311,45*6C
###2023-11-09 13:06:24.347682$GBGSV,2,1,06,11,24,180,41,14,65,006,46,24,19,133,43,26,23,082,42*67
###2023-11-09 13:06:24.349604$GBGSV,2,2,06,28,43,289,47,33,58,302,47,,,,,,,,*6F
###2023-11-09 13:06:24.351033$GNVTG,40.61,T,,M,0.78,N,1.44,K,A*1E
###2023-11-09 13:06:24.430482$GNGGA,130624.60,3611.0410541,N,07544.9806525,W,1,24,0.6,0.935,M,-39.961,M,0.0,*6B
###2023-11-09 13:06:24.433057$GPGSV,2,1,07,05,21,090,42,10,17,292,43,13,25,045,42,15,62,036,46*78
###2023-11-09 13:06:24.435298$GPGSV,2,2,07,18,77,282,47,23,49,314,45,24,49,137,45,,,,*48
###2023-11-09 13:06:24.437885$GLGSV,2,1,05,70,50,016,36,71,48,288,48,80,17,091,44,85,58,203,48*6C
###2023-11-09 13:06:24.439492$GLGSV,2,2,05,86,52,309,47,,,,,,,,,,,,*50
###2023-11-09 13:06:24.442062$GAGSV,1,1,04,07,72,255,45,08,49,042,44,13,64,160,44,26,56,311,45*6C
###2023-11-09 13:06:24.444637$GBGSV,2,1,06,11,24,180,42,14,65,006,46,24,19,133,43,26,23,082,42*64
###2023-11-09 13:06:24.446568$GBGSV,2,2,06,28,43,289,47,33,58,302,47,,,,,,,,*6F
###2023-11-09 13:06:24.448003$GNVTG,40.61,T,,M,0.93,N,1.73,K,A*1F
###2023-11-09 13:06:24.532500$GNGGA,130624.70,3611.0410778,N,07544.9806373,W,1,24,0.6,0.959,M,-39.961,M,0.0,*6D
###2023-11-09 13:06:24.535078$GPGSV,2,1,07,05,21,090,42,10,17,292,43,13,25,045,42,15,62,036,46*78
###2023-11-09 13:06:24.537458$GPGSV,2,2,07,18,77,282,47,23,49,314,45,24,49,137,45,,,,*48
###2023-11-09 13:06:24.540025$GLGSV,2,1,05,70,50,016,35,71,48,288,48,80,17,091,44,85,58,203,48*6F
###2023-11-09 13:06:24.541637$GLGSV,2,2,05,86,52,309,47,,,,,,,,,,,,*50
###2023-11-09 13:06:24.544210$GAGSV,1,1,04,07,72,255,45,08,49,042,44,13,64,160,44,26,56,311,45*6C
###2023-11-09 13:06:24.547092$GBGSV,2,1,06,11,24,180,42,14,65,006,46,24,19,133,43,26,23,082,42*64
###2023-11-09 13:06:24.549029$GBGSV,2,2,06,28,43,289,47,33,58,302,47,,,,,,,,*6F
###2023-11-09 13:06:24.550467$GNVTG,22.92,T,,M,1.01,N,1.87,K,A*16
###2023-11-09 13:06:24.631600$GNGGA,130624.80,3611.0411026,N,07544.9806258,W,1,24,0.6,0.981,M,-39.961,M,0.0,*62
###2023-11-09 13:06:24.634175$GPGSV,2,1,07,05,21,090,42,10,17,292,42,13,25,045,42,15,62,036,46*79
###2023-11-09 13:06:24.636425$GPGSV,2,2,07,18,77,282,47,23,49,314,45,24,49,137,45,,,,*48
###2023-11-09 13:06:24.639008$GLGSV,2,1,05,70,50,016,35,71,48,288,48,80,17,091,44,85,58,203,48*6F
###2023-11-09 13:06:24.640611$GLGSV,2,2,05,86,52,309,47,,,,,,,,,,,,*50
###2023-11-09 13:06:24.643181$GAGSV,1,1,04,07,72,255,45,08,49,042,44,13,64,160,44,26,56,311,45*6C
