###2023-11-09 13:09:07.233420$GPGSV,2,1,07,05,20,090,43,10,19,293,43,13,24,045,41,15,61,037,45*74
###2023-11-09 13:09:07.235700$GPGSV,2,2,07,18,78,277,47,23,50,316,46,24,50,135,45,,,,*4E
###2023-11-09 13:09:07.238311$GLGSV,2,1,05,70,50,017,35,71,48,290,48,80,18,090,45,85,57,203,49*66
###2023-11-09 13:09:07.239928$GLGSV,2,2,05,86,53,308,48,,,,,,,,,,,,*5F
###2023-11-09 13:09:07.242495$GAGSV,1,1,04,07,73,259,45,08,48,043,44,13,63,161,45,26,57,310,45*66
###2023-11-09 13:09:07.245067$GBGSV,2,1,06,11,23,180,42,14,65,008,45,24,20,132,44,26,23,081,43*60
###2023-11-09 13:09:07.247025$GBGSV,2,2,06,28,43,287,47,33,59,304,47,,,,,,,,*66
###2023-11-09 13:09:07.248508$GNVTG,66.38,T,,M,5.81,N,10.76,K,A*24
###2023-11-09 13:09:07.329278$GNGGA,130907.50,3611.0243740,N,07544.9675245,W,1,24,0.6,0.616,M,-39.962,M,0.0,*63
###2023-11-09 13:09:07.331894$GPGSV,2,1,07,05,20,090,43,10,19,293,43,13,24,045,41,15,61,037,45*74
###2023-11-09 13:09:07.334152$GPGSV,2,2,07,18,78,277,47,23,50,316,46,24,50,135,45,,,,*4E
###2023-11-09 13:09:07.336731$GLGSV,2,1,05,70,50,017,35,71,48,290,48,80,18,090,45,85,57,203,49*66
###2023-11-09 13:09:07.338365$GLGSV,2,2,05,86,53,308,48,,,,,,,,,,,,*5F
###2023-11-09 13:09:07.340947$GAGSV,1,1,04,07,73,259,45,08,48,043,44,13,63,161,45,26,57,310,45*66
###2023-11-09 13:09:07.343548$GBGSV,2,1,06,11,23,180,42,14,65,008,45,24,20,132,44,26,23,081,43*60
###2023-11-09 13:09:07.345496$GBGSV,2,2,06,28,43,287,47,33,59,304,48,,,,,,,,*69
###2023-11-09 13:09:07.346984$GNVTG,68.87,T,,M,5.70,N,10.55,K,A*21
###2023-11-09 13:09:07.429918$GNGGA,130907.60,3611.0244326,N,07544.9673431,W,1,24,0.6,0.629,M,-39.962,M,0.0,*6C
###2023-11-09 13:09:07.432508$GPGSV,2,1,07,05,20,090,43,10,19,293,43,13,24,045,41,15,61,037,45*74
###2023-11-09 13:09:07.434754$GPGSV,2,2,07,18,78,277,47,23,50,316,46,24,50,135,45,,,,*4E
###2023-11-09 13:09:07.437333$GLGSV,2,1,05,70,50,017,35,71,48,290,48,80,18,090,45,85,57,203,49*66
###2023-11-09 13:09:07.438943$GLGSV,2,2,05,86,53,308,48,,,,,,,,,,,,*5F
###2023-11-09 13:09:07.441513$GAGSV,1,1,04,07,73,259,45,08,48,043,44,13,63,161,45,26,57,310,45*66
###2023-11-09 13:09:07.444084$GBGSV,2,1,06,11,23,180,42,14,65,008,45,24,20,132,44,26,23,081,43*60
###2023-11-09 13:09:07.446023$GBGSV,2,2,06,28,43,287,47,33,59,304,48,,,,,,,,*69
###2023-11-09 13:09:07.447502$GNVTG,67.74,T,,M,5.70,N,10.55,K,A*22
###2023-11-09 13:09:07.529490$GNGGA,130907.70,3611.0244952,N,07544.9671634,W,1,24,0.6,0.651,M,-39.962,M,0.0,*6E
###2023-11-09 13:09:07.532072$GPGSV,2,1,07,05,20,090,43,10,19,293,43,13,24,045,41,15,61,037,45*74
###2023-11-09 13:09:07.534314$GPGSV,2,2,07,18,78,277,47,23,50,316,46,24,50,135,45,,,,*4E
###2023-11-09 13:09:07.536883$GLGSV,2,1,05,70,50,017,35,71,48,290,48,80,18,090,45,85,57,203,49*66
###2023-11-09 13:09:07.538492$GLGSV,2,2,05,86,53,308,48,,,,,,,,,,,,*5F
###2023-11-09 13:09:07.541055$GAGSV,1,1,04,07,73,259,45,08,48,043,44,13,63,161,45,26,57,310,45*66
###2023-11-09 13:09:07.543642$GBGSV,2,1,06,11,23,180,43,14,65,008,45,24,20,132,44,26,23,081,43*61
###2023-11-09 13:09:07.545564$GBGSV,2,2,06,28,43,287,47,33,59,304,48,,,,,,,,*69
###2023-11-09 13:09:07.547038$GNVTG,65.82,T,,M,5.71,N,10.58,K,A*25
###2023-11-09 13:09:07.629259$GNGGA,130907.80,3611.0245599,N,07544.9669845,W,1,24,0.6,0.668,M,-39.962,M,0.0,*60
###2023-11-09 13:09:07.631871$GPGSV,2,1,07,05,20,090,43,10,19,293,43,13,24,045,41,15,61,037,45*74
###2023-11-09 13:09:07.634137$GPGSV,2,2,07,18,78,277,47,23,50,316,46,24,50,135,45,,,,*4E
###2023-11-09 13:09:07.636714$GLGSV,2,1,05,70,50,017,35,71,48,290,48,80,18,090,45,85,57,203,49*66
###2023-11-09 13:09:07.638345$GLGSV,2,2,05,86,53,308,48,,,,,,,,,,,,*5F
###2023-11-09 13:09:07.640926$GAGSV,1,1,04,07,73,259,45,08,48,043,44,13,63,161,45,26,57,310,45*66
###2023-11-09 13:09:07.643513$GBGSV,2,1,06,11,23,180,43,14,65,008,45,24,20,132,44,26,23,081,43*61
###2023-11-09 13:09:07.645462$GBGSV,2,2,06,28,43,287,47,33,59,304,48,,,,,,,,*69
###2023-11-09 13:09:07.646949$GNVTG,66.17,T,,M,5.73,N,10.62,K,A*21
###2023-11-09 13:09:07.730387$GNGGA,130907.90,3611.0246246,N,07544.9668033,W,1,24,0.6,0.668,M,-39.962,M,0.0,*6F
###2023-11-09 13:09:07.732988$GPGSV,2,1,07,05,20,090,43,10,19,293,42,13,24,045,41,15,61,037,45*75
###2023-11-09 13:09:07.735244$GPGSV,2,2,07,18,78,277,47,23,50,316,46,24,50,135,45,,,,*4E
###2023-11-09 13:09:07.737839$GLGSV,2,1,05,70,50,017,35,71,48,290,48,80,18,090,46,85,57,203,48*64
###2023-11-09 13:09:07.739454$GLGSV,2,2,05,86,53,308,48,,,,,,,,,,,,*5F
###2023-11-09 13:09:07.742029$GAGSV,1,1,04,07,73,259,45,08,48,043,44,13,63,161,45,26,57,310,45*66
###2023-11-09 13:09:07.744619$GBGSV,2,1,06,11,23,180,43,14,65,008,45,24,20,132,44,26,23,081,43*61
###2023-11-09 13:09:07.746552$GBGSV,2,2,06,28,43,287,47,33,59,304,47,,,,,,,,*66
###2023-11-09 13:09:07.748047$GNVTG,66.41,T,,M,5.83,N,10.80,K,A*21
###2023-11-09 13:09:07.832365$GNGGA,130908.00,3611.0246897,N,07544.9666222,W,1,24,0.6,0.655,M,-39.962,M,0.0,*6D
###2023-11-09 13:09:07.834951$GPGSV,2,1,07,05,20,090,43,10,19,293,42,13,24,045,41,15,61,037,45*75
###2023-11-09 13:09:07.837218$GPGSV,2,2,07,18,78,277,47,23,50,316,46,24,50,135,45,,,,*4E
###2023-11-09 13:09:07.839784$GLGSV,2,1,05,70,50,017,35,71,48,290,48,80,18,090,46,85,57,203,48*64
###2023-11-09 13:09:07.841392$GLGSV,2,2,05,86,53,308,48,,,,,,,,,,,,*5F
###2023-11-09 13:09:07.843954$GAGSV,1,1,04,07,73,259,45,08,48,043,44,13,63,161,45,26,57,310,45*66
###2023-11-09 13:09:07.846528$GBGSV,2,1,06,11,23,180,43,14,65,008,45,24,20,132,44,26,23,081,43*61
###2023-11-09 13:09:07.848465$GBGSV,2,2,06,28,43,287,47,33,59,304,47,,,,,,,,*66
###2023-11-09 13:09:07.849931$GNVTG,65.89,T,,M,5.75,N,10.66,K,A*27
###2023-11-09 13:09:07.943026$GNGGA,130908.10,3611.0247551,N,07544.9664457,W,1,24,0.6,0.643,M,-39.962,M,0.0,*6B
###2023-11-09 13:09:07.945630$GPGSV,2,1,07,05,20,090,43,10,19,293,42,13,24,045,41,15,61,037,45*75
###2023-11-09 13:09:07.947916$GPGSV,2,2,07,18,78,277,47,23,50,316,46,24,50,135,45,,,,*4E
###2023-11-09 13:09:07.950498$GLGSV,2,1,05,70,50,017,35,71,48,290,48,80,18,090,45,85,57,203,49*66
###2023-11-09 13:09:07.952120$GLGSV,2,2,05,86,53,308,48,,,,,,,,,,,,*5F
###2023-11-09 13:09:07.954713$GAGSV,1,1,04,07,73,259,45,08,48,043,44,13,63,161,45,26,57,310,45*66
###2023-11-09 13:09:07.957316$GBGSV,2,1,06,11,23,180,43,14,65,008,45,24,20,132,44,26,23,081,43*61
###2023-11-09 13:09:07.959268$GBGSV,2,2,06,28,43,287,47,33,59,304,47,,,,,,,,*66
###2023-11-09 13:09:07.960739$GNVTG,65.30,T,,M,5.62,N,10.40,K,A*27
###2023-11-09 13:09:08.034252$GNGGA,130908.20,3611.0248224,N,07544.9662716,W,1,24,0.6,0.658,M,-39.962,M,0.0,*68
###2023-11-09 13:09:08.036841$GPGSV,2,1,07,05,20,090,43,10,19,293,43,13,24,045,41,15,61,037,45*74
###2023-11-09 13:09:08.039117$GPGSV,2,2,07,18,78,277,47,23,50,316,46,24,50,135,45,,,,*4E
###2023-11-09 13:09:08.041705$GLGSV,2,1,05,70,50,017,35,71,48,290,48,80,18,090,45,85,57,203,50*6E
###2023-11-09 13:09:08.043319$GLGSV,2,2,05,86,53,308,48,,,,,,,,,,,,*5F
###2023-11-09 13:09:08.045901$GAGSV,1,1,04,07,73,259,45,08,48,043,44,13,63,161,46,26,57,310,45*65
###2023-11-09 13:09:08.048505$GBGSV,2,1,06,11,23,180,43,14,65,008,44,24,20,132,44,26,23,081,43*60
###2023-11-09 13:09:08.050451$GBGSV,2,2,06,28,43,287,47,33,59,304,48,,,,,,,,*69
###2023-11-09 13:09:08.051916$GNVTG,63.61,T,,M,5.64,N,10.44,K,A*27
###2023-11-09 13:09:08.134371$GNGGA,130908.30,3611.0248930,N,07544.9660985,W,1,24,0.6,0.684,M,-39.962,M,0.0,*60
###2023-11-09 13:09:08.136972$GPGSV,2,1,07,05,20,090,43,10,19,293,43,13,24,045,41,15,61,037,45*74
###2023-11-09 13:09:08.139219$GPGSV,2,2,07,18,78,277,47,23,50,316,46,24,50,135,45,,,,*4E
###2023-11-09 13:09:08.141783$GLGSV,2,1,05,70,50,017,35,71,48,290,48,80,18,090,45,85,57,203,50*6E
###2023-11-09 13:09:08.143386$GLGSV,2,2,05,86,53,308,48,,,,,,,,,,,,*5F
###2023-11-09 13:09:08.145948$GAGSV,1,1,04,07,73,259,45,08,48,043,44,13,63,161,45,26,57,310,45*66
###2023-11-09 13:09:08.148529$GBGSV,2,1,06,11,23,180,43,14,65,008,45,24,20,132,44,26,23,081,43*61
###2023-11-09 13:09:08.150460$GBGSV,2,2,06,28,43,287,47,33,59,304,48,,,,,,,,*69
###2023-11-09 13:09:08.151920$GNVTG,63.07,T,,M,5.70,N,10.55,K,A*22
###2023-11-09 13:09:08.230252$GNGGA,130908.40,3611.0249647,N,07544.9659251,W,1,24,0.6,0.712,M,-39.962,M,0.0,*6F
###2023-11-09 13:09:08.233131$GPGSV,2,1,07,05,20,090,43,10,19,293,43,13,24,045,41,15,61,037,45*74
###2023-11-09 13:09:08.235412$GPGSV,2,2,07,18,78,277,47,23,50,316,46,24,50,135,45,,,,*4E
###2023-11-09 13:09:08.238030$GLGSV,2,1,05,70,50,017,35,71,48,290,48,80,18,090,45,85,57,203,49*66
###2023-11-09 13:09:08.239657$GLGSV,2,2,05,86,53,308,48,,,,,,,,,,,,*5F
###2023-11-09 13:09:08.242233$GAGSV,1,1,04,07,73,259,45,08,48,043,44,13,63,161,45,26,57,310,45*66
###2023-11-09 13:09:08.244820$GBGSV,2,1,06,11,23,180,43,14,65,008,45,24,20,132,44,26,23,081,43*61
###2023-11-09 13:09:08.246767$GBGSV,2,2,06,28,43,287,47,33,59,304,48,,,,,,,,*69
###2023-11-09 13:09:08.248255$GNVTG,63.10,T,,M,5.70,N,10.55,K,A*24
###2023-11-09 13:09:08.331515$GNGGA,130908.50,3611.0250348,N,07544.9657519,W,1,24,0.6,0.736,M,-39.962,M,0.0,*6F
###2023-11-09 13:09:08.334113$GPGSV,2,1,07,05,20,090,43,10,19,293,43,13,24,045,41,15,61,037,45*74
