###2023-11-09 13:07:26.949817$GNVTG,15.63,T,,M,1.30,N,2.41,K,A*17
###2023-11-09 13:07:27.032099$GNGGA,130727.20,3611.0545337,N,07544.9771927,W,1,24,0.6,1.015,M,-39.961,M,0.0,*60
###2023-11-09 13:07:27.034697$GPGSV,2,1,07,05,21,090,41,10,18,292,43,13,24,045,42,15,62,037,45*77
###2023-11-09 13:07:27.036960$GPGSV,2,2,07,18,77,281,47,23,50,315,45,24,49,136,46,,,,*40
###2023-11-09 13:07:27.039516$GLGSV,2,1,05,70,50,016,35,71,48,288,48,80,17,091,43,85,58,203,48*68
###2023-11-09 13:07:27.041111$GLGSV,2,2,05,86,52,309,47,,,,,,,,,,,,*50
###2023-11-09 13:07:27.043668$GAGSV,1,1,04,07,72,257,45,08,49,042,44,13,64,160,44,26,56,310,45*6F
###2023-11-09 13:07:27.046219$GBGSV,2,1,06,11,24,180,41,14,65,006,44,24,19,133,43,26,23,082,42*65
###2023-11-09 13:07:27.048156$GBGSV,2,2,06,28,43,289,47,33,58,302,47,,,,,,,,*6F
###2023-11-09 13:07:27.049574$GNVTG,14.37,T,,M,1.42,N,2.63,K,A*12
###2023-11-09 13:07:27.130863$GNGGA,130727.30,3611.0545727,N,07544.9771803,W,1,24,0.6,1.016,M,-39.961,M,0.0,*60
###2023-11-09 13:07:27.133477$GPGSV,2,1,07,05,21,090,41,10,18,292,43,13,24,045,42,15,62,037,45*77
###2023-11-09 13:07:27.135730$GPGSV,2,2,07,18,77,281,47,23,50,315,45,24,49,136,46,,,,*40
###2023-11-09 13:07:27.138334$GLGSV,2,1,05,70,50,016,35,71,48,288,48,80,17,091,43,85,58,203,49*69
###2023-11-09 13:07:27.139947$GLGSV,2,2,05,86,52,309,47,,,,,,,,,,,,*50
###2023-11-09 13:07:27.142516$GAGSV,1,1,04,07,72,257,45,08,49,042,44,13,64,160,44,26,56,310,45*6F
###2023-11-09 13:07:27.145084$GBGSV,2,1,06,11,24,180,41,14,65,006,44,24,19,133,43,26,23,082,42*65
###2023-11-09 13:07:27.147041$GBGSV,2,2,06,28,43,289,47,33,58,302,47,,,,,,,,*6F
###2023-11-09 13:07:27.148473$GNVTG,14.19,T,,M,1.50,N,2.77,K,A*18
###2023-11-09 13:07:27.231988$GNGGA,130727.40,3611.0546113,N,07544.9771684,W,1,24,0.6,1.024,M,-39.961,M,0.0,*65
###2023-11-09 13:07:27.234560$GPGSV,2,1,07,05,21,090,41,10,18,292,43,13,24,045,42,15,62,037,45*77
###2023-11-09 13:07:27.236803$GPGSV,2,2,07,18,77,281,47,23,50,315,45,24,49,136,46,,,,*40
###2023-11-09 13:07:27.239397$GLGSV,2,1,05,70,50,016,35,71,48,288,48,80,17,091,43,85,58,203,49*69
###2023-11-09 13:07:27.241008$GLGSV,2,2,05,86,52,309,47,,,,,,,,,,,,*50
###2023-11-09 13:07:27.243582$GAGSV,1,1,04,07,72,257,45,08,49,042,44,13,64,160,44,26,56,310,45*6F
###2023-11-09 13:07:27.246144$GBGSV,2,1,06,11,24,180,41,14,65,006,44,24,19,133,43,26,23,082,43*64
###2023-11-09 13:07:27.248089$GBGSV,2,2,06,28,43,289,47,33,58,302,47,,,,,,,,*6F
###2023-11-09 13:07:27.249513$GNVTG,13.06,T,,M,1.38,N,2.56,K,A*1C
###2023-11-09 13:07:27.330830$GNGGA,130727.50,3611.0546452,N,07544.9771577,W,1,24,0.6,1.043,M,-39.961,M,0.0,*6A
###2023-11-09 13:07:27.333414$GPGSV,2,1,07,05,21,090,41,10,18,292,43,13,24,045,42,15,62,037,45*77
###2023-11-09 13:07:27.335654$GPGSV,2,2,07,18,77,281,47,23,50,315,45,24,49,136,46,,,,*40
###2023-11-09 13:07:27.338220$GLGSV,2,1,05,70,50,016,35,71,48,288,48,80,17,091,43,85,58,203,48*68
###2023-11-09 13:07:27.339817$GLGSV,2,2,05,86,52,309,47,,,,,,,,,,,,*50
###2023-11-09 13:07:27.342362$GAGSV,1,1,04,07,72,257,45,08,49,042,44,13,64,160,44,26,56,310,45*6F
###2023-11-09 13:07:27.344921$GBGSV,2,1,06,11,24,180,41,14,65,006,45,24,19,133,43,26,23,082,43*65
###2023-11-09 13:07:27.346837$GBGSV,2,2,06,28,43,289,47,33,58,302,47,,,,,,,,*6F
###2023-11-09 13:07:27.348269$GNVTG,13.45,T,,M,1.19,N,2.20,K,A*19
###2023-11-09 13:07:27.430858$GNGGA,130727.60,3611.0546742,N,07544.9771470,W,1,24,0.6,1.060,M,-39.961,M,0.0,*6C
###2023-11-09 13:07:27.433458$GPGSV,2,1,07,05,21,090,41,10,18,292,43,13,24,045,42,15,62,037,45*77
###2023-11-09 13:07:27.435717$GPGSV,2,2,07,18,77,281,47,23,50,315,45,24,49,136,46,,,,*40
###2023-11-09 13:07:27.438315$GLGSV,2,1,05,70,50,016,35,71,48,288,48,80,17,091,43,85,58,203,48*68
###2023-11-09 13:07:27.439923$GLGSV,2,2,05,86,52,309,47,,,,,,,,,,,,*50
###2023-11-09 13:07:27.442497$GAGSV,1,1,04,07,72,257,45,08,49,042,44,13,64,160,44,26,56,310,44*6E
###2023-11-09 13:07:27.445067$GBGSV,2,1,06,11,24,180,41,14,65,006,45,24,19,133,43,26,23,082,43*65
###2023-11-09 13:07:27.447007$GBGSV,2,2,06,28,43,289,47,33,58,302,47,,,,,,,,*6F
###2023-11-09 13:07:27.448436$GNVTG,18.47,T,,M,1.03,N,1.91,K,A*12
###2023-11-09 13:07:27.531984$GNGGA,130727.70,3611.0546974,N,07544.9771359,W,1,24,0.6,1.081,M,-39.961,M,0.0,*65
###2023-11-09 13:07:27.534564$GPGSV,2,1,07,05,21,090,41,10,18,292,43,13,24,045,42,15,62,037,45*77
###2023-11-09 13:07:27.536813$GPGSV,2,2,07,18,77,281,47,23,50,315,45,24,49,136,46,,,,*40
###2023-11-09 13:07:27.539416$GLGSV,2,1,05,70,50,016,35,71,48,288,48,80,17,091,43,85,58,203,48*68
###2023-11-09 13:07:27.541034$GLGSV,2,2,05,86,52,309,47,,,,,,,,,,,,*50
###2023-11-09 13:07:27.543600$GAGSV,1,1,04,07,72,257,45,08,49,042,44,13,64,160,44,26,56,310,45*6F
###2023-11-09 13:07:27.546171$GBGSV,2,1,06,11,24,180,41,14,65,006,45,24,19,133,43,26,23,082,43*65
###2023-11-09 13:07:27.548113$GBGSV,2,2,06,28,43,289,47,33,58,302,47,,,,,,,,*6F
###2023-11-09 13:07:27.549545$GNVTG,18.47,T,,M,0.82,N,1.51,K,A*16
###2023-11-09 13:07:27.630844$GNGGA,130727.80,3611.0547167,N,07544.9771243,W,1,24,0.6,1.099,M,-39.961,M,0.0,*62
###2023-11-09 13:07:27.633421$GPGSV,2,1,07,05,21,090,41,10,18,292,43,13,24,045,42,15,62,037,45*77
###2023-11-09 13:07:27.635656$GPGSV,2,2,07,18,77,281,47,23,50,315,45,24,49,136,46,,,,*40
###2023-11-09 13:07:27.638272$GLGSV,2,1,05,70,50,016,35,71,48,288,48,80,17,091,43,85,58,203,48*68
###2023-11-09 13:07:27.639885$GLGSV,2,2,05,86,52,309,47,,,,,,,,,,,,*50
###2023-11-09 13:07:27.642455$GAGSV,1,1,04,07,72,257,45,08,49,042,44,13,64,160,44,26,56,310,45*6F
###2023-11-09 13:07:27.645032$GBGSV,2,1,06,11,24,180,41,14,65,006,45,24,19,133,43,26,23,082,43*65
###2023-11-09 13:07:27.646979$GBGSV,2,2,06,28,43,289,47,33,58,302,47,,,,,,,,*6F
###2023-11-09 13:07:27.648398$GNVTG,18.47,T,,M,0.78,N,1.44,K,A*17
###2023-11-09 13:07:27.730866$GNGGA,130727.90,3611.0547332,N,07544.9771107,W,1,24,0.6,1.108,M,-39.961,M,0.0,*6B
###2023-11-09 13:07:27.733471$GPGSV,2,1,07,05,21,090,41,10,18,292,43,13,24,045,42,15,62,037,45*77
###2023-11-09 13:07:27.735723$GPGSV,2,2,07,18,77,281,47,23,50,315,45,24,49,136,46,,,,*40
###2023-11-09 13:07:27.738324$GLGSV,2,1,05,70,50,016,35,71,48,288,48,80,17,091,43,85,58,203,48*68
###2023-11-09 13:07:27.739941$GLGSV,2,2,05,86,52,309,47,,,,,,,,,,,,*50
###2023-11-09 13:07:27.742521$GAGSV,1,1,04,07,72,257,45,08,49,042,44,13,64,160,44,26,56,310,45*6F
###2023-11-09 13:07:27.745097$GBGSV,2,1,06,11,24,180,41,14,65,006,45,24,19,133,43,26,23,082,43*65
###2023-11-09 13:07:27.747047$GBGSV,2,2,06,28,43,289,47,33,58,302,47,,,,,,,,*6F
###2023-11-09 13:07:27.748473$GNVTG,18.47,T,,M,0.68,N,1.26,K,A*12
###2023-11-09 13:07:27.832741$GNGGA,130728.00,3611.0547473,N,07544.9770961,W,1,24,0.6,1.112,M,-39.961,M,0.0,*6D
###2023-11-09 13:07:27.835345$GPGSV,2,1,07,05,21,090,41,10,18,292,43,13,24,045,42,15,62,037,45*77
###2023-11-09 13:07:27.837614$GPGSV,2,2,07,18,77,281,47,23,50,315,45,24,49,136,46,,,,*40
###2023-11-09 13:07:27.840190$GLGSV,2,1,05,70,50,016,35,71,48,288,48,80,17,091,43,85,58,203,48*68
###2023-11-09 13:07:27.841797$GLGSV,2,2,05,86,52,309,47,,,,,,,,,,,,*50
###2023-11-09 13:07:27.844361$GAGSV,1,1,04,07,72,257,45,08,49,042,44,13,64,160,44,26,56,310,45*6F
###2023-11-09 13:07:27.846939$GBGSV,2,1,06,11,24,180,41,14,65,006,45,24,19,133,43,26,23,082,43*65
###2023-11-09 13:07:27.848882$GBGSV,2,2,06,28,43,289,47,33,58,302,47,,,,,,,,*6F
###2023-11-09 13:07:27.850304$GNVTG,18.47,T,,M,0.68,N,1.26,K,A*12
###2023-11-09 13:07:27.935711$GNGGA,130728.10,3611.0547605,N,07544.9770814,W,1,24,0.6,1.114,M,-39.961,M,0.0,*6A
###2023-11-09 13:07:27.938299$GPGSV,2,1,07,05,21,090,41,10,18,292,43,13,24,045,42,15,62,037,45*77
###2023-11-09 13:07:27.940545$GPGSV,2,2,07,18,77,281,47,23,50,315,45,24,49,136,46,,,,*40
###2023-11-09 13:07:27.943109$GLGSV,2,1,05,70,50,016,35,71,48,288,48,80,17,091,43,85,58,203,48*68
###2023-11-09 13:07:27.944709$GLGSV,2,2,05,86,52,309,47,,,,,,,,,,,,*50
###2023-11-09 13:07:27.947279$GAGSV,1,1,04,07,72,257,45,08,49,042,44,13,64,160,45,26,56,310,44*6F
###2023-11-09 13:07:27.949852$GBGSV,2,1,06,11,24,180,41,14,65,006,45,24,19,133,43,26,23,082,43*65
###2023-11-09 13:07:27.951791$GBGSV,2,2,06,28,43,289,47,33,58,302,47,,,,,,,,*6F
###2023-11-09 13:07:27.953233$GNVTG,18.47,T,,M,0.64,N,1.19,K,A*12
###2023-11-09 13:07:28.033229$GNGGA,130728.20,3611.0547724,N,07544.9770664,W,1,24,0.6,1.111,M,-39.961,M,0.0,*67
###2023-11-09 13:07:28.035825$GPGSV,2,1,07,05,21,090,41,10,18,292,43,13,24,045,42,15,62,037,45*77
###2023-11-09 13:07:28.038113$GPGSV,2,2,07,18,77,281,47,23,50,315,45,24,49,136,46,,,,*40
###2023-11-09 13:07:28.040671$GLGSV,2,1,05,70,50,016,35,71,48,288,48,80,17,091,43,85,58,203,48*68
###2023-11-09 13:07:28.042280$GLGSV,2,2,05,86,52,309,47,,,,,,,,,,,,*50
###2023-11-09 13:07:28.044853$GAGSV,1,1,04,07,72,257,45,08,49,042,44,13,64,160,45,26,56,310,44*6F
###2023-11-09 13:07:28.047445$GBGSV,2,1,06,11,24,180,41,14,65,006,45,24,19,133,43,26,23,082,43*65
###2023-11-09 13:07:28.049385$GBGSV,2,2,06,28,43,289,47,33,58,302,47,,,,,,,,*6F
###2023-11-09 13:07:28.050813$GNVTG,18.47,T,,M,0.62,N,1.15,K,A*18
