###2023-11-09 13:09:25.044931$GAGSV,1,1,04,07,73,259,45,08,48,043,44,13,63,161,45,26,57,310,44*67
###2023-11-09 13:09:25.047594$GBGSV,2,1,06,11,23,180,42,14,65,008,45,24,20,132,43,26,23,081,43*67
###2023-11-09 13:09:25.049550$GBGSV,2,2,06,28,43,287,47,33,59,304,47,,,,,,,,*66
###2023-11-09 13:09:25.050990$GNVTG,78.38,T,,M,3.27,N,6.05,K,A*12
###2023-11-09 13:09:25.130980$GNGGA,130925.30,3611.0333272,N,07544.9492800,W,1,24,0.6,0.482,M,-39.961,M,0.0,*6B
###2023-11-09 13:09:25.133571$GPGSV,2,1,07,05,20,090,41,10,19,293,43,13,24,045,41,15,61,037,45*76
###2023-11-09 13:09:25.135832$GPGSV,2,2,07,18,78,277,47,23,50,316,45,24,50,134,46,,,,*4F
###2023-11-09 13:09:25.138428$GLGSV,2,1,05,70,50,017,35,71,48,290,48,80,18,090,43,85,57,203,49*60
###2023-11-09 13:09:25.140048$GLGSV,2,2,05,86,53,308,47,,,,,,,,,,,,*50
###2023-11-09 13:09:25.142622$GAGSV,1,1,04,07,73,259,45,08,48,043,44,13,63,161,45,26,57,310,44*67
###2023-11-09 13:09:25.145208$GBGSV,2,1,06,11,23,180,42,14,65,008,45,24,20,132,43,26,23,081,41*65
###2023-11-09 13:09:25.147162$GBGSV,2,2,06,28,43,287,47,33,59,304,47,,,,,,,,*66
###2023-11-09 13:09:25.148602$GNVTG,73.69,T,,M,3.38,N,6.26,K,A*12
###2023-11-09 13:09:25.231696$GNGGA,130925.40,3611.0333526,N,07544.9491664,W,1,24,0.6,0.477,M,-39.961,M,0.0,*6F
###2023-11-09 13:09:25.234270$GPGSV,2,1,07,05,20,090,41,10,19,293,43,13,24,045,41,15,61,037,45*76
###2023-11-09 13:09:25.236513$GPGSV,2,2,07,18,78,277,47,23,50,316,45,24,50,134,46,,,,*4F
###2023-11-09 13:09:25.239092$GLGSV,2,1,05,70,50,017,35,71,48,290,48,80,18,090,43,85,57,203,48*61
###2023-11-09 13:09:25.240689$GLGSV,2,2,05,86,53,308,47,,,,,,,,,,,,*50
###2023-11-09 13:09:25.243252$GAGSV,1,1,04,07,73,259,45,08,48,043,44,13,63,161,45,26,57,310,44*67
###2023-11-09 13:09:25.245810$GBGSV,2,1,06,11,23,180,41,14,65,008,45,24,20,132,43,26,23,081,41*66
###2023-11-09 13:09:25.247747$GBGSV,2,2,06,28,43,287,47,33,59,304,47,,,,,,,,*66
###2023-11-09 13:09:25.249166$GNVTG,74.66,T,,M,3.48,N,6.44,K,A*19
###2023-11-09 13:09:25.329513$GNGGA,130925.50,3611.0333740,N,07544.9490485,W,1,24,0.6,0.466,M,-39.961,M,0.0,*60
###2023-11-09 13:09:25.332115$GPGSV,2,1,07,05,20,090,41,10,19,293,44,13,24,045,41,15,61,037,45*71
###2023-11-09 13:09:25.334385$GPGSV,2,2,07,18,78,277,47,23,50,316,45,24,50,134,46,,,,*4F
###2023-11-09 13:09:25.336990$GLGSV,2,1,05,70,50,017,35,71,48,290,48,80,18,090,42,85,57,203,48*60
###2023-11-09 13:09:25.338613$GLGSV,2,2,05,86,53,308,47,,,,,,,,,,,,*50
###2023-11-09 13:09:25.341200$GAGSV,1,1,04,07,73,259,45,08,48,043,44,13,63,161,45,26,57,310,44*67
###2023-11-09 13:09:25.343788$GBGSV,2,1,06,11,23,180,41,14,65,008,45,24,20,132,42,26,23,081,42*64
###2023-11-09 13:09:25.345737$GBGSV,2,2,06,28,43,287,47,33,59,304,47,,,,,,,,*66
###2023-11-09 13:09:25.347192$GNVTG,79.43,T,,M,3.56,N,6.59,K,A*10
###2023-11-09 13:09:25.431129$GNGGA,130925.60,3611.0333870,N,07544.9489273,W,1,24,0.6,0.448,M,-39.961,M,0.0,*64
###2023-11-09 13:09:25.433746$GPGSV,2,1,07,05,20,090,41,10,19,293,44,13,24,045,42,15,61,037,45*72
###2023-11-09 13:09:25.436000$GPGSV,2,2,07,18,78,277,47,23,50,316,45,24,50,134,46,,,,*4F
###2023-11-09 13:09:25.438599$GLGSV,2,1,05,70,50,017,35,71,48,290,48,80,18,090,42,85,57,203,48*60
###2023-11-09 13:09:25.440217$GLGSV,2,2,05,86,53,308,48,,,,,,,,,,,,*5F
###2023-11-09 13:09:25.442785$GAGSV,1,1,04,07,73,259,45,08,48,043,44,13,63,161,44,26,57,310,44*66
###2023-11-09 13:09:25.445364$GBGSV,2,1,06,11,23,180,39,14,65,008,45,24,20,132,41,26,23,081,43*69
###2023-11-09 13:09:25.447314$GBGSV,2,2,06,28,43,287,47,33,59,304,47,,,,,,,,*66
###2023-11-09 13:09:25.448744$GNVTG,84.81,T,,M,3.58,N,6.62,K,A*1A
###2023-11-09 13:09:25.530655$GNGGA,130925.70,3611.0333925,N,07544.9488037,W,1,24,0.6,0.428,M,-39.961,M,0.0,*61
###2023-11-09 13:09:25.533253$GPGSV,2,1,07,05,20,090,41,10,19,293,43,13,24,045,42,15,61,037,45*75
###2023-11-09 13:09:25.535494$GPGSV,2,2,07,18,78,277,47,23,50,316,45,24,50,134,46,,,,*4F
###2023-11-09 13:09:25.538070$GLGSV,2,1,05,70,50,017,35,71,48,290,47,80,18,090,42,85,57,203,48*6F
###2023-11-09 13:09:25.539672$GLGSV,2,2,05,86,53,308,48,,,,,,,,,,,,*5F
###2023-11-09 13:09:25.542230$GAGSV,1,1,04,07,73,259,45,08,48,043,44,13,63,161,44,26,57,310,44*66
###2023-11-09 13:09:25.544800$GBGSV,2,1,06,11,23,180,40,14,65,008,45,24,20,132,42,26,23,081,43*64
###2023-11-09 13:09:25.546725$GBGSV,2,2,06,28,43,287,47,33,59,304,47,,,,,,,,*66
###2023-11-09 13:09:25.548160$GNVTG,88.14,T,,M,3.63,N,6.73,K,A*12
###2023-11-09 13:09:25.630987$GNGGA,130925.80,3611.0333969,N,07544.9486778,W,1,24,0.6,0.404,M,-39.961,M,0.0,*6A
###2023-11-09 13:09:25.633592$GPGSV,2,1,07,05,20,090,40,10,19,293,43,13,24,045,41,15,61,037,45*77
###2023-11-09 13:09:25.635855$GPGSV,2,2,07,18,78,277,47,23,50,316,45,24,50,134,46,,,,*4F
###2023-11-09 13:09:25.638456$GLGSV,2,1,05,70,50,017,35,71,48,290,47,80,18,090,42,85,57,203,49*6E
###2023-11-09 13:09:25.640069$GLGSV,2,2,05,86,53,308,47,,,,,,,,,,,,*50
###2023-11-09 13:09:25.642645$GAGSV,1,1,04,07,73,259,45,08,48,043,44,13,63,161,45,26,57,310,44*67
###2023-11-09 13:09:25.645231$GBGSV,2,1,06,11,23,180,41,14,65,008,45,24,20,132,43,26,23,081,43*64
###2023-11-09 13:09:25.647183$GBGSV,2,2,06,28,43,287,47,33,59,304,47,,,,,,,,*66
###2023-11-09 13:09:25.648618$GNVTG,86.24,T,,M,3.69,N,6.84,K,A*1D
###2023-11-09 13:09:25.731230$GNGGA,130925.90,3611.0334082,N,07544.9485504,W,1,24,0.6,0.383,M,-39.961,M,0.0,*62
###2023-11-09 13:09:25.733825$GPGSV,2,1,07,05,20,090,41,10,19,293,43,13,24,045,41,15,61,037,45*76
###2023-11-09 13:09:25.736080$GPGSV,2,2,07,18,78,277,47,23,50,316,45,24,50,134,46,,,,*4F
###2023-11-09 13:09:25.738672$GLGSV,2,1,05,70,50,017,35,71,48,290,47,80,18,090,42,85,57,203,49*6E
###2023-11-09 13:09:25.740281$GLGSV,2,2,05,86,53,308,47,,,,,,,,,,,,*50
###2023-11-09 13:09:25.742851$GAGSV,1,1,04,07,73,259,45,08,48,043,44,13,63,161,45,26,57,310,44*67
###2023-11-09 13:09:25.745429$GBGSV,2,1,06,11,23,180,42,14,65,008,45,24,20,132,44,26,23,081,42*61
###2023-11-09 13:09:25.747375$GBGSV,2,2,06,28,43,287,47,33,59,304,47,,,,,,,,*66
###2023-11-09 13:09:25.748806$GNVTG,80.69,T,,M,3.77,N,6.98,K,A*10
###2023-11-09 13:09:25.832716$GNGGA,130926.00,3611.0334265,N,07544.9484230,W,1,24,0.6,0.369,M,-39.961,M,0.0,*66
###2023-11-09 13:09:25.835289$GPGSV,2,1,07,05,20,090,41,10,19,293,43,13,24,045,41,15,61,037,45*76
###2023-11-09 13:09:25.837548$GPGSV,2,2,07,18,78,277,47,23,50,316,45,24,50,134,46,,,,*4F
###2023-11-09 13:09:25.840110$GLGSV,2,1,05,70,50,017,35,71,48,290,47,80,18,090,42,85,57,203,49*6E
###2023-11-09 13:09:25.841709$GLGSV,2,2,05,86,53,308,47,,,,,,,,,,,,*50
###2023-11-09 13:09:25.844264$GAGSV,1,1,04,07,73,259,45,08,48,043,44,13,63,161,45,26,57,310,44*67
###2023-11-09 13:09:25.846827$GBGSV,2,1,06,11,23,180,42,14,65,008,45,24,20,132,44,26,23,081,42*61
###2023-11-09 13:09:25.848765$GBGSV,2,2,06,28,43,287,47,33,59,304,47,,,,,,,,*66
###2023-11-09 13:09:25.850189$GNVTG,78.66,T,,M,3.77,N,6.98,K,A*18
###2023-11-09 13:09:25.933120$GNGGA,130926.10,3611.0334495,N,07544.9482964,W,1,24,0.6,0.363,M,-39.961,M,0.0,*68
###2023-11-09 13:09:25.935726$GPGSV,2,1,07,05,20,090,42,10,19,293,43,13,24,045,39,15,61,037,45*7A
###2023-11-09 13:09:25.938033$GPGSV,2,2,07,18,78,277,47,23,50,316,45,24,50,134,46,,,,*4F
###2023-11-09 13:09:25.940615$GLGSV,2,1,05,70,50,017,35,71,48,290,48,80,18,090,43,85,57,203,48*61
###2023-11-09 13:09:25.942226$GLGSV,2,2,05,86,53,308,47,,,,,,,,,,,,*50
###2023-11-09 13:09:25.944806$GAGSV,1,1,04,07,73,259,45,08,48,043,44,13,63,161,45,26,57,310,44*67
###2023-11-09 13:09:25.947406$GBGSV,2,1,06,11,23,180,42,14,65,008,45,24,20,132,44,26,23,081,42*61
###2023-11-09 13:09:25.949352$GBGSV,2,2,06,28,43,287,47,33,59,304,47,,,,,,,,*66
###2023-11-09 13:09:25.950788$GNVTG,75.79,T,,M,3.79,N,7.02,K,A*17
###2023-11-09 13:09:26.033981$GNGGA,130926.20,3611.0334741,N,07544.9481712,W,1,24,0.6,0.363,M,-39.961,M,0.0,*6D
###2023-11-09 13:09:26.036573$GPGSV,2,1,07,05,20,090,42,10,19,293,44,13,24,045,41,15,61,037,45*72
###2023-11-09 13:09:26.038854$GPGSV,2,2,07,18,78,277,47,23,50,316,45,24,50,134,46,,,,*4F
###2023-11-09 13:09:26.041430$GLGSV,2,1,05,70,50,017,35,71,48,290,48,80,18,090,44,85,57,203,48*66
###2023-11-09 13:09:26.043032$GLGSV,2,2,05,86,53,308,47,,,,,,,,,,,,*50
###2023-11-09 13:09:26.045596$GAGSV,1,1,04,07,73,259,45,08,48,043,44,13,63,161,45,26,57,310,44*67
###2023-11-09 13:09:26.048505$GBGSV,2,1,06,11,23,180,41,14,65,008,45,24,20,132,44,26,23,081,42*62
###2023-11-09 13:09:26.050453$GBGSV,2,2,06,28,43,287,47,33,59,304,47,,,,,,,,*66
###2023-11-09 13:09:26.051878$GNVTG,76.66,T,,M,3.73,N,6.91,K,A*1B
###2023-11-09 13:09:26.134222$GNGGA,130926.30,3611.0334958,N,07544.9480462,W,1,24,0.6,0.377,M,-39.961,M,0.0,*6A
###2023-11-09 13:09:26.136811$GPGSV,2,1,07,05,20,090,42,10,19,293,45,13,24,045,41,15,61,037,45*73
###2023-11-09 13:09:26.139078$GPGSV,2,2,07,18,78,277,47,23,50,316,45,24,50,134,46,,,,*4F
###2023-11-09 13:09:26.141631$GLGSV,2,1,05,70,50,017,35,71,48,290,49,80,18,090,44,85,57,203,48*67
###2023-11-09 13:09:26.143226$GLGSV,2,2,05,86,53,308,47,,,,,,,,,,,,*50
###2023-11-09 13:09:26.145770$GAGSV,1,1,04,07,73,259,45,08,48,043,45,13,63,161,45,26,57,310,45*67
