###2023-11-09 13:05:51.840915$GPGSV,2,1,07,05,21,089,41,10,17,292,43,13,25,045,42,15,62,036,46*73
###2023-11-09 13:05:51.843192$GPGSV,2,2,07,18,77,285,47,23,49,314,45,24,49,137,46,,,,*4C
###2023-11-09 13:05:51.845762$GLGSV,2,1,05,70,51,015,35,71,47,286,48,80,17,092,43,85,59,204,48*6E
###2023-11-09 13:05:51.847398$GLGSV,2,2,05,86,52,311,47,,,,,,,,,,,,*59
###2023-11-09 13:05:51.849973$GAGSV,1,1,04,07,72,255,45,08,49,042,44,13,64,160,44,26,56,311,45*6C
###2023-11-09 13:05:51.852544$GBGSV,2,1,06,11,24,180,42,14,65,006,46,24,19,133,42,26,23,082,40*67
###2023-11-09 13:05:51.854477$GBGSV,2,2,06,28,43,289,47,33,58,302,47,,,,,,,,*6F
###2023-11-09 13:05:51.855906$GNVTG,47.18,T,,M,0.93,N,1.73,K,A*16
###2023-11-09 13:05:51.944927$GPGSV,2,1,07,05,21,089,41,10,17,292,43,13,25,045,42,15,62,036,46*73
###2023-11-09 13:05:51.947197$GPGSV,2,2,07,18,77,285,47,23,49,314,45,24,49,137,46,,,,*4C
###2023-11-09 13:05:51.949759$GLGSV,2,1,05,70,51,015,35,71,47,286,48,80,17,092,44,85,59,204,48*69
###2023-11-09 13:05:51.951384$GLGSV,2,2,05,86,52,311,47,,,,,,,,,,,,*59
###2023-11-09 13:05:51.953977$GAGSV,1,1,04,07,72,255,45,08,49,042,44,13,64,160,44,26,56,311,45*6C
###2023-11-09 13:05:51.956592$GBGSV,2,1,06,11,24,180,42,14,65,006,46,24,19,133,42,26,23,082,42*65
###2023-11-09 13:05:51.958553$GBGSV,2,2,06,28,43,289,47,33,58,302,47,,,,,,,,*6F
###2023-11-09 13:05:51.959993$GNVTG,47.18,T,,M,0.89,N,1.66,K,A*19
###2023-11-09 13:05:52.036472$GPGSV,2,1,07,05,21,089,41,10,17,292,43,13,25,045,42,15,62,036,46*73
###2023-11-09 13:05:52.038762$GPGSV,2,2,07,18,77,285,47,23,49,314,45,24,49,137,46,,,,*4C
###2023-11-09 13:05:52.041333$GLGSV,2,1,05,70,51,015,35,71,47,286,48,80,17,092,44,85,59,204,48*69
###2023-11-09 13:05:52.042941$GLGSV,2,2,05,86,52,311,47,,,,,,,,,,,,*59
###2023-11-09 13:05:52.045519$GAGSV,1,1,04,07,72,255,45,08,49,042,44,13,64,160,44,26,56,311,45*6C
###2023-11-09 13:05:52.048119$GBGSV,2,1,06,11,24,180,42,14,65,006,46,24,19,133,42,26,23,082,42*65
###2023-11-09 13:05:52.050066$GBGSV,2,2,06,28,43,289,47,33,58,302,47,,,,,,,,*6F
###2023-11-09 13:05:52.051494$GNVTG,47.18,T,,M,0.84,N,1.55,K,A*14
###2023-11-09 13:05:52.135557$GPGSV,2,1,07,05,21,089,41,10,17,292,43,13,25,045,42,15,62,036,46*73
###2023-11-09 13:05:52.137827$GPGSV,2,2,07,18,77,285,47,23,49,314,45,24,49,137,46,,,,*4C
###2023-11-09 13:05:52.140408$GLGSV,2,1,05,70,51,015,35,71,47,286,48,80,17,092,44,85,59,204,48*69
###2023-11-09 13:05:52.142014$GLGSV,2,2,05,86,52,311,47,,,,,,,,,,,,*59
###2023-11-09 13:05:52.144578$GAGSV,1,1,04,07,72,255,45,08,49,042,44,13,64,160,44,26,56,311,45*6C
###2023-11-09 13:05:52.147167$GBGSV,2,1,06,11,24,180,42,14,65,006,46,24,19,133,42,26,23,082,42*65
###2023-11-09 13:05:52.149106$GBGSV,2,2,06,28,43,289,47,33,58,302,47,,,,,,,,*6F
###2023-11-09 13:05:52.150531$GNVTG,47.18,T,,M,0.78,N,1.44,K,A*17
###2023-11-09 13:05:52.235902$GPGSV,2,1,07,05,21,089,41,10,17,292,43,13,25,045,42,15,62,036,46*73
###2023-11-09 13:05:52.238159$GPGSV,2,2,07,18,77,285,47,23,49,314,45,24,49,137,46,,,,*4C
###2023-11-09 13:05:52.240721$GLGSV,2,1,05,70,51,015,35,71,47,286,48,80,17,092,44,85,59,204,48*69
###2023-11-09 13:05:52.242311$GLGSV,2,2,05,86,52,311,47,,,,,,,,,,,,*59
###2023-11-09 13:05:52.244872$GAGSV,1,1,04,07,72,255,45,08,49,042,44,13,64,160,44,26,56,311,45*6C
###2023-11-09 13:05:52.247474$GBGSV,2,1,06,11,24,180,42,14,65,006,46,24,19,133,42,26,23,082,42*65
###2023-11-09 13:05:52.249410$GBGSV,2,2,06,28,43,289,47,33,58,302,47,,,,,,,,*6F
###2023-11-09 13:05:52.250851$GNVTG,51.94,T,,M,0.99,N,1.84,K,A*17
###2023-11-09 13:05:52.334732$GPGSV,2,1,07,05,21,089,41,10,17,292,44,13,25,045,42,15,62,036,46*74
###2023-11-09 13:05:52.337018$GPGSV,2,2,07,18,77,285,47,23,49,314,45,24,49,137,46,,,,*4C
###2023-11-09 13:05:52.339595$GLGSV,2,1,05,70,51,015,35,71,47,286,48,80,17,092,44,85,59,204,47*66
###2023-11-09 13:05:52.341206$GLGSV,2,2,05,86,52,311,47,,,,,,,,,,,,*59
###2023-11-09 13:05:52.343773$GAGSV,1,1,04,07,72,255,45,08,49,042,43,13,64,160,44,26,56,311,45*6B
###2023-11-09 13:05:52.346355$GBGSV,2,1,06,11,24,180,42,14,65,006,46,24,19,133,42,26,23,082,40*67
###2023-11-09 13:05:52.348302$GBGSV,2,2,06,28,43,289,47,33,58,302,47,,,,,,,,*6F
###2023-11-09 13:05:52.349731$GNVTG,47.76,T,,M,1.24,N,2.30,K,A*17
###2023-11-09 13:05:52.434928$GPGSV,2,1,07,05,21,089,41,10,17,292,44,13,25,045,41,15,62,036,46*77
###2023-11-09 13:05:52.437192$GPGSV,2,2,07,18,77,285,47,23,49,314,45,24,49,137,46,,,,*4C
###2023-11-09 13:05:52.439752$GLGSV,2,1,05,70,51,015,35,71,47,286,48,80,17,092,44,85,59,204,47*66
###2023-11-09 13:05:52.441366$GLGSV,2,2,05,86,52,311,47,,,,,,,,,,,,*59
###2023-11-09 13:05:52.443949$GAGSV,1,1,04,07,72,255,45,08,49,042,43,13,64,160,44,26,56,311,45*6B
###2023-11-09 13:05:52.446548$GBGSV,2,1,06,11,24,180,42,14,65,006,46,24,19,133,42,26,23,082,40*67
###2023-11-09 13:05:52.448493$GBGSV,2,2,06,28,43,289,47,33,58,302,47,,,,,,,,*6F
###2023-11-09 13:05:52.449928$GNVTG,44.81,T,,M,1.52,N,2.81,K,A*17
###2023-11-09 13:05:52.534966$GPGSV,2,1,07,05,21,089,41,10,17,292,44,13,25,045,41,15,62,036,46*77
###2023-11-09 13:05:52.537236$GPGSV,2,2,07,18,77,285,47,23,49,314,45,24,49,137,46,,,,*4C
###2023-11-09 13:05:52.539791$GLGSV,2,1,05,70,51,015,35,71,47,286,48,80,17,092,44,85,59,204,47*66
###2023-11-09 13:05:52.541395$GLGSV,2,2,05,86,52,311,47,,,,,,,,,,,,*59
###2023-11-09 13:05:52.543956$GAGSV,1,1,04,07,72,255,45,08,49,042,43,13,64,160,44,26,56,311,45*6B
###2023-11-09 13:05:52.546530$GBGSV,2,1,06,11,24,180,42,14,65,006,46,24,19,133,42,26,23,082,40*67
###2023-11-09 13:05:52.548477$GBGSV,2,2,06,28,43,289,47,33,58,302,47,,,,,,,,*6F
###2023-11-09 13:05:52.549913$GNVTG,48.23,T,,M,1.61,N,2.99,K,A*1A
###2023-11-09 13:05:52.635219$GPGSV,2,1,07,05,21,089,41,10,17,292,44,13,25,045,42,15,62,036,46*74
###2023-11-09 13:05:52.637497$GPGSV,2,2,07,18,77,285,47,23,49,314,45,24,49,137,46,,,,*4C
###2023-11-09 13:05:52.640077$GLGSV,2,1,05,70,51,015,35,71,47,286,48,80,17,092,44,85,59,204,47*66
###2023-11-09 13:05:52.641688$GLGSV,2,2,05,86,52,311,47,,,,,,,,,,,,*59
###2023-11-09 13:05:52.644267$GAGSV,1,1,04,07,72,255,45,08,49,042,44,13,64,160,44,26,56,311,45*6C
###2023-11-09 13:05:52.646847$GBGSV,2,1,06,11,24,180,40,14,65,006,46,24,19,133,42,26,23,082,40*65
###2023-11-09 13:05:52.648797$GBGSV,2,2,06,28,43,289,47,33,58,302,47,,,,,,,,*6F
###2023-11-09 13:05:52.650229$GNVTG,53.52,T,,M,1.40,N,2.59,K,A*19
###2023-11-09 13:05:52.734814$GPGSV,2,1,07,05,21,089,43,10,17,292,43,13,25,045,42,15,62,036,46*71
###2023-11-09 13:05:52.737086$GPGSV,2,2,07,18,77,285,47,23,49,314,45,24,49,137,45,,,,*4F
###2023-11-09 13:05:52.739661$GLGSV,2,1,05,70,51,015,35,71,47,286,48,80,17,092,44,85,59,204,47*66
###2023-11-09 13:05:52.741272$GLGSV,2,2,05,86,52,311,48,,,,,,,,,,,,*56
###2023-11-09 13:05:52.743834$GAGSV,1,1,04,07,72,255,45,08,49,042,44,13,64,160,44,26,56,311,45*6C
###2023-11-09 13:05:52.746412$GBGSV,2,1,06,11,24,180,40,14,65,006,46,24,19,133,42,26,23,082,41*64
###2023-11-09 13:05:52.748361$GBGSV,2,2,06,28,43,289,47,33,58,302,47,,,,,,,,*6F
###2023-11-09 13:05:52.749789$GNVTG,60.41,T,,M,1.13,N,2.09,K,A*18
###2023-11-09 13:05:52.837990$GNGGA,130553.00,3611.0375905,N,07544.9857201,W,1,24,0.6,0.775,M,-39.962,M,0.0,*6A
###2023-11-09 13:05:52.840557$GPGSV,2,1,07,05,21,089,42,10,17,292,43,13,25,045,42,15,62,036,46*70
###2023-11-09 13:05:52.843120$GPGSV,2,2,07,18,77,285,47,23,49,314,45,24,49,137,45,,,,*4F
###2023-11-09 13:05:52.845702$GLGSV,2,1,05,70,51,015,35,71,47,286,48,80,17,092,44,85,59,204,47*66
###2023-11-09 13:05:52.847320$GLGSV,2,2,05,86,52,311,48,,,,,,,,,,,,*56
###2023-11-09 13:05:52.849891$GAGSV,1,1,04,07,72,255,45,08,49,042,44,13,64,160,44,26,56,311,45*6C
###2023-11-09 13:05:52.852508$GBGSV,2,1,06,11,24,180,42,14,65,006,46,24,19,133,42,26,23,082,42*65
###2023-11-09 13:05:52.854476$GBGSV,2,2,06,28,43,289,47,33,58,302,47,,,,,,,,*6F
###2023-11-09 13:05:52.855912$GNVTG,56.26,T,,M,0.99,N,1.84,K,A*19
###2023-11-09 13:05:52.931982$GNGGA,130553.10,3611.0376050,N,07544.9856934,W,1,24,0.6,0.798,M,-39.962,M,0.0,*6E
###2023-11-09 13:05:52.934581$GPGSV,2,1,07,05,21,089,42,10,17,292,43,13,25,045,42,15,62,036,46*70
