###2023-11-09 13:06:46.849717$GNVTG,33.47,T,,M,0.84,N,1.55,K,A*1D
###2023-11-09 13:06:46.932125$GNGGA,130647.10,3611.0455937,N,07544.9785663,W,1,24,0.6,1.137,M,-39.961,M,0.0,*6B
###2023-11-09 13:06:46.934737$GPGSV,2,1,07,05,21,090,42,10,18,292,43,13,24,045,42,15,62,037,45*74
###2023-11-09 13:06:46.937020$GPGSV,2,2,07,18,77,281,47,23,50,315,45,24,49,136,46,,,,*40
###2023-11-09 13:06:46.939610$GLGSV,2,1,05,70,50,016,35,71,48,288,47,80,17,091,43,85,58,203,48*67
###2023-11-09 13:06:46.941216$GLGSV,2,2,05,86,52,309,48,,,,,,,,,,,,*5F
###2023-11-09 13:06:46.943796$GAGSV,1,1,04,07,72,255,45,08,49,042,44,13,64,160,44,26,56,311,45*6C
###2023-11-09 13:06:46.946372$GBGSV,2,1,06,11,24,180,41,14,65,006,45,24,19,133,43,26,23,082,43*65
###2023-11-09 13:06:46.948329$GBGSV,2,2,06,28,43,289,47,33,58,302,47,,,,,,,,*6F
###2023-11-09 13:06:46.949764$GNVTG,33.47,T,,M,0.66,N,1.22,K,A*11
###2023-11-09 13:06:47.032970$GNGGA,130647.20,3611.0456083,N,07544.9785732,W,1,24,0.6,1.111,M,-39.961,M,0.0,*6C
###2023-11-09 13:06:47.035550$GPGSV,2,1,07,05,21,090,42,10,18,292,43,13,24,045,42,15,62,037,46*77
###2023-11-09 13:06:47.037820$GPGSV,2,2,07,18,77,281,47,23,50,315,45,24,49,136,46,,,,*40
###2023-11-09 13:06:47.040406$GLGSV,2,1,05,70,50,016,35,71,48,288,47,80,17,091,44,85,58,203,48*60
###2023-11-09 13:06:47.042029$GLGSV,2,2,05,86,52,309,47,,,,,,,,,,,,*50
###2023-11-09 13:06:47.044597$GAGSV,1,1,04,07,72,255,45,08,49,042,44,13,64,160,45,26,56,311,45*6D
###2023-11-09 13:06:47.047188$GBGSV,2,1,06,11,24,180,41,14,65,006,46,24,19,133,43,26,23,082,43*66
###2023-11-09 13:06:47.049132$GBGSV,2,2,06,28,43,289,47,33,58,302,47,,,,,,,,*6F
###2023-11-09 13:06:47.050561$GNVTG,33.47,T,,M,0.45,N,0.83,K,A*1A
###2023-11-09 13:06:47.130856$GNGGA,130647.30,3611.0456197,N,07544.9785784,W,1,24,0.6,1.075,M,-39.961,M,0.0,*67
###2023-11-09 13:06:47.133450$GPGSV,2,1,07,05,21,090,42,10,18,292,43,13,24,045,42,15,62,037,46*77
###2023-11-09 13:06:47.135697$GPGSV,2,2,07,18,77,281,47,23,50,315,45,24,49,136,46,,,,*40
###2023-11-09 13:06:47.138274$GLGSV,2,1,05,70,50,016,35,71,48,288,47,80,17,091,43,85,58,203,48*67
###2023-11-09 13:06:47.139871$GLGSV,2,2,05,86,52,309,47,,,,,,,,,,,,*50
###2023-11-09 13:06:47.142421$GAGSV,1,1,04,07,72,255,45,08,49,042,44,13,64,160,45,26,56,311,45*6D
###2023-11-09 13:06:47.144981$GBGSV,2,1,06,11,24,180,41,14,65,006,46,24,19,133,43,26,23,082,43*66
###2023-11-09 13:06:47.146897$GBGSV,2,2,06,28,43,289,47,33,58,302,47,,,,,,,,*6F
###2023-11-09 13:06:47.148327$GNVTG,33.47,T,,M,0.41,N,0.76,K,A*14
###2023-11-09 13:06:47.230879$GNGGA,130647.40,3611.0456331,N,07544.9785800,W,1,24,0.6,1.036,M,-39.961,M,0.0,*6A
###2023-11-09 13:06:47.233486$GPGSV,2,1,07,05,21,090,42,10,18,292,43,13,24,045,41,15,62,037,46*74
###2023-11-09 13:06:47.235741$GPGSV,2,2,07,18,77,281,47,23,50,315,45,24,49,136,46,,,,*40
###2023-11-09 13:06:47.238338$GLGSV,2,1,05,70,50,016,35,71,48,288,47,80,17,091,42,85,58,203,49*67
###2023-11-09 13:06:47.239952$GLGSV,2,2,05,86,52,309,47,,,,,,,,,,,,*50
###2023-11-09 13:06:47.242511$GAGSV,1,1,04,07,72,255,45,08,49,042,44,13,64,160,45,26,56,311,45*6D
###2023-11-09 13:06:47.245078$GBGSV,2,1,06,11,24,180,42,14,65,006,45,24,19,133,43,26,23,082,43*66
###2023-11-09 13:06:47.247024$GBGSV,2,2,06,28,43,289,47,33,58,302,47,,,,,,,,*6F
###2023-11-09 13:06:47.248452$GNVTG,33.47,T,,M,0.54,N,1.01,K,A*11
###2023-11-09 13:06:47.332471$GNGGA,130647.50,3611.0456525,N,07544.9785758,W,1,24,0.6,1.002,M,-39.961,M,0.0,*6D
###2023-11-09 13:06:47.335067$GPGSV,2,1,07,05,21,090,42,10,18,292,43,13,24,045,41,15,62,037,46*74
###2023-11-09 13:06:47.337356$GPGSV,2,2,07,18,77,281,47,23,50,315,45,24,49,136,46,,,,*40
###2023-11-09 13:06:47.339935$GLGSV,2,1,05,70,50,016,35,71,48,288,47,80,17,091,42,85,58,203,49*67
###2023-11-09 13:06:47.341543$GLGSV,2,2,05,86,52,309,47,,,,,,,,,,,,*50
###2023-11-09 13:06:47.344115$GAGSV,1,1,04,07,72,255,45,08,49,042,44,13,64,160,45,26,56,311,44*6C
###2023-11-09 13:06:47.346687$GBGSV,2,1,06,11,24,180,42,14,65,006,45,24,19,133,43,26,23,082,41*64
###2023-11-09 13:06:47.348644$GBGSV,2,2,06,28,43,289,47,33,58,302,47,,,,,,,,*6F
###2023-11-09 13:06:47.350073$GNVTG,33.47,T,,M,0.86,N,1.58,K,A*12
###2023-11-09 13:06:47.430471$GNGGA,130647.60,3611.0456782,N,07544.9785656,W,1,24,0.6,0.973,M,-39.961,M,0.0,*60
###2023-11-09 13:06:47.433043$GPGSV,2,1,07,05,21,090,40,10,18,292,43,13,24,045,41,15,62,037,46*76
###2023-11-09 13:06:47.435273$GPGSV,2,2,07,18,77,281,47,23,50,315,45,24,49,136,46,,,,*40
###2023-11-09 13:06:47.437846$GLGSV,2,1,05,70,50,016,35,71,48,288,47,80,17,091,42,85,58,203,48*66
###2023-11-09 13:06:47.439447$GLGSV,2,2,05,86,52,309,47,,,,,,,,,,,,*50
###2023-11-09 13:06:47.442003$GAGSV,1,1,04,07,72,255,45,08,49,042,44,13,64,160,45,26,56,311,44*6C
###2023-11-09 13:06:47.444579$GBGSV,2,1,06,11,24,180,42,14,65,006,45,24,19,133,44,26,23,082,41*63
###2023-11-09 13:06:47.446500$GBGSV,2,2,06,28,43,289,47,33,58,302,47,,,,,,,,*6F
###2023-11-09 13:06:47.447935$GNVTG,20.04,T,,M,1.05,N,1.94,K,A*1D
###2023-11-09 13:06:47.530867$GNGGA,130647.70,3611.0457053,N,07544.9785525,W,1,24,0.6,0.953,M,-39.961,M,0.0,*6E
###2023-11-09 13:06:47.533477$GPGSV,2,1,07,05,21,090,40,10,18,292,43,13,24,045,41,15,62,037,46*76
###2023-11-09 13:06:47.535735$GPGSV,2,2,07,18,77,281,47,23,50,315,45,24,49,136,46,,,,*40
###2023-11-09 13:06:47.538331$GLGSV,2,1,05,70,50,016,35,71,48,288,47,80,17,091,44,85,58,203,48*60
###2023-11-09 13:06:47.539942$GLGSV,2,2,05,86,52,309,47,,,,,,,,,,,,*50
###2023-11-09 13:06:47.542508$GAGSV,1,1,04,07,72,255,45,08,49,042,44,13,64,160,45,26,56,311,44*6C
###2023-11-09 13:06:47.545094$GBGSV,2,1,06,11,24,180,42,14,65,006,46,24,19,133,44,26,23,082,42*63
###2023-11-09 13:06:47.547042$GBGSV,2,2,06,28,43,289,47,33,58,302,47,,,,,,,,*6F
###2023-11-09 13:06:47.548468$GNVTG,22.03,T,,M,1.03,N,1.91,K,A*1B
###2023-11-09 13:06:47.631855$GNGGA,130647.80,3611.0457286,N,07544.9785387,W,1,24,0.6,0.932,M,-39.961,M,0.0,*62
###2023-11-09 13:06:47.634438$GPGSV,2,1,07,05,21,090,41,10,18,292,43,13,24,045,42,15,62,037,46*74
###2023-11-09 13:06:47.636699$GPGSV,2,2,07,18,77,281,47,23,50,315,45,24,49,136,46,,,,*40
###2023-11-09 13:06:47.639288$GLGSV,2,1,05,70,50,016,35,71,48,288,48,80,17,091,44,85,58,203,48*6F
###2023-11-09 13:06:47.640890$GLGSV,2,2,05,86,52,309,47,,,,,,,,,,,,*50
###2023-11-09 13:06:47.643455$GAGSV,1,1,04,07,72,255,45,08,49,042,44,13,64,160,45,26,56,311,44*6C
###2023-11-09 13:06:47.646033$GBGSV,2,1,06,11,24,180,42,14,65,006,46,24,19,133,44,26,23,082,42*63
###2023-11-09 13:06:47.647978$GBGSV,2,2,06,28,43,289,47,33,58,302,47,,,,,,,,*6F
###2023-11-09 13:06:47.649410$GNVTG,22.03,T,,M,0.82,N,1.51,K,A*1F
###2023-11-09 13:06:47.730842$GNGGA,130647.90,3611.0457444,N,07544.9785252,W,1,24,0.6,0.915,M,-39.961,M,0.0,*67
###2023-11-09 13:06:47.733419$GPGSV,2,1,07,05,21,090,42,10,18,292,44,13,24,045,42,15,62,037,46*70
###2023-11-09 13:06:47.735664$GPGSV,2,2,07,18,77,281,47,23,50,315,45,24,49,136,45,,,,*43
###2023-11-09 13:06:47.738244$GLGSV,2,1,05,70,50,016,36,71,48,288,48,80,17,091,44,85,58,203,48*6C
###2023-11-09 13:06:47.739841$GLGSV,2,2,05,86,52,309,47,,,,,,,,,,,,*50
###2023-11-09 13:06:47.742398$GAGSV,1,1,04,07,72,255,46,08,49,042,44,13,64,160,44,26,56,311,44*6E
###2023-11-09 13:06:47.744961$GBGSV,2,1,06,11,24,180,41,14,65,006,46,24,19,133,44,26,23,082,43*61
###2023-11-09 13:06:47.746885$GBGSV,2,2,06,28,43,289,47,33,58,302,47,,,,,,,,*6F
###2023-11-09 13:06:47.748319$GNVTG,22.03,T,,M,0.56,N,1.04,K,A*16
###2023-11-09 13:06:47.836854$GNGGA,130648.00,3611.0457524,N,07544.9785112,W,1,24,0.6,0.913,M,-39.961,M,0.0,*67
###2023-11-09 13:06:47.839476$GPGSV,2,1,07,05,21,090,42,10,18,292,44,13,24,045,42,15,62,037,46*70
###2023-11-09 13:06:47.841741$GPGSV,2,2,07,18,77,281,47,23,50,315,45,24,49,136,45,,,,*43
###2023-11-09 13:06:47.844317$GLGSV,2,1,05,70,50,016,36,71,48,288,48,80,17,091,44,85,58,203,48*6C
###2023-11-09 13:06:47.845924$GLGSV,2,2,05,86,52,309,48,,,,,,,,,,,,*5F
###2023-11-09 13:06:47.848507$GAGSV,1,1,04,07,72,255,46,08,49,042,44,13,64,160,44,26,56,311,45*6F
###2023-11-09 13:06:47.851088$GBGSV,2,1,06,11,24,180,41,14,65,006,45,24,19,133,44,26,23,082,43*62
###2023-11-09 13:06:47.853026$GBGSV,2,2,06,28,43,289,47,33,58,302,47,,,,,,,,*6F
###2023-11-09 13:06:47.854456$GNVTG,22.03,T,,M,0.43,N,0.79,K,A*19
###2023-11-09 13:06:47.940871$GNGGA,130648.10,3611.0457583,N,07544.9784970,W,1,24,0.6,0.912,M,-39.961,M,0.0,*67
###2023-11-09 13:06:47.943475$GPGSV,2,1,07,05,21,090,42,10,18,292,44,13,24,045,42,15,62,037,46*70
###2023-11-09 13:06:47.945738$GPGSV,2,2,07,18,77,281,47,23,50,315,45,24,49,136,45,,,,*43
###2023-11-09 13:06:47.948345$GLGSV,2,1,05,70,50,016,36,71,48,288,48,80,17,091,44,85,58,203,48*6C
###2023-11-09 13:06:47.949961$GLGSV,2,2,05,86,52,309,48,,,,,,,,,,,,*5F
###2023-11-09 13:06:47.952545$GAGSV,1,1,04,07,72,255,46,08,49,042,44,13,64,160,44,26,56,311,44*6E
###2023-11-09 13:06:47.955133$GBGSV,2,1,06,11,24,180,41,14,65,006,45,24,19,133,44,26,23,082,43*62
###2023-11-09 13:06:47.957086$GBGSV,2,2,06,28,43,289,47,33,58,302,47,,,,,,,,*6F
###2023-11-09 13:06:47.958528$GNVTG,22.03,T,,M,0.49,N,0.90,K,A*14
