###2023-11-09 13:07:32.540158$GLGSV,2,2,05,86,52,309,47,,,,,,,,,,,,*50
###2023-11-09 13:07:32.542757$GAGSV,1,1,04,07,72,257,45,08,49,042,44,13,64,160,44,26,56,310,45*6F
###2023-11-09 13:07:32.545347$GBGSV,2,1,06,11,23,180,41,14,65,006,45,24,19,133,43,26,23,082,43*62
###2023-11-09 13:07:32.547312$GBGSV,2,2,06,28,43,289,47,33,58,302,47,,,,,,,,*6F
###2023-11-09 13:07:32.548789$GNVTG,321.31,T,,M,0.91,N,1.69,K,A*27
###2023-11-09 13:07:32.631731$GNGGA,130732.80,3611.0554643,N,07544.9776801,W,1,24,0.6,1.231,M,-39.961,M,0.0,*6E
###2023-11-09 13:07:32.634324$GPGSV,2,1,07,05,21,090,41,10,18,292,44,13,24,045,41,15,62,037,46*70
###2023-11-09 13:07:32.636571$GPGSV,2,2,07,18,77,281,47,23,50,315,45,24,49,136,46,,,,*40
###2023-11-09 13:07:32.639169$GLGSV,2,1,05,70,50,016,35,71,48,288,48,80,17,091,43,85,58,203,48*68
###2023-11-09 13:07:32.640791$GLGSV,2,2,05,86,52,309,47,,,,,,,,,,,,*50
###2023-11-09 13:07:32.643372$GAGSV,1,1,04,07,72,257,45,08,49,042,44,13,64,160,44,26,56,310,45*6F
###2023-11-09 13:07:32.645969$GBGSV,2,1,06,11,23,180,41,14,65,006,45,24,19,133,43,26,23,082,42*63
###2023-11-09 13:07:32.647930$GBGSV,2,2,06,28,43,289,47,33,58,302,47,,,,,,,,*6F
###2023-11-09 13:07:32.649407$GNVTG,351.31,T,,M,1.28,N,2.38,K,A*24
###2023-11-09 13:07:32.730728$GNGGA,130732.90,3611.0555035,N,07544.9776871,W,1,24,0.6,1.225,M,-39.961,M,0.0,*6B
###2023-11-09 13:07:32.733303$GPGSV,2,1,07,05,21,090,41,10,18,292,44,13,24,045,41,15,62,037,46*70
###2023-11-09 13:07:32.735534$GPGSV,2,2,07,18,77,281,47,23,50,315,45,24,49,136,46,,,,*40
###2023-11-09 13:07:32.738113$GLGSV,2,1,05,70,50,016,35,71,48,288,48,80,17,091,43,85,58,203,48*68
###2023-11-09 13:07:32.739712$GLGSV,2,2,05,86,52,309,47,,,,,,,,,,,,*50
###2023-11-09 13:07:32.742272$GAGSV,1,1,04,07,72,257,45,08,49,042,44,13,64,160,44,26,56,310,45*6F
###2023-11-09 13:07:32.744838$GBGSV,2,1,06,11,23,180,41,14,65,006,45,24,19,133,43,26,23,082,41*60
###2023-11-09 13:07:32.746773$GBGSV,2,2,06,28,43,289,47,33,58,302,47,,,,,,,,*6F
###2023-11-09 13:07:32.748244$GNVTG,354.13,T,,M,1.56,N,2.88,K,A*23
###2023-11-09 13:07:32.833860$GNGGA,130733.00,3611.0555428,N,07544.9776919,W,1,24,0.6,1.216,M,-39.961,M,0.0,*64
###2023-11-09 13:07:32.836461$GPGSV,2,1,07,05,21,090,41,10,18,292,44,13,24,045,41,15,62,037,46*70
###2023-11-09 13:07:32.838735$GPGSV,2,2,07,18,77,281,47,23,50,315,45,24,49,136,46,,,,*40
###2023-11-09 13:07:32.841308$GLGSV,2,1,05,70,50,016,35,71,48,288,47,80,17,091,44,85,58,203,48*60
###2023-11-09 13:07:32.842912$GLGSV,2,2,05,86,52,309,47,,,,,,,,,,,,*50
###2023-11-09 13:07:32.845473$GAGSV,1,1,04,07,72,257,45,08,49,042,44,13,64,160,44,26,56,310,45*6F
###2023-11-09 13:07:32.848065$GBGSV,2,1,06,11,23,180,40,14,65,006,45,24,19,133,43,26,23,082,42*62
###2023-11-09 13:07:32.850002$GBGSV,2,2,06,28,43,289,47,33,58,302,47,,,,,,,,*6F
###2023-11-09 13:07:32.851469$GNVTG,357.06,T,,M,1.28,N,2.38,K,A*26
###2023-11-09 13:07:32.930725$GNGGA,130733.10,3611.0555714,N,07544.9776948,W,1,24,0.6,1.196,M,-39.961,M,0.0,*66
###2023-11-09 13:07:32.933314$GPGSV,2,1,07,05,21,090,42,10,18,292,44,13,24,045,42,15,62,037,46*70
###2023-11-09 13:07:32.935560$GPGSV,2,2,07,18,77,281,47,23,50,315,46,24,49,136,46,,,,*43
###2023-11-09 13:07:32.938156$GLGSV,2,1,05,70,50,016,35,71,48,288,47,80,17,091,44,85,58,203,48*60
###2023-11-09 13:07:32.939760$GLGSV,2,2,05,86,52,309,47,,,,,,,,,,,,*50
###2023-11-09 13:07:32.942325$GAGSV,1,1,04,07,72,257,45,08,49,042,44,13,64,160,45,26,56,310,44*6F
###2023-11-09 13:07:32.944893$GBGSV,2,1,06,11,23,180,40,14,65,006,45,24,19,133,43,26,23,082,43*63
###2023-11-09 13:07:32.946824$GBGSV,2,2,06,28,43,289,47,33,58,302,47,,,,,,,,*6F
###2023-11-09 13:07:32.948305$GNVTG,357.06,T,,M,0.78,N,1.44,K,A*2A
###2023-11-09 13:07:33.031844$GNGGA,130733.20,3611.0555860,N,07544.9776975,W,1,24,0.6,1.171,M,-39.961,M,0.0,*6E
###2023-11-09 13:07:33.034426$GPGSV,2,1,07,05,21,090,42,10,18,292,44,13,24,045,42,15,62,037,46*70
###2023-11-09 13:07:33.036673$GPGSV,2,2,07,18,77,281,47,23,50,315,45,24,49,136,46,,,,*40
###2023-11-09 13:07:33.039253$GLGSV,2,1,05,70,50,016,35,71,48,288,47,80,17,091,44,85,58,203,48*60
###2023-11-09 13:07:33.040852$GLGSV,2,2,05,86,52,309,47,,,,,,,,,,,,*50
###2023-11-09 13:07:33.043405$GAGSV,1,1,04,07,72,257,45,08,49,042,44,13,64,160,45,26,56,310,44*6F
###2023-11-09 13:07:33.045961$GBGSV,2,1,06,11,23,180,40,14,65,006,45,24,19,133,42,26,23,082,43*62
###2023-11-09 13:07:33.047895$GBGSV,2,2,06,28,43,289,47,33,58,302,47,,,,,,,,*6F
###2023-11-09 13:07:33.049349$GNVTG,357.06,T,,M,0.27,N,0.50,K,A*24
###2023-11-09 13:07:33.130742$GNGGA,130733.30,3611.0555915,N,07544.9776997,W,1,24,0.6,1.150,M,-39.961,M,0.0,*63
###2023-11-09 13:07:33.133347$GPGSV,2,1,07,05,21,090,42,10,18,292,44,13,24,045,42,15,62,037,46*70
###2023-11-09 13:07:33.135605$GPGSV,2,2,07,18,77,281,47,23,50,315,45,24,49,136,47,,,,*41
###2023-11-09 13:07:33.138200$GLGSV,2,1,05,70,50,016,35,71,48,288,48,80,17,091,43,85,58,203,48*68
###2023-11-09 13:07:33.139808$GLGSV,2,2,05,86,52,309,47,,,,,,,,,,,,*50
###2023-11-09 13:07:33.142381$GAGSV,1,1,04,07,72,257,45,08,49,042,44,13,64,160,45,26,56,310,44*6F
###2023-11-09 13:07:33.144965$GBGSV,2,1,06,11,23,180,41,14,65,006,45,24,19,133,43,26,23,082,43*62
###2023-11-09 13:07:33.146935$GBGSV,2,2,06,28,43,289,47,33,58,302,47,,,,,,,,*6F
###2023-11-09 13:07:33.148408$GNVTG,357.06,T,,M,0.12,N,0.22,K,A*27
###2023-11-09 13:07:33.231983$GNGGA,130733.40,3611.0555980,N,07544.9777007,W,1,24,0.6,1.138,M,-39.961,M,0.0,*67
###2023-11-09 13:07:33.234571$GPGSV,2,1,07,05,21,090,41,10,18,292,44,13,24,045,42,15,62,037,45*70
###2023-11-09 13:07:33.236828$GPGSV,2,2,07,18,77,281,47,23,50,315,45,24,49,136,47,,,,*41
###2023-11-09 13:07:33.239436$GLGSV,2,1,05,70,50,016,35,71,48,288,48,80,17,091,42,85,58,203,49*68
###2023-11-09 13:07:33.241052$GLGSV,2,2,05,86,52,309,47,,,,,,,,,,,,*50
###2023-11-09 13:07:33.243636$GAGSV,1,1,04,07,72,257,45,08,49,042,44,13,64,160,45,26,56,310,44*6F
###2023-11-09 13:07:33.246225$GBGSV,2,1,06,11,23,180,42,14,65,006,45,24,19,133,43,26,23,082,42*60
###2023-11-09 13:07:33.248176$GBGSV,2,2,06,28,43,289,47,33,58,302,47,,,,,,,,*6F
###2023-11-09 13:07:33.249645$GNVTG,357.06,T,,M,0.33,N,0.61,K,A*23
###2023-11-09 13:07:33.330729$GNGGA,130733.50,3611.0556154,N,07544.9776995,W,1,24,0.6,1.140,M,-39.961,M,0.0,*68
###2023-11-09 13:07:33.333308$GPGSV,2,1,07,05,21,090,41,10,18,292,44,13,24,045,41,15,62,037,45*73
###2023-11-09 13:07:33.335554$GPGSV,2,2,07,18,77,281,47,23,50,315,45,24,49,136,46,,,,*40
###2023-11-09 13:07:33.338140$GLGSV,2,1,05,70,50,016,35,71,48,288,47,80,17,091,43,85,58,203,49*66
###2023-11-09 13:07:33.339743$GLGSV,2,2,05,86,52,309,47,,,,,,,,,,,,*50
###2023-11-09 13:07:33.342307$GAGSV,1,1,04,07,72,257,45,08,49,042,43,13,64,160,45,26,56,310,44*68
###2023-11-09 13:07:33.344874$GBGSV,2,1,06,11,23,180,43,14,65,006,44,24,19,133,44,26,23,082,42*67
###2023-11-09 13:07:33.346794$GBGSV,2,2,06,28,43,289,47,33,58,302,47,,,,,,,,*6F
###2023-11-09 13:07:33.348269$GNVTG,357.06,T,,M,0.89,N,1.66,K,A*24
###2023-11-09 13:07:33.430243$GNGGA,130733.60,3611.0556445,N,07544.9776961,W,1,24,0.6,1.149,M,-39.961,M,0.0,*6C
###2023-11-09 13:07:33.432851$GPGSV,2,1,07,05,21,090,41,10,18,292,43,13,24,045,41,15,62,037,45*74
###2023-11-09 13:07:33.435104$GPGSV,2,2,07,18,77,281,47,23,50,315,45,24,49,136,46,,,,*40
###2023-11-09 13:07:33.437731$GLGSV,2,1,05,70,50,016,35,71,48,288,47,80,17,091,43,85,58,203,48*67
###2023-11-09 13:07:33.439351$GLGSV,2,2,05,86,52,309,47,,,,,,,,,,,,*50
###2023-11-09 13:07:33.441911$GAGSV,1,1,04,07,72,257,45,08,49,042,43,13,64,160,45,26,56,310,44*68
###2023-11-09 13:07:33.444483$GBGSV,2,1,06,11,23,180,43,14,65,006,44,24,19,133,44,26,23,082,42*67
###2023-11-09 13:07:33.446413$GBGSV,2,2,06,28,43,289,47,33,58,302,47,,,,,,,,*6F
###2023-11-09 13:07:33.447824$GNVTG,6.51,T,,M,1.21,N,2.23,K,A*20
###2023-11-09 13:07:33.531717$GNGGA,130733.70,3611.0556766,N,07544.9776933,W,1,24,0.6,1.153,M,-39.961,M,0.0,*63
###2023-11-09 13:07:33.534295$GPGSV,2,1,07,05,21,090,41,10,18,292,43,13,24,045,42,15,62,037,45*77
###2023-11-09 13:07:33.536549$GPGSV,2,2,07,18,77,281,47,23,50,315,45,24,49,136,46,,,,*40
###2023-11-09 13:07:33.539136$GLGSV,2,1,05,70,50,016,35,71,48,288,47,80,17,091,44,85,58,203,48*60
###2023-11-09 13:07:33.541036$GLGSV,2,2,05,86,52,309,47,,,,,,,,,,,,*50
###2023-11-09 13:07:33.543620$GAGSV,1,1,04,07,72,257,45,08,49,042,44,13,64,160,45,26,56,310,44*6F
###2023-11-09 13:07:33.546212$GBGSV,2,1,06,11,23,180,41,14,65,006,44,24,19,133,44,26,23,082,43*64
###2023-11-09 13:07:33.548175$GBGSV,2,2,06,28,43,289,46,33,58,302,47,,,,,,,,*6E
###2023-11-09 13:07:33.549572$GNVTG,5.18,T,,M,1.11,N,2.05,K,A*29
###2023-11-09 13:07:33.630723$GNGGA,130733.80,3611.0557005,N,07544.9776923,W,1,24,0.6,1.151,M,-39.961,M,0.0,*6C
###2023-11-09 13:07:33.633301$GPGSV,2,1,07,05,21,090,42,10,18,292,44,13,24,045,43,15,62,037,46*71
###2023-11-09 13:07:33.635545$GPGSV,2,2,07,18,77,281,47,23,50,315,45,24,49,136,46,,,,*40
###2023-11-09 13:07:33.638131$GLGSV,2,1,05,70,50,016,35,71,48,288,48,80,17,091,45,85,58,203,48*6E
###2023-11-09 13:07:33.639734$GLGSV,2,2,05,86,52,309,48,,,,,,,,,,,,*5F
