###2023-11-09 13:07:28.132889$GNGGA,130728.30,3611.0547821,N,07544.9770526,W,1,24,0.6,1.103,M,-39.961,M,0.0,*6A
###2023-11-09 13:07:28.135498$GPGSV,2,1,07,05,21,090,41,10,18,292,43,13,24,045,42,15,62,037,45*77
###2023-11-09 13:07:28.137783$GPGSV,2,2,07,18,77,281,47,23,50,315,45,24,49,136,46,,,,*40
###2023-11-09 13:07:28.140354$GLGSV,2,1,05,70,50,016,35,71,48,288,47,80,17,091,43,85,58,203,48*67
###2023-11-09 13:07:28.141960$GLGSV,2,2,05,86,52,309,47,,,,,,,,,,,,*50
###2023-11-09 13:07:28.144536$GAGSV,1,1,04,07,72,257,45,08,49,042,44,13,64,160,45,26,56,310,44*6F
###2023-11-09 13:07:28.147136$GBGSV,2,1,06,11,24,180,41,14,65,006,45,24,19,133,43,26,23,082,43*65
###2023-11-09 13:07:28.149075$GBGSV,2,2,06,28,43,289,47,33,58,302,47,,,,,,,,*6F
###2023-11-09 13:07:28.150513$GNVTG,18.47,T,,M,0.49,N,0.90,K,A*1D
###2023-11-09 13:07:28.230966$GNGGA,130728.40,3611.0547892,N,07544.9770397,W,1,24,0.6,1.101,M,-39.961,M,0.0,*6B
###2023-11-09 13:07:28.233539$GPGSV,2,1,07,05,21,090,41,10,18,292,43,13,24,045,42,15,62,037,45*77
###2023-11-09 13:07:28.235780$GPGSV,2,2,07,18,77,281,47,23,50,315,45,24,49,136,46,,,,*40
###2023-11-09 13:07:28.238364$GLGSV,2,1,05,70,50,016,35,71,48,288,47,80,17,091,43,85,58,203,48*67
###2023-11-09 13:07:28.239973$GLGSV,2,2,05,86,52,309,47,,,,,,,,,,,,*50
###2023-11-09 13:07:28.242531$GAGSV,1,1,04,07,72,257,45,08,49,042,44,13,64,160,44,26,56,310,45*6F
###2023-11-09 13:07:28.245093$GBGSV,2,1,06,11,24,180,41,14,65,006,45,24,19,133,43,26,23,082,43*65
###2023-11-09 13:07:28.247033$GBGSV,2,2,06,28,43,289,47,33,58,302,47,,,,,,,,*6F
###2023-11-09 13:07:28.248452$GNVTG,18.47,T,,M,0.45,N,0.83,K,A*13
###2023-11-09 13:07:28.334594$GNGGA,130728.50,3611.0547951,N,07544.9770289,W,1,24,0.6,1.100,M,-39.961,M,0.0,*6B
###2023-11-09 13:07:28.337197$GPGSV,2,1,07,05,21,090,41,10,18,292,43,13,24,045,42,15,62,037,45*77
###2023-11-09 13:07:28.339453$GPGSV,2,2,07,18,77,281,47,23,50,315,45,24,49,136,46,,,,*40
###2023-11-09 13:07:28.342019$GLGSV,2,1,05,70,50,016,35,71,48,288,48,80,17,091,43,85,58,203,48*68
###2023-11-09 13:07:28.343628$GLGSV,2,2,05,86,52,309,47,,,,,,,,,,,,*50
###2023-11-09 13:07:28.346211$GAGSV,1,1,04,07,72,257,45,08,49,042,44,13,64,160,44,26,56,310,45*6F
###2023-11-09 13:07:28.348823$GBGSV,2,1,06,11,24,180,41,14,65,006,45,24,19,133,44,26,23,082,43*62
###2023-11-09 13:07:28.350775$GBGSV,2,2,06,28,43,289,48,33,58,302,47,,,,,,,,*60
###2023-11-09 13:07:28.352206$GNVTG,18.47,T,,M,0.37,N,0.68,K,A*13
###2023-11-09 13:07:28.431714$GNGGA,130728.60,3611.0547997,N,07544.9770201,W,1,24,0.6,1.106,M,-39.961,M,0.0,*64
###2023-11-09 13:07:28.434305$GPGSV,2,1,07,05,21,090,41,10,18,292,43,13,24,045,42,15,62,037,45*77
###2023-11-09 13:07:28.436567$GPGSV,2,2,07,18,77,281,47,23,50,315,46,24,49,136,46,,,,*43
###2023-11-09 13:07:28.439149$GLGSV,2,1,05,70,50,016,35,71,48,288,48,80,17,091,43,85,58,203,48*68
###2023-11-09 13:07:28.440766$GLGSV,2,2,05,86,52,309,47,,,,,,,,,,,,*50
###2023-11-09 13:07:28.443329$GAGSV,1,1,04,07,72,257,45,08,49,042,44,13,64,160,44,26,56,310,45*6F
###2023-11-09 13:07:28.445892$GBGSV,2,1,06,11,24,180,41,14,65,006,45,24,19,133,44,26,23,082,43*62
###2023-11-09 13:07:28.447830$GBGSV,2,2,06,28,43,289,48,33,58,302,47,,,,,,,,*60
###2023-11-09 13:07:28.449254$GNVTG,18.47,T,,M,0.29,N,0.54,K,A*13
###2023-11-09 13:07:28.530944$GNGGA,130728.70,3611.0548029,N,07544.9770124,W,1,24,0.6,1.129,M,-39.961,M,0.0,*6F
###2023-11-09 13:07:28.533519$GPGSV,2,1,07,05,21,090,41,10,18,292,43,13,24,045,42,15,62,037,45*77
###2023-11-09 13:07:28.535760$GPGSV,2,2,07,18,77,281,47,23,50,315,46,24,49,136,46,,,,*43
###2023-11-09 13:07:28.538333$GLGSV,2,1,05,70,50,016,35,71,48,288,48,80,17,091,44,85,58,203,48*6F
###2023-11-09 13:07:28.539933$GLGSV,2,2,05,86,52,309,47,,,,,,,,,,,,*50
###2023-11-09 13:07:28.542489$GAGSV,1,1,04,07,72,257,45,08,49,042,44,13,64,160,43,26,56,310,45*68
###2023-11-09 13:07:28.545045$GBGSV,2,1,06,11,24,180,41,14,65,006,45,24,19,133,44,26,23,082,43*62
###2023-11-09 13:07:28.546984$GBGSV,2,2,06,28,43,289,47,33,58,302,47,,,,,,,,*6F
###2023-11-09 13:07:28.548411$GNVTG,18.47,T,,M,0.25,N,0.47,K,A*1D
###2023-11-09 13:07:28.630861$GNGGA,130728.80,3611.0548076,N,07544.9770074,W,1,24,0.6,1.151,M,-39.961,M,0.0,*61
###2023-11-09 13:07:28.633468$GPGSV,2,1,07,05,21,090,41,10,18,292,43,13,24,045,42,15,62,037,45*77
###2023-11-09 13:07:28.635727$GPGSV,2,2,07,18,77,281,47,23,50,315,46,24,49,136,46,,,,*43
###2023-11-09 13:07:28.638331$GLGSV,2,1,05,70,50,016,35,71,48,288,48,80,17,091,44,85,58,203,48*6F
###2023-11-09 13:07:28.639948$GLGSV,2,2,05,86,52,309,48,,,,,,,,,,,,*5F
###2023-11-09 13:07:28.642528$GAGSV,1,1,04,07,72,257,45,08,49,042,44,13,64,160,43,26,56,310,45*68
###2023-11-09 13:07:28.645115$GBGSV,2,1,06,11,24,180,41,14,65,006,45,24,19,133,44,26,23,082,43*62
###2023-11-09 13:07:28.647074$GBGSV,2,2,06,28,43,289,47,33,58,302,48,,,,,,,,*60
###2023-11-09 13:07:28.648504$GNVTG,18.47,T,,M,0.27,N,0.50,K,A*19
###2023-11-09 13:07:28.731993$GNGGA,130728.90,3611.0548147,N,07544.9770049,W,1,24,0.6,1.171,M,-39.961,M,0.0,*6F
###2023-11-09 13:07:28.734583$GPGSV,2,1,07,05,21,090,41,10,18,292,43,13,24,045,42,15,62,037,45*77
###2023-11-09 13:07:28.736843$GPGSV,2,2,07,18,77,281,47,23,50,315,46,24,49,136,46,,,,*43
###2023-11-09 13:07:28.739434$GLGSV,2,1,05,70,50,016,35,71,48,288,48,80,17,091,44,85,58,203,48*6F
###2023-11-09 13:07:28.741040$GLGSV,2,2,05,86,52,309,48,,,,,,,,,,,,*5F
###2023-11-09 13:07:28.743607$GAGSV,1,1,04,07,72,257,45,08,49,042,44,13,64,160,43,26,56,310,45*68
###2023-11-09 13:07:28.746185$GBGSV,2,1,06,11,24,180,41,14,65,006,45,24,19,133,44,26,23,082,43*62
###2023-11-09 13:07:28.748132$GBGSV,2,2,06,28,43,289,47,33,58,302,48,,,,,,,,*60
###2023-11-09 13:07:28.749553$GNVTG,18.47,T,,M,0.31,N,0.58,K,A*16
###2023-11-09 13:07:28.831839$GNGGA,130729.00,3611.0548243,N,07544.9770038,W,1,24,0.6,1.190,M,-39.961,M,0.0,*69
###2023-11-09 13:07:28.834428$GPGSV,2,1,07,05,21,090,41,10,18,292,43,13,24,045,42,15,62,037,45*77
###2023-11-09 13:07:28.836681$GPGSV,2,2,07,18,77,281,47,23,50,315,46,24,49,136,46,,,,*43
###2023-11-09 13:07:28.839268$GLGSV,2,1,05,70,50,016,35,71,48,288,48,80,17,091,44,85,58,203,48*6F
###2023-11-09 13:07:28.840871$GLGSV,2,2,05,86,52,309,48,,,,,,,,,,,,*5F
###2023-11-09 13:07:28.843425$GAGSV,1,1,04,07,72,257,45,08,49,042,44,13,64,160,44,26,56,310,45*6F
###2023-11-09 13:07:28.845989$GBGSV,2,1,06,11,24,180,41,14,65,006,45,24,19,133,44,26,23,082,43*62
###2023-11-09 13:07:28.847922$GBGSV,2,2,06,28,43,289,47,33,58,302,48,,,,,,,,*60
###2023-11-09 13:07:28.849344$GNVTG,18.47,T,,M,0.45,N,0.83,K,A*13
###2023-11-09 13:07:28.931864$GNGGA,130729.10,3611.0548366,N,07544.9770033,W,1,24,0.6,1.204,M,-39.961,M,0.0,*6B
###2023-11-09 13:07:28.934470$GPGSV,2,1,07,05,21,090,41,10,18,292,43,13,24,045,42,15,62,037,45*77
###2023-11-09 13:07:28.936727$GPGSV,2,2,07,18,77,281,47,23,50,315,46,24,49,136,46,,,,*43
###2023-11-09 13:07:28.939320$GLGSV,2,1,05,70,50,016,35,71,48,288,48,80,17,091,44,85,58,203,48*6F
###2023-11-09 13:07:28.940934$GLGSV,2,2,05,86,52,309,47,,,,,,,,,,,,*50
###2023-11-09 13:07:28.943496$GAGSV,1,1,04,07,72,257,45,08,49,042,44,13,64,160,43,26,56,310,45*68
###2023-11-09 13:07:28.946080$GBGSV,2,1,06,11,24,180,41,14,65,006,45,24,19,133,44,26,23,082,43*62
###2023-11-09 13:07:28.948017$GBGSV,2,2,06,28,43,289,47,33,58,302,48,,,,,,,,*60
###2023-11-09 13:07:28.949443$GNVTG,18.47,T,,M,0.49,N,0.90,K,A*1D
###2023-11-09 13:07:29.033012$GNGGA,130729.20,3611.0548511,N,07544.9770033,W,1,24,0.6,1.211,M,-39.961,M,0.0,*6A
###2023-11-09 13:07:29.035627$GPGSV,2,1,07,05,21,090,41,10,18,292,42,13,24,045,42,15,62,037,45*76
###2023-11-09 13:07:29.037917$GPGSV,2,2,07,18,77,281,47,23,50,315,46,24,49,136,46,,,,*43
###2023-11-09 13:07:29.040514$GLGSV,2,1,05,70,50,016,35,71,48,288,48,80,17,091,44,85,58,203,48*6F
###2023-11-09 13:07:29.042129$GLGSV,2,2,05,86,52,309,47,,,,,,,,,,,,*50
###2023-11-09 13:07:29.044706$GAGSV,1,1,04,07,72,257,45,08,49,042,44,13,64,160,43,26,56,310,45*68
###2023-11-09 13:07:29.047305$GBGSV,2,1,06,11,24,180,41,14,65,006,45,24,19,133,44,26,23,082,43*62
###2023-11-09 13:07:29.049249$GBGSV,2,2,06,28,43,289,47,33,58,302,47,,,,,,,,*6F
###2023-11-09 13:07:29.050679$GNVTG,18.47,T,,M,0.60,N,1.12,K,A*1D
###2023-11-09 13:07:29.130977$GNGGA,130729.30,3611.0548681,N,07544.9770034,W,1,24,0.6,1.214,M,-39.961,M,0.0,*63
###2023-11-09 13:07:29.133870$GPGSV,2,1,07,05,21,090,41,10,18,292,42,13,24,045,42,15,62,037,45*76
###2023-11-09 13:07:29.136135$GPGSV,2,2,07,18,77,281,47,23,50,315,46,24,49,136,46,,,,*43
###2023-11-09 13:07:29.138726$GLGSV,2,1,05,70,50,016,35,71,48,288,48,80,17,091,43,85,58,203,48*68
###2023-11-09 13:07:29.140336$GLGSV,2,2,05,86,52,309,47,,,,,,,,,,,,*50
###2023-11-09 13:07:29.142903$GAGSV,1,1,04,07,72,257,45,08,49,042,44,13,64,160,44,26,56,310,45*6F
###2023-11-09 13:07:29.145472$GBGSV,2,1,06,11,24,180,41,14,65,006,45,24,19,133,44,26,23,082,43*62
###2023-11-09 13:07:29.147419$GBGSV,2,2,06,28,43,289,47,33,58,302,47,,,,,,,,*6F
###2023-11-09 13:07:29.148846$GNVTG,18.47,T,,M,0.66,N,1.22,K,A*18
###2023-11-09 13:07:29.234622$GNGGA,130729.40,3611.0548850,N,07544.9770039,W,1,24,0.6,1.215,M,-39.961,M,0.0,*6A
