###2023-11-09 13:05:57.346228$GBGSV,2,1,06,11,24,180,40,14,65,006,46,24,19,133,42,26,23,082,41*64
###2023-11-09 13:05:57.348206$GBGSV,2,2,06,28,43,289,47,33,58,302,47,,,,,,,,*6F
###2023-11-09 13:05:57.349649$GNVTG,27.79,T,,M,0.64,N,1.19,K,A*13
###2023-11-09 13:05:57.431119$GNGGA,130557.60,3611.0378837,N,07544.9854987,W,1,24,0.6,0.843,M,-39.962,M,0.0,*69
###2023-11-09 13:05:57.433740$GPGSV,2,1,07,05,21,089,40,10,17,292,44,13,25,045,42,15,62,036,46*75
###2023-11-09 13:05:57.436006$GPGSV,2,2,07,18,77,285,47,23,49,314,45,24,49,137,45,,,,*4F
###2023-11-09 13:05:57.438642$GLGSV,2,1,05,70,50,016,35,71,47,286,49,80,17,092,44,85,59,204,48*6A
###2023-11-09 13:05:57.440265$GLGSV,2,2,05,86,52,311,47,,,,,,,,,,,,*59
###2023-11-09 13:05:57.442838$GAGSV,1,1,04,07,72,255,45,08,49,042,45,13,64,160,45,26,56,311,45*6C
###2023-11-09 13:05:57.445433$GBGSV,2,1,06,11,24,180,40,14,65,006,46,24,19,133,42,26,23,082,41*64
###2023-11-09 13:05:57.447404$GBGSV,2,2,06,28,43,289,47,33,58,302,47,,,,,,,,*6F
###2023-11-09 13:05:57.448850$GNVTG,27.79,T,,M,0.78,N,1.44,K,A*16
###2023-11-09 13:05:57.533100$GNGGA,130557.70,3611.0378978,N,07544.9854735,W,1,24,0.6,0.810,M,-39.962,M,0.0,*63
###2023-11-09 13:05:57.535688$GPGSV,2,1,07,05,21,089,40,10,17,292,44,13,25,045,42,15,62,036,46*75
###2023-11-09 13:05:57.537960$GPGSV,2,2,07,18,77,285,47,23,49,314,45,24,49,137,45,,,,*4F
###2023-11-09 13:05:57.540540$GLGSV,2,1,05,70,50,016,35,71,47,286,49,80,17,092,44,85,59,204,49*6B
###2023-11-09 13:05:57.542155$GLGSV,2,2,05,86,52,311,47,,,,,,,,,,,,*59
###2023-11-09 13:05:57.544724$GAGSV,1,1,04,07,72,255,45,08,49,042,45,13,64,160,45,26,56,311,45*6C
###2023-11-09 13:05:57.547326$GBGSV,2,1,06,11,24,180,41,14,65,006,45,24,19,133,42,26,23,082,41*66
###2023-11-09 13:05:57.549272$GBGSV,2,2,06,28,43,289,47,33,58,302,47,,,,,,,,*6F
###2023-11-09 13:05:57.550705$GNVTG,55.02,T,,M,1.01,N,1.87,K,A*1F
###2023-11-09 13:05:57.632111$GNGGA,130557.80,3611.0379158,N,07544.9854409,W,1,24,0.6,0.790,M,-39.962,M,0.0,*6C
###2023-11-09 13:05:57.634697$GPGSV,2,1,07,05,21,089,40,10,17,292,44,13,25,045,42,15,62,036,46*75
###2023-11-09 13:05:57.636967$GPGSV,2,2,07,18,77,285,47,23,49,314,46,24,49,137,45,,,,*4C
###2023-11-09 13:05:57.639539$GLGSV,2,1,05,70,50,016,35,71,47,286,49,80,17,092,43,85,59,204,48*6D
###2023-11-09 13:05:57.641148$GLGSV,2,2,05,86,52,311,48,,,,,,,,,,,,*56
###2023-11-09 13:05:57.643705$GAGSV,1,1,04,07,72,255,45,08,49,042,44,13,64,160,45,26,56,311,45*6D
###2023-11-09 13:05:57.646274$GBGSV,2,1,06,11,24,180,41,14,65,006,45,24,19,133,42,26,23,082,42*65
###2023-11-09 13:05:57.648215$GBGSV,2,2,06,28,43,289,47,33,58,302,47,,,,,,,,*6F
###2023-11-09 13:05:57.649641$GNVTG,55.25,T,,M,1.30,N,2.41,K,A*11
###2023-11-09 13:05:57.732247$GNGGA,130557.90,3611.0379367,N,07544.9854027,W,1,24,0.6,0.777,M,-39.962,M,0.0,*62
###2023-11-09 13:05:57.734841$GPGSV,2,1,07,05,21,089,41,10,17,292,44,13,25,045,42,15,62,036,46*74
###2023-11-09 13:05:57.737112$GPGSV,2,2,07,18,77,285,47,23,49,314,46,24,49,137,45,,,,*4C
###2023-11-09 13:05:57.739698$GLGSV,2,1,05,70,50,016,35,71,47,286,49,80,17,092,43,85,59,204,48*6D
###2023-11-09 13:05:57.741314$GLGSV,2,2,05,86,52,311,47,,,,,,,,,,,,*59
###2023-11-09 13:05:57.743881$GAGSV,1,1,04,07,72,255,45,08,49,042,44,13,64,160,44,26,56,311,45*6C
###2023-11-09 13:05:57.746473$GBGSV,2,1,06,11,24,180,41,14,65,006,45,24,19,133,42,26,23,082,42*65
###2023-11-09 13:05:57.748437$GBGSV,2,2,06,28,43,289,47,33,58,302,47,,,,,,,,*6F
###2023-11-09 13:05:57.749875$GNVTG,55.63,T,,M,1.42,N,2.63,K,A*16
###2023-11-09 13:05:57.837773$GNGGA,130558.00,3611.0379595,N,07544.9853619,W,1,24,0.6,0.763,M,-39.962,M,0.0,*66
###2023-11-09 13:05:57.840367$GPGSV,2,1,07,05,21,089,41,10,17,292,44,13,25,045,42,15,62,036,46*74
###2023-11-09 13:05:57.842625$GPGSV,2,2,07,18,77,285,47,23,49,314,45,24,49,137,45,,,,*4F
###2023-11-09 13:05:57.845199$GLGSV,2,1,05,70,50,016,35,71,47,286,48,80,17,092,43,85,59,204,48*6C
###2023-11-09 13:05:57.846809$GLGSV,2,2,05,86,52,311,47,,,,,,,,,,,,*59
###2023-11-09 13:05:57.849389$GAGSV,1,1,04,07,72,255,45,08,49,042,44,13,64,160,44,26,56,311,45*6C
###2023-11-09 13:05:57.851973$GBGSV,2,1,06,11,24,180,41,14,65,006,45,24,19,133,40,26,23,082,42*67
###2023-11-09 13:05:57.853915$GBGSV,2,2,06,28,43,289,47,33,58,302,47,,,,,,,,*6F
###2023-11-09 13:05:57.855344$GNVTG,54.73,T,,M,1.50,N,2.77,K,A*10
###2023-11-09 13:05:57.936244$GNGGA,130558.10,3611.0379803,N,07544.9853219,W,1,24,0.6,0.744,M,-39.962,M,0.0,*64
###2023-11-09 13:05:57.938831$GPGSV,2,1,07,05,21,089,41,10,17,292,44,13,25,045,42,15,62,036,46*74
###2023-11-09 13:05:57.941067$GPGSV,2,2,07,18,77,285,47,23,49,314,45,24,49,137,45,,,,*4F
###2023-11-09 13:05:57.943630$GLGSV,2,1,05,70,50,016,35,71,48,288,48,80,17,092,43,85,59,204,48*6D
###2023-11-09 13:05:57.945246$GLGSV,2,2,05,86,52,311,47,,,,,,,,,,,,*59
###2023-11-09 13:05:57.947818$GAGSV,1,1,04,07,72,255,45,08,49,042,44,13,64,160,45,26,56,311,45*6D
###2023-11-09 13:05:57.950416$GBGSV,2,1,06,11,24,180,41,14,65,006,45,24,19,133,40,26,23,082,43*66
###2023-11-09 13:05:57.952371$GBGSV,2,2,06,28,43,289,47,33,58,302,47,,,,,,,,*6F
###2023-11-09 13:05:57.953805$GNVTG,59.47,T,,M,1.30,N,2.41,K,A*19
###2023-11-09 13:05:58.033872$GNGGA,130558.20,3611.0379956,N,07544.9852845,W,1,24,0.6,0.723,M,-39.962,M,0.0,*65
###2023-11-09 13:05:58.036475$GPGSV,2,1,07,05,21,089,41,10,17,292,44,13,25,045,42,15,62,036,47*75
###2023-11-09 13:05:58.038760$GPGSV,2,2,07,18,77,285,47,23,49,314,45,24,49,137,45,,,,*4F
###2023-11-09 13:05:58.041355$GLGSV,2,1,05,70,50,016,35,71,48,288,48,80,17,092,44,85,59,204,48*6A
###2023-11-09 13:05:58.042987$GLGSV,2,2,05,86,52,311,47,,,,,,,,,,,,*59
###2023-11-09 13:05:58.045562$GAGSV,1,1,04,07,72,255,45,08,49,042,45,13,64,160,45,26,56,311,45*6C
###2023-11-09 13:05:58.048164$GBGSV,2,1,06,11,24,180,41,14,65,006,45,24,19,133,40,26,23,082,43*66
###2023-11-09 13:05:58.050112$GBGSV,2,2,06,28,43,289,47,33,58,302,47,,,,,,,,*6F
###2023-11-09 13:05:58.051540$GNVTG,66.67,T,,M,1.17,N,2.16,K,A*10
###2023-11-09 13:05:58.133872$GNGGA,130558.30,3611.0380046,N,07544.9852477,W,1,24,0.6,0.705,M,-39.962,M,0.0,*63
###2023-11-09 13:05:58.136463$GPGSV,2,1,07,05,21,089,41,10,17,292,44,13,25,045,42,15,62,036,47*75
###2023-11-09 13:05:58.138738$GPGSV,2,2,07,18,77,285,47,23,49,314,45,24,49,137,45,,,,*4F
###2023-11-09 13:05:58.141320$GLGSV,2,1,05,70,50,016,35,71,48,288,48,80,17,092,44,85,59,204,48*6A
###2023-11-09 13:05:58.142920$GLGSV,2,2,05,86,52,311,47,,,,,,,,,,,,*59
###2023-11-09 13:05:58.145488$GAGSV,1,1,04,07,72,255,45,08,49,042,45,13,64,160,45,26,56,311,45*6C
###2023-11-09 13:05:58.148073$GBGSV,2,1,06,11,24,180,39,14,65,006,45,24,19,133,41,26,23,082,43*68
###2023-11-09 13:05:58.150008$GBGSV,2,2,06,28,43,289,47,33,58,302,47,,,,,,,,*6F
###2023-11-09 13:05:58.151432$GNVTG,75.89,T,,M,1.07,N,1.98,K,A*16
###2023-11-09 13:05:58.232349$GNGGA,130558.40,3611.0380105,N,07544.9852108,W,1,24,0.6,0.696,M,-39.962,M,0.0,*64
###2023-11-09 13:05:58.234915$GPGSV,2,1,07,05,21,089,41,10,17,292,44,13,25,045,42,15,62,036,46*74
###2023-11-09 13:05:58.237168$GPGSV,2,2,07,18,77,285,47,23,49,314,45,24,49,137,45,,,,*4F
###2023-11-09 13:05:58.239728$GLGSV,2,1,05,70,50,016,35,71,48,288,48,80,17,092,44,85,59,204,48*6A
###2023-11-09 13:05:58.241324$GLGSV,2,2,05,86,52,311,47,,,,,,,,,,,,*59
###2023-11-09 13:05:58.243867$GAGSV,1,1,04,07,72,255,45,08,49,042,45,13,64,160,45,26,56,311,45*6C
###2023-11-09 13:05:58.246417$GBGSV,2,1,06,11,24,180,39,14,65,006,45,24,19,133,42,26,23,082,43*6B
###2023-11-09 13:05:58.248355$GBGSV,2,2,06,28,43,289,47,33,58,302,47,,,,,,,,*6F
###2023-11-09 13:05:58.249782$GNVTG,77.40,T,,M,1.09,N,2.02,K,A*1F
###2023-11-09 13:05:58.331136$GNGGA,130558.50,3611.0380172,N,07544.9851696,W,1,24,0.6,0.695,M,-39.962,M,0.0,*65
###2023-11-09 13:05:58.333745$GPGSV,2,1,07,05,21,089,41,10,17,292,44,13,25,045,40,15,62,036,46*76
###2023-11-09 13:05:58.336001$GPGSV,2,2,07,18,77,285,47,23,49,314,46,24,49,137,45,,,,*4C
###2023-11-09 13:05:58.338583$GLGSV,2,1,05,70,50,016,35,71,48,288,49,80,17,092,44,85,59,204,48*6B
###2023-11-09 13:05:58.340179$GLGSV,2,2,05,86,52,311,47,,,,,,,,,,,,*59
###2023-11-09 13:05:58.342750$GAGSV,1,1,04,07,72,255,45,08,49,042,45,13,64,160,45,26,56,311,45*6C
###2023-11-09 13:05:58.345321$GBGSV,2,1,06,11,24,180,40,14,65,006,45,24,19,133,42,26,23,082,42*64
###2023-11-09 13:05:58.347583$GBGSV,2,2,06,28,43,289,47,33,58,302,47,,,,,,,,*6F
###2023-11-09 13:05:58.349024$GNVTG,76.62,T,,M,1.32,N,2.45,K,A*15
###2023-11-09 13:05:58.433118$GNGGA,130558.60,3611.0380280,N,07544.9851208,W,1,24,0.6,0.700,M,-39.962,M,0.0,*66
###2023-11-09 13:05:58.435701$GPGSV,2,1,07,05,21,089,41,10,17,292,44,13,25,045,40,15,62,036,46*76
###2023-11-09 13:05:58.437971$GPGSV,2,2,07,18,77,285,47,23,49,314,46,24,49,137,45,,,,*4C
###2023-11-09 13:05:58.440554$GLGSV,2,1,05,70,50,016,35,71,48,288,49,80,17,092,44,85,59,204,49*6A
###2023-11-09 13:05:58.442166$GLGSV,2,2,05,86,52,311,47,,,,,,,,,,,,*59
###2023-11-09 13:05:58.444736$GAGSV,1,1,04,07,72,255,45,08,49,042,44,13,64,160,45,26,56,311,45*6D
###2023-11-09 13:05:58.447346$GBGSV,2,1,06,11,24,180,40,14,65,006,45,24,19,133,42,26,23,082,40*66
