###2023-11-09 13:10:23.143148$GAGSV,1,1,04,07,73,259,45,08,48,043,44,13,63,161,45,26,57,310,45*66
###2023-11-09 13:10:23.145733$GBGSV,2,1,06,11,22,180,41,14,65,009,45,24,21,132,43,26,23,080,44*63
###2023-11-09 13:10:23.147704$GBGSV,2,2,06,28,43,286,46,33,59,305,47,,,,,,,,*67
###2023-11-09 13:10:23.149134$GNVTG,45.04,T,,M,4.45,N,8.24,K,A*1D
###2023-11-09 13:10:23.231264$GNGGA,131023.40,3611.0525805,N,07544.8701443,W,1,24,0.6,0.537,M,-39.961,M,0.0,*65
###2023-11-09 13:10:23.233856$GPGSV,2,1,07,05,20,091,42,10,19,294,44,13,24,045,40,15,61,037,46*76
###2023-11-09 13:10:23.236111$GPGSV,2,2,07,18,78,277,47,23,50,316,45,24,50,134,45,,,,*4C
###2023-11-09 13:10:23.238702$GLGSV,2,1,05,70,49,019,36,71,48,291,49,80,19,089,44,85,56,202,49*6B
###2023-11-09 13:10:23.240309$GLGSV,2,2,05,86,54,306,48,,,,,,,,,,,,*56
###2023-11-09 13:10:23.242879$GAGSV,1,1,04,07,73,259,45,08,48,043,44,13,63,161,45,26,57,310,45*66
###2023-11-09 13:10:23.245456$GBGSV,2,1,06,11,22,180,41,14,65,009,46,24,21,132,43,26,23,080,43*67
###2023-11-09 13:10:23.247418$GBGSV,2,2,06,28,43,286,46,33,59,305,47,,,,,,,,*67
###2023-11-09 13:10:23.248847$GNVTG,46.56,T,,M,4.41,N,8.17,K,A*1D
###2023-11-09 13:10:23.330978$GNGGA,131023.50,3611.0526641,N,07544.8700350,W,1,24,0.6,0.561,M,-39.961,M,0.0,*6E
###2023-11-09 13:10:23.333572$GPGSV,2,1,07,05,20,091,42,10,19,294,44,13,24,045,40,15,61,037,46*76
###2023-11-09 13:10:23.335829$GPGSV,2,2,07,18,78,277,47,23,50,316,45,24,50,134,45,,,,*4C
###2023-11-09 13:10:23.338468$GLGSV,2,1,05,70,49,019,36,71,48,291,49,80,19,089,44,85,56,202,49*6B
###2023-11-09 13:10:23.340082$GLGSV,2,2,05,86,54,306,48,,,,,,,,,,,,*56
###2023-11-09 13:10:23.342644$GAGSV,1,1,04,07,73,259,45,08,48,043,44,13,63,161,45,26,57,310,45*66
###2023-11-09 13:10:23.345219$GBGSV,2,1,06,11,22,180,41,14,65,009,45,24,21,132,43,26,23,080,43*64
###2023-11-09 13:10:23.347168$GBGSV,2,2,06,28,43,286,46,33,59,305,47,,,,,,,,*67
###2023-11-09 13:10:23.348599$GNVTG,47.25,T,,M,4.37,N,8.10,K,A*1E
###2023-11-09 13:10:23.430841$GNGGA,131023.60,3611.0527481,N,07544.8699261,W,1,24,0.6,0.581,M,-39.961,M,0.0,*6E
###2023-11-09 13:10:23.433420$GPGSV,2,1,07,05,20,091,42,10,19,294,43,13,24,045,40,15,61,037,46*71
###2023-11-09 13:10:23.435666$GPGSV,2,2,07,18,78,277,47,23,50,316,45,24,50,134,45,,,,*4C
###2023-11-09 13:10:23.438243$GLGSV,2,1,05,70,49,019,36,71,48,291,49,80,19,089,44,85,56,202,49*6B
###2023-11-09 13:10:23.439840$GLGSV,2,2,05,86,54,306,48,,,,,,,,,,,,*56
###2023-11-09 13:10:23.442399$GAGSV,1,1,04,07,73,259,45,08,48,043,44,13,63,161,45,26,57,310,45*66
###2023-11-09 13:10:23.444963$GBGSV,2,1,06,11,22,180,41,14,65,009,45,24,21,132,43,26,23,080,43*64
###2023-11-09 13:10:23.446895$GBGSV,2,2,06,28,43,286,46,33,59,305,47,,,,,,,,*67
###2023-11-09 13:10:23.448324$GNVTG,46.02,T,,M,4.41,N,8.17,K,A*1C
###2023-11-09 13:10:23.531488$GNGGA,131023.70,3611.0528345,N,07544.8698217,W,1,24,0.6,0.601,M,-39.961,M,0.0,*64
###2023-11-09 13:10:23.534087$GPGSV,2,1,07,05,20,091,43,10,19,294,43,13,24,045,41,15,61,037,46*71
###2023-11-09 13:10:23.536338$GPGSV,2,2,07,18,78,277,47,23,50,316,44,24,50,134,45,,,,*4D
###2023-11-09 13:10:23.538934$GLGSV,2,1,05,70,49,019,36,71,48,291,49,80,19,089,44,85,56,202,50*63
###2023-11-09 13:10:23.540547$GLGSV,2,2,05,86,54,306,48,,,,,,,,,,,,*56
###2023-11-09 13:10:23.543125$GAGSV,1,1,04,07,73,259,46,08,48,043,44,13,63,161,45,26,57,310,45*65
###2023-11-09 13:10:23.545714$GBGSV,2,1,06,11,22,180,41,14,65,009,45,24,21,132,43,26,23,080,43*64
###2023-11-09 13:10:23.547665$GBGSV,2,2,06,28,43,286,46,33,59,305,47,,,,,,,,*67
###2023-11-09 13:10:23.549102$GNVTG,43.21,T,,M,4.32,N,7.99,K,A*15
###2023-11-09 13:10:23.631230$GNGGA,131023.80,3611.0529249,N,07544.8697260,W,1,24,0.6,0.612,M,-39.961,M,0.0,*6A
###2023-11-09 13:10:23.633811$GPGSV,2,1,07,05,20,091,43,10,19,294,42,13,24,045,41,15,61,037,46*70
###2023-11-09 13:10:23.636063$GPGSV,2,2,07,18,78,277,47,23,50,316,44,24,50,134,46,,,,*4E
###2023-11-09 13:10:23.638652$GLGSV,2,1,05,70,49,019,36,71,48,291,49,80,19,089,44,85,56,202,49*6B
###2023-11-09 13:10:23.640257$GLGSV,2,2,05,86,54,306,48,,,,,,,,,,,,*56
###2023-11-09 13:10:23.642829$GAGSV,1,1,04,07,73,259,45,08,48,043,44,13,63,161,45,26,57,310,44*67
###2023-11-09 13:10:23.645406$GBGSV,2,1,06,11,22,180,41,14,65,009,45,24,21,132,44,26,23,080,43*63
###2023-11-09 13:10:23.647356$GBGSV,2,2,06,28,43,286,47,33,59,305,47,,,,,,,,*66
###2023-11-09 13:10:23.648783$GNVTG,38.68,T,,M,4.30,N,7.96,K,A*19
###2023-11-09 13:10:23.730336$GNGGA,131023.90,3611.0530187,N,07544.8696377,W,1,24,0.6,0.630,M,-39.960,M,0.0,*65
###2023-11-09 13:10:23.732902$GPGSV,2,1,07,05,20,091,43,10,19,294,43,13,24,045,41,15,61,037,46*71
###2023-11-09 13:10:23.735132$GPGSV,2,2,07,18,78,277,47,23,50,316,44,24,50,134,46,,,,*4E
###2023-11-09 13:10:23.737821$GLGSV,2,1,05,70,49,019,36,71,48,291,49,80,19,089,45,85,56,202,49*6A
###2023-11-09 13:10:23.739418$GLGSV,2,2,05,86,54,306,48,,,,,,,,,,,,*56
###2023-11-09 13:10:23.741962$GAGSV,1,1,04,07,73,259,45,08,48,043,44,13,63,161,45,26,57,310,44*67
###2023-11-09 13:10:23.744523$GBGSV,2,1,06,11,22,180,41,14,65,009,45,24,21,132,43,26,23,080,43*64
###2023-11-09 13:10:23.746447$GBGSV,2,2,06,28,43,286,47,33,59,305,47,,,,,,,,*66
###2023-11-09 13:10:23.747877$GNVTG,36.39,T,,M,4.22,N,7.81,K,A*16
###2023-11-09 13:10:23.838143$GNGGA,131024.00,3611.0531137,N,07544.8695548,W,1,24,0.6,0.639,M,-39.960,M,0.0,*61
###2023-11-09 13:10:23.840750$GPGSV,2,1,07,05,20,091,43,10,19,294,42,13,24,045,41,15,61,037,46*70
###2023-11-09 13:10:23.842997$GPGSV,2,2,07,18,78,277,47,23,50,316,45,24,50,134,46,,,,*4F
###2023-11-09 13:10:23.845568$GLGSV,2,1,05,70,49,019,36,71,48,291,49,80,19,089,45,85,56,202,49*6A
###2023-11-09 13:10:23.847213$GLGSV,2,2,05,86,54,306,48,,,,,,,,,,,,*56
###2023-11-09 13:10:23.849779$GAGSV,1,1,04,07,73,259,45,08,48,043,44,13,63,161,45,26,57,310,44*67
###2023-11-09 13:10:23.852349$GBGSV,2,1,06,11,22,180,41,14,65,009,45,24,21,132,43,26,23,080,43*64
###2023-11-09 13:10:23.854279$GBGSV,2,2,06,28,43,286,48,33,59,305,47,,,,,,,,*69
###2023-11-09 13:10:23.855702$GNVTG,34.95,T,,M,4.18,N,7.74,K,A*11
###2023-11-09 13:10:23.938377$GNGGA,131024.10,3611.0532077,N,07544.8694741,W,1,24,0.6,0.638,M,-39.960,M,0.0,*6D
###2023-11-09 13:10:23.940958$GPGSV,2,1,07,05,20,091,43,10,19,294,42,13,23,045,41,15,61,037,46*77
###2023-11-09 13:10:23.943212$GPGSV,2,2,07,18,78,277,46,23,50,316,45,24,50,134,46,,,,*4E
###2023-11-09 13:10:23.945786$GLGSV,2,1,05,70,49,019,36,71,48,291,49,80,19,089,45,85,56,202,49*6A
###2023-11-09 13:10:23.947402$GLGSV,2,2,05,86,54,306,48,,,,,,,,,,,,*56
###2023-11-09 13:10:23.949974$GAGSV,1,1,04,07,73,259,45,08,48,043,44,13,63,161,45,26,57,310,44*67
###2023-11-09 13:10:23.952560$GBGSV,2,1,06,11,22,180,40,14,65,009,45,24,21,132,43,26,23,080,43*65
###2023-11-09 13:10:23.954500$GBGSV,2,2,06,28,43,286,47,33,59,305,47,,,,,,,,*66
###2023-11-09 13:10:23.955927$GNVTG,35.62,T,,M,4.10,N,7.60,K,A*15
###2023-11-09 13:10:24.033211$GNGGA,131024.20,3611.0533012,N,07544.8693948,W,1,24,0.6,0.633,M,-39.960,M,0.0,*67
###2023-11-09 13:10:24.035777$GPGSV,2,1,07,05,20,091,43,10,19,294,42,13,23,045,41,15,61,037,46*77
###2023-11-09 13:10:24.038032$GPGSV,2,2,07,18,78,277,46,23,50,316,45,24,50,134,46,,,,*4E
###2023-11-09 13:10:24.040594$GLGSV,2,1,05,70,49,019,36,71,48,291,49,80,19,089,45,85,56,202,50*62
###2023-11-09 13:10:24.042190$GLGSV,2,2,05,86,54,306,48,,,,,,,,,,,,*56
###2023-11-09 13:10:24.044743$GAGSV,1,1,04,07,73,259,45,08,48,043,44,13,63,161,45,26,57,310,44*67
###2023-11-09 13:10:24.047315$GBGSV,2,1,06,11,22,180,40,14,65,009,45,24,21,132,43,26,23,080,43*65
###2023-11-09 13:10:24.049234$GBGSV,2,2,06,28,43,286,47,33,59,305,47,,,,,,,,*66
###2023-11-09 13:10:24.050648$GNVTG,34.01,T,,M,4.08,N,7.56,K,A*1D
###2023-11-09 13:10:24.131254$GNGGA,131024.30,3611.0533952,N,07544.8693195,W,1,24,0.6,0.615,M,-39.960,M,0.0,*67
###2023-11-09 13:10:24.133851$GPGSV,2,1,07,05,20,091,43,10,19,294,42,13,23,045,41,15,61,037,46*77
###2023-11-09 13:10:24.136101$GPGSV,2,2,07,18,78,277,46,23,50,316,45,24,50,134,46,,,,*4E
###2023-11-09 13:10:24.138683$GLGSV,2,1,05,70,49,019,36,71,48,291,49,80,19,089,45,85,56,202,50*62
###2023-11-09 13:10:24.140295$GLGSV,2,2,05,86,54,306,48,,,,,,,,,,,,*56
###2023-11-09 13:10:24.142854$GAGSV,1,1,04,07,73,259,45,08,48,043,44,13,63,161,45,26,57,310,45*66
###2023-11-09 13:10:24.145726$GBGSV,2,1,06,11,22,180,40,14,65,009,45,24,21,132,43,26,23,080,43*65
###2023-11-09 13:10:24.147678$GBGSV,2,2,06,28,43,286,47,33,59,305,47,,,,,,,,*66
###2023-11-09 13:10:24.149108$GNVTG,32.24,T,,M,4.04,N,7.49,K,A*1E
###2023-11-09 13:10:24.231485$GNGGA,131024.40,3611.0534886,N,07544.8692499,W,1,24,0.6,0.600,M,-39.960,M,0.0,*63
###2023-11-09 13:10:24.234058$GPGSV,2,1,07,05,20,091,43,10,19,294,43,13,23,045,42,15,61,037,46*75
###2023-11-09 13:10:24.236300$GPGSV,2,2,07,18,78,277,46,23,50,316,45,24,50,134,46,,,,*4E
###2023-11-09 13:10:24.238887$GLGSV,2,1,05,70,49,019,35,71,48,291,49,80,19,089,45,85,56,202,49*69
###2023-11-09 13:10:24.240488$GLGSV,2,2,05,86,54,306,48,,,,,,,,,,,,*56
###2023-11-09 13:10:24.243041$GAGSV,1,1,04,07,73,259,45,08,48,043,44,13,63,161,45,26,57,310,45*66
