###2023-11-09 13:06:05.646734$GBGSV,2,2,06,28,43,289,48,33,58,302,48,,,,,,,,*6F
###2023-11-09 13:06:05.648219$GNVTG,59.86,T,,M,0.74,N,1.37,K,A*17
###2023-11-09 13:06:05.730861$GNGGA,130605.90,3611.0387071,N,07544.9838916,W,1,23,0.6,0.957,M,-39.962,M,0.0,*69
###2023-11-09 13:06:05.733446$GPGSV,2,1,07,05,21,089,42,10,17,292,44,13,25,045,39,15,62,036,46*7B
###2023-11-09 13:06:05.735683$GPGSV,2,2,07,18,77,285,47,23,49,314,46,24,49,137,45,,,,*4C
###2023-11-09 13:06:05.738259$GLGSV,1,1,04,71,48,288,49,80,17,092,45,85,59,204,48,86,52,311,48*6D
###2023-11-09 13:06:05.740821$GAGSV,1,1,04,07,72,255,45,08,49,042,45,13,64,160,45,26,56,311,45*6C
###2023-11-09 13:06:05.743394$GBGSV,2,1,06,11,24,180,40,14,65,006,45,24,19,133,42,26,23,082,43*65
###2023-11-09 13:06:05.745318$GBGSV,2,2,06,28,43,289,48,33,58,302,48,,,,,,,,*6F
###2023-11-09 13:06:05.746741$GNVTG,59.86,T,,M,0.64,N,1.19,K,A*1A
###2023-11-09 13:06:05.837006$GNGGA,130606.00,3611.0387145,N,07544.9838736,W,1,23,0.6,0.968,M,-39.962,M,0.0,*65
###2023-11-09 13:06:05.839621$GPGSV,2,1,07,05,21,089,42,10,17,292,44,13,25,045,40,15,62,036,46*75
###2023-11-09 13:06:05.841890$GPGSV,2,2,07,18,77,285,47,23,49,314,46,24,49,137,45,,,,*4C
###2023-11-09 13:06:05.844478$GLGSV,1,1,04,71,48,288,49,80,17,092,44,85,59,204,48,86,52,311,48*6C
###2023-11-09 13:06:05.847086$GAGSV,1,1,04,07,72,255,45,08,49,042,45,13,64,160,45,26,56,311,45*6C
###2023-11-09 13:06:05.849672$GBGSV,2,1,06,11,24,180,40,14,65,006,45,24,19,133,42,26,23,082,43*65
###2023-11-09 13:06:05.851621$GBGSV,2,2,06,28,43,289,47,33,58,302,48,,,,,,,,*60
###2023-11-09 13:06:05.853051$GNVTG,59.86,T,,M,0.54,N,1.01,K,A*10
###2023-11-09 13:06:05.940867$GNGGA,130606.10,3611.0387201,N,07544.9838565,W,1,23,0.6,0.991,M,-39.962,M,0.0,*65
###2023-11-09 13:06:05.943450$GPGSV,2,1,07,05,21,089,42,10,17,292,44,13,25,045,40,15,62,036,46*75
###2023-11-09 13:06:05.945720$GPGSV,2,2,07,18,77,285,47,23,49,314,46,24,49,137,45,,,,*4C
###2023-11-09 13:06:05.948309$GLGSV,1,1,04,71,48,288,49,80,17,092,44,85,59,204,48,86,52,311,48*6C
###2023-11-09 13:06:05.950876$GAGSV,1,1,04,07,72,255,45,08,49,042,45,13,64,160,45,26,56,311,45*6C
###2023-11-09 13:06:05.953459$GBGSV,2,1,06,11,24,180,40,14,65,006,45,24,19,133,42,26,23,082,43*65
###2023-11-09 13:06:05.955388$GBGSV,2,2,06,28,43,289,47,33,58,302,48,,,,,,,,*60
###2023-11-09 13:06:05.956819$GNVTG,59.86,T,,M,0.52,N,0.97,K,A*18
###2023-11-09 13:06:06.032219$GNGGA,130606.20,3611.0387258,N,07544.9838406,W,1,23,0.6,1.017,M,-39.962,M,0.0,*68
###2023-11-09 13:06:06.034783$GPGSV,2,1,07,05,21,089,42,10,17,292,44,13,25,045,41,15,62,036,46*74
###2023-11-09 13:06:06.037044$GPGSV,2,2,07,18,77,285,47,23,49,314,46,24,49,137,45,,,,*4C
###2023-11-09 13:06:06.039607$GLGSV,1,1,04,71,48,288,49,80,17,092,44,85,59,204,48,86,52,311,48*6C
###2023-11-09 13:06:06.042169$GAGSV,1,1,04,07,72,255,45,08,49,042,45,13,64,160,45,26,56,311,45*6C
###2023-11-09 13:06:06.044739$GBGSV,2,1,06,11,24,180,40,14,65,006,45,24,19,133,42,26,23,082,43*65
###2023-11-09 13:06:06.046659$GBGSV,2,2,06,28,43,289,47,33,58,302,48,,,,,,,,*60
###2023-11-09 13:06:06.048090$GNVTG,59.86,T,,M,0.49,N,0.90,K,A*15
###2023-11-09 13:06:06.131500$GNGGA,130606.30,3611.0387311,N,07544.9838274,W,1,23,0.6,1.039,M,-39.962,M,0.0,*6A
###2023-11-09 13:06:06.134113$GPGSV,2,1,07,05,21,089,42,10,17,292,44,13,25,045,41,15,62,036,46*74
###2023-11-09 13:06:06.136383$GPGSV,2,2,07,18,77,285,47,23,49,314,46,24,49,137,45,,,,*4C
###2023-11-09 13:06:06.138987$GLGSV,1,1,04,71,48,288,49,80,17,092,44,85,59,204,48,86,52,311,48*6C
###2023-11-09 13:06:06.141572$GAGSV,1,1,04,07,72,255,45,08,49,042,45,13,64,160,45,26,56,311,45*6C
###2023-11-09 13:06:06.144155$GBGSV,2,1,06,11,24,180,40,14,65,006,45,24,19,133,42,26,23,082,43*65
###2023-11-09 13:06:06.146093$GBGSV,2,2,06,28,43,289,48,33,58,302,48,,,,,,,,*6F
###2023-11-09 13:06:06.147538$GNVTG,59.86,T,,M,0.37,N,0.68,K,A*1B
###2023-11-09 13:06:06.232592$GNGGA,130606.40,3611.0387336,N,07544.9838176,W,1,23,0.6,1.060,M,-39.962,M,0.0,*65
###2023-11-09 13:06:06.235173$GPGSV,2,1,07,05,21,089,43,10,17,292,44,13,25,045,41,15,62,036,46*75
###2023-11-09 13:06:06.237439$GPGSV,2,2,07,18,77,285,47,23,49,314,46,24,49,137,45,,,,*4C
###2023-11-09 13:06:06.240015$GLGSV,1,1,04,71,48,288,49,80,17,092,45,85,59,204,48,86,52,311,48*6D
###2023-11-09 13:06:06.242573$GAGSV,1,1,04,07,72,255,45,08,49,042,45,13,64,160,45,26,56,311,45*6C
###2023-11-09 13:06:06.245164$GBGSV,2,1,06,11,24,180,40,14,65,006,45,24,19,133,42,26,23,082,43*65
###2023-11-09 13:06:06.247110$GBGSV,2,2,06,28,43,289,48,33,58,302,48,,,,,,,,*6F
###2023-11-09 13:06:06.248539$GNVTG,59.86,T,,M,0.23,N,0.43,K,A*17
###2023-11-09 13:06:06.331453$GNGGA,130606.50,3611.0387358,N,07544.9838116,W,1,23,0.6,1.072,M,-39.962,M,0.0,*69
###2023-11-09 13:06:06.334032$GPGSV,2,1,07,05,21,089,43,10,17,292,44,13,25,045,41,15,62,036,46*75
###2023-11-09 13:06:06.336269$GPGSV,2,2,07,18,77,285,47,23,49,314,46,24,49,137,45,,,,*4C
###2023-11-09 13:06:06.338852$GLGSV,1,1,04,71,48,288,50,80,17,092,45,85,59,204,48,86,52,311,48*65
###2023-11-09 13:06:06.341424$GAGSV,1,1,04,07,72,255,45,08,49,042,45,13,64,160,45,26,56,311,45*6C
###2023-11-09 13:06:06.343992$GBGSV,2,1,06,11,24,180,40,14,65,006,45,24,19,133,42,26,23,082,43*65
###2023-11-09 13:06:06.345914$GBGSV,2,2,06,28,43,289,48,33,58,302,48,,,,,,,,*6F
###2023-11-09 13:06:06.347351$GNVTG,59.86,T,,M,0.17,N,0.32,K,A*16
###2023-11-09 13:06:06.430861$GNGGA,130606.60,3611.0387393,N,07544.9838074,W,1,23,0.6,1.080,M,-39.962,M,0.0,*65
###2023-11-09 13:06:06.433463$GPGSV,2,1,07,05,21,089,43,10,17,292,44,13,25,045,41,15,62,036,46*75
###2023-11-09 13:06:06.435720$GPGSV,2,2,07,18,77,285,47,23,49,314,46,24,49,137,45,,,,*4C
###2023-11-09 13:06:06.438322$GLGSV,1,1,04,71,48,288,49,80,17,092,45,85,59,204,48,86,52,311,48*6D
###2023-11-09 13:06:06.440903$GAGSV,1,1,04,07,72,255,45,08,49,042,45,13,64,160,45,26,56,311,45*6C
###2023-11-09 13:06:06.443482$GBGSV,2,1,06,11,24,180,40,14,65,006,45,24,19,133,42,26,23,082,43*65
###2023-11-09 13:06:06.445426$GBGSV,2,2,06,28,43,289,47,33,58,302,48,,,,,,,,*60
###2023-11-09 13:06:06.446853$GNVTG,59.86,T,,M,0.19,N,0.36,K,A*1C
###2023-11-09 13:06:06.531972$GNGGA,130606.70,3611.0387441,N,07544.9838004,W,1,23,0.6,1.084,M,-39.962,M,0.0,*6F
###2023-11-09 13:06:06.534565$GPGSV,2,1,07,05,21,089,43,10,17,292,44,13,25,045,41,15,62,036,46*75
###2023-11-09 13:06:06.536816$GPGSV,2,2,07,18,77,285,47,23,49,314,46,24,49,137,45,,,,*4C
###2023-11-09 13:06:06.539449$GLGSV,1,1,04,71,48,288,49,80,17,092,45,85,59,204,48,86,52,311,48*6D
###2023-11-09 13:06:06.542029$GAGSV,1,1,04,07,72,255,45,08,49,042,45,13,64,160,45,26,56,311,45*6C
###2023-11-09 13:06:06.544605$GBGSV,2,1,06,11,24,180,40,14,65,006,45,24,19,133,42,26,23,082,43*65
###2023-11-09 13:06:06.546553$GBGSV,2,2,06,28,43,289,47,33,58,302,48,,,,,,,,*60
###2023-11-09 13:06:06.547992$GNVTG,59.86,T,,M,0.33,N,0.61,K,A*16
###2023-11-09 13:06:06.631904$GNGGA,130606.80,3611.0387513,N,07544.9837872,W,1,23,0.6,1.087,M,-39.962,M,0.0,*63
###2023-11-09 13:06:06.634499$GPGSV,2,1,07,05,21,089,42,10,17,292,44,13,25,045,41,15,62,036,46*74
###2023-11-09 13:06:06.636747$GPGSV,2,2,07,18,77,285,47,23,49,314,46,24,49,137,45,,,,*4C
###2023-11-09 13:06:06.639338$GLGSV,1,1,04,71,48,288,49,80,17,092,45,85,59,204,48,86,52,311,48*6D
###2023-11-09 13:06:06.641903$GAGSV,1,1,04,07,72,255,45,08,49,042,45,13,64,160,45,26,56,311,45*6C
###2023-11-09 13:06:06.644473$GBGSV,2,1,06,11,24,180,40,14,65,006,45,24,19,133,42,26,23,082,42*64
###2023-11-09 13:06:06.646400$GBGSV,2,2,06,28,43,289,47,33,58,302,48,,,,,,,,*60
###2023-11-09 13:06:06.647837$GNVTG,59.86,T,,M,0.58,N,1.08,K,A*15
###2023-11-09 13:06:06.731885$GNGGA,130606.90,3611.0387611,N,07544.9837708,W,1,23,0.6,1.084,M,-39.962,M,0.0,*62
###2023-11-09 13:06:06.734504$GPGSV,2,1,07,05,21,089,42,10,17,292,44,13,25,045,41,15,62,036,46*74
###2023-11-09 13:06:06.736754$GPGSV,2,2,07,18,77,285,47,23,49,314,45,24,49,137,45,,,,*4F
###2023-11-09 13:06:06.739352$GLGSV,1,1,04,71,48,288,49,80,17,092,45,85,59,204,48,86,52,311,48*6D
###2023-11-09 13:06:06.741923$GAGSV,1,1,04,07,72,255,45,08,49,042,45,13,64,160,45,26,56,311,45*6C
###2023-11-09 13:06:06.744499$GBGSV,2,1,06,11,24,180,40,14,65,006,45,24,19,133,42,26,23,082,42*64
###2023-11-09 13:06:06.746723$GBGSV,2,2,06,28,43,289,47,33,58,302,48,,,,,,,,*60
###2023-11-09 13:06:06.748177$GNVTG,59.86,T,,M,0.60,N,1.12,K,A*15
###2023-11-09 13:06:06.833131$GNGGA,130607.00,3611.0387684,N,07544.9837576,W,1,23,0.6,1.067,M,-39.962,M,0.0,*60
###2023-11-09 13:06:06.835737$GPGSV,2,1,07,05,21,089,42,10,17,292,43,13,25,045,41,15,62,036,46*73
###2023-11-09 13:06:06.838027$GPGSV,2,2,07,18,77,285,46,23,49,314,45,24,49,137,45,,,,*4E
###2023-11-09 13:06:06.840617$GLGSV,1,1,04,71,48,288,48,80,17,092,45,85,59,204,48,86,52,311,47*63
###2023-11-09 13:06:06.843210$GAGSV,1,1,04,07,72,255,45,08,49,042,45,13,64,160,45,26,56,311,45*6C
###2023-11-09 13:06:06.845809$GBGSV,2,1,06,11,24,180,40,14,65,006,45,24,19,133,42,26,23,082,42*64
###2023-11-09 13:06:06.847773$GBGSV,2,2,06,28,43,289,47,33,58,302,48,,,,,,,,*60
###2023-11-09 13:06:06.849215$GNVTG,59.86,T,,M,0.35,N,0.65,K,A*14
###2023-11-09 13:06:06.934488$GNGGA,130607.10,3611.0387719,N,07544.9837485,W,1,23,0.6,1.046,M,-39.962,M,0.0,*6A
###2023-11-09 13:06:06.937097$GPGSV,2,1,07,05,21,089,42,10,17,292,44,13,25,045,41,15,62,036,46*74
