###2023-11-09 13:09:40.743591$GBGSV,2,2,06,28,43,287,46,33,59,304,47,,,,,,,,*67
###2023-11-09 13:09:40.745089$GNVTG,85.89,T,,M,6.49,N,12.02,K,A*25
###2023-11-09 13:09:40.831488$GNGGA,130941.00,3611.0338064,N,07544.9267831,W,1,24,0.6,0.558,M,-39.961,M,0.0,*6C
###2023-11-09 13:09:40.834083$GPGSV,2,1,07,05,20,090,42,10,19,293,44,13,24,045,41,15,61,037,44*73
###2023-11-09 13:09:40.836323$GPGSV,2,2,07,18,78,277,46,23,50,316,44,24,50,134,45,,,,*4C
###2023-11-09 13:09:40.838918$GLGSV,2,1,05,70,50,017,35,71,48,290,48,80,18,090,43,85,57,203,48*61
###2023-11-09 13:09:40.840527$GLGSV,2,2,05,86,53,308,47,,,,,,,,,,,,*50
###2023-11-09 13:09:40.843095$GAGSV,1,1,04,07,73,259,45,08,48,043,44,13,63,161,45,26,57,310,44*67
###2023-11-09 13:09:40.845656$GBGSV,2,1,06,11,22,180,42,14,65,009,45,24,21,132,43,26,23,081,42*67
###2023-11-09 13:09:40.847598$GBGSV,2,2,06,28,43,287,46,33,59,304,47,,,,,,,,*67
###2023-11-09 13:09:40.849057$GNVTG,84.50,T,,M,6.41,N,11.88,K,A*29
###2023-11-09 13:09:40.929393$GNGGA,130941.10,3611.0338240,N,07544.9265648,W,1,24,0.6,0.543,M,-39.961,M,0.0,*61
###2023-11-09 13:09:40.932000$GPGSV,2,1,07,05,20,090,42,10,19,293,44,13,24,045,41,15,61,037,45*72
###2023-11-09 13:09:40.934254$GPGSV,2,2,07,18,78,277,46,23,50,316,44,24,50,134,45,,,,*4C
###2023-11-09 13:09:40.936836$GLGSV,2,1,05,70,50,017,35,71,48,290,48,80,18,090,43,85,57,203,48*61
###2023-11-09 13:09:40.938460$GLGSV,2,2,05,86,53,308,47,,,,,,,,,,,,*50
###2023-11-09 13:09:40.941034$GAGSV,1,1,04,07,73,259,45,08,48,043,44,13,63,161,45,26,57,310,44*67
###2023-11-09 13:09:40.943604$GBGSV,2,1,06,11,22,180,42,14,65,009,45,24,21,132,43,26,23,080,42*66
###2023-11-09 13:09:40.945541$GBGSV,2,2,06,28,43,287,47,33,59,304,47,,,,,,,,*66
###2023-11-09 13:09:40.947019$GNVTG,83.84,T,,M,6.40,N,11.84,K,A*2A
###2023-11-09 13:09:41.032118$GNGGA,130941.20,3611.0338424,N,07544.9263450,W,1,24,0.6,0.540,M,-39.961,M,0.0,*68
###2023-11-09 13:09:41.034715$GPGSV,2,1,07,05,20,090,41,10,19,293,44,13,24,045,41,15,61,037,45*71
###2023-11-09 13:09:41.037020$GPGSV,2,2,07,18,78,277,46,23,50,316,45,24,50,134,45,,,,*4D
###2023-11-09 13:09:41.039605$GLGSV,2,1,05,70,50,017,35,71,48,290,48,80,18,090,42,85,57,203,48*60
###2023-11-09 13:09:41.041219$GLGSV,2,2,05,86,53,308,47,,,,,,,,,,,,*50
###2023-11-09 13:09:41.043795$GAGSV,1,1,04,07,73,259,45,08,48,043,44,13,63,161,45,26,57,310,44*67
###2023-11-09 13:09:41.046383$GBGSV,2,1,06,11,22,180,42,14,65,009,45,24,21,132,43,26,23,080,42*66
###2023-11-09 13:09:41.048336$GBGSV,2,2,06,28,43,287,48,33,59,304,47,,,,,,,,*69
###2023-11-09 13:09:41.049802$GNVTG,84.07,T,,M,6.51,N,12.06,K,A*2F
###2023-11-09 13:09:41.128627$GNGGA,130941.30,3611.0338592,N,07544.9261221,W,1,24,0.6,0.521,M,-39.961,M,0.0,*60
###2023-11-09 13:09:41.131219$GPGSV,2,1,07,05,20,090,41,10,19,293,44,13,24,045,42,15,61,037,45*72
###2023-11-09 13:09:41.133457$GPGSV,2,2,07,18,78,277,46,23,50,316,45,24,50,134,45,,,,*4D
###2023-11-09 13:09:41.136023$GLGSV,2,1,05,70,50,017,35,71,48,290,48,80,18,090,42,85,57,203,48*60
###2023-11-09 13:09:41.137638$GLGSV,2,2,05,86,53,308,47,,,,,,,,,,,,*50
###2023-11-09 13:09:41.140199$GAGSV,1,1,04,07,73,259,45,08,48,043,44,13,63,161,45,26,57,310,44*67
###2023-11-09 13:09:41.142762$GBGSV,2,1,06,11,22,180,42,14,65,009,45,24,21,132,43,26,23,080,42*66
###2023-11-09 13:09:41.144678$GBGSV,2,2,06,28,43,287,48,33,59,304,47,,,,,,,,*69
###2023-11-09 13:09:41.146135$GNVTG,85.23,T,,M,6.55,N,12.13,K,A*28
###2023-11-09 13:09:41.228257$GNGGA,130941.40,3611.0338732,N,07544.9259008,W,1,24,0.6,0.485,M,-39.961,M,0.0,*62
###2023-11-09 13:09:41.230836$GPGSV,2,1,07,05,20,090,41,10,19,293,44,13,24,045,42,15,61,037,45*72
###2023-11-09 13:09:41.233074$GPGSV,2,2,07,18,78,277,46,23,50,316,45,24,50,134,45,,,,*4D
###2023-11-09 13:09:41.235635$GLGSV,2,1,05,70,50,017,35,71,48,290,48,80,18,090,42,85,57,203,48*60
###2023-11-09 13:09:41.237254$GLGSV,2,2,05,86,53,308,47,,,,,,,,,,,,*50
###2023-11-09 13:09:41.239814$GAGSV,1,1,04,07,73,259,45,08,48,043,44,13,63,161,45,26,57,310,44*67
###2023-11-09 13:09:41.242389$GBGSV,2,1,06,11,22,180,42,14,65,009,45,24,21,132,44,26,23,080,42*61
###2023-11-09 13:09:41.244319$GBGSV,2,2,06,28,43,287,47,33,59,304,47,,,,,,,,*66
###2023-11-09 13:09:41.245777$GNVTG,85.71,T,,M,6.40,N,11.84,K,A*26
###2023-11-09 13:09:41.328134$GNGGA,130941.50,3611.0338872,N,07544.9256841,W,1,24,0.6,0.441,M,-39.961,M,0.0,*6A
###2023-11-09 13:09:41.330732$GPGSV,2,1,07,05,20,090,41,10,19,293,44,13,24,045,41,15,61,037,45*71
###2023-11-09 13:09:41.332993$GPGSV,2,2,07,18,78,277,46,23,50,316,45,24,50,134,45,,,,*4D
###2023-11-09 13:09:41.335577$GLGSV,2,1,05,70,50,017,35,71,48,290,48,80,18,090,43,85,57,203,48*61
###2023-11-09 13:09:41.337213$GLGSV,2,2,05,86,53,308,47,,,,,,,,,,,,*50
###2023-11-09 13:09:41.339800$GAGSV,1,1,04,07,73,259,45,08,48,043,43,13,63,161,45,26,57,310,44*60
###2023-11-09 13:09:41.342384$GBGSV,2,1,06,11,22,180,42,14,65,009,45,24,21,132,44,26,23,080,42*61
###2023-11-09 13:09:41.344322$GBGSV,2,2,06,28,43,287,47,33,59,304,47,,,,,,,,*66
###2023-11-09 13:09:41.345791$GNVTG,85.10,T,,M,6.30,N,11.66,K,A*2A
###2023-11-09 13:09:41.427753$GNGGA,130941.60,3611.0339040,N,07544.9254697,W,1,24,0.6,0.411,M,-39.961,M,0.0,*63
###2023-11-09 13:09:41.430330$GPGSV,2,1,07,05,20,090,41,10,19,293,44,13,24,045,41,15,61,037,44*70
###2023-11-09 13:09:41.432568$GPGSV,2,2,07,18,78,277,46,23,50,316,45,24,50,134,45,,,,*4D
###2023-11-09 13:09:41.435129$GLGSV,2,1,05,70,50,017,35,71,48,290,48,80,18,090,43,85,57,203,48*61
###2023-11-09 13:09:41.436724$GLGSV,2,2,05,86,53,308,47,,,,,,,,,,,,*50
###2023-11-09 13:09:41.439283$GAGSV,1,1,04,07,73,259,45,08,48,043,43,13,63,161,45,26,57,310,44*60
###2023-11-09 13:09:41.441844$GBGSV,2,1,06,11,22,180,42,14,65,009,45,24,21,132,44,26,23,080,42*61
###2023-11-09 13:09:41.443770$GBGSV,2,2,06,28,43,287,47,33,59,304,47,,,,,,,,*66
###2023-11-09 13:09:41.445227$GNVTG,83.73,T,,M,6.28,N,11.63,K,A*25
###2023-11-09 13:09:41.527187$GNGGA,130941.70,3611.0339251,N,07544.9252554,W,1,24,0.6,0.408,M,-39.961,M,0.0,*62
###2023-11-09 13:09:41.529797$GPGSV,2,1,07,05,20,090,41,10,19,293,44,13,24,045,41,15,61,037,44*70
###2023-11-09 13:09:41.532062$GPGSV,2,2,07,18,78,277,46,23,50,316,45,24,50,134,45,,,,*4D
###2023-11-09 13:09:41.534646$GLGSV,2,1,05,70,50,017,35,71,48,290,48,80,18,090,43,85,57,203,48*61
###2023-11-09 13:09:41.536252$GLGSV,2,2,05,86,53,308,47,,,,,,,,,,,,*50
###2023-11-09 13:09:41.538857$GAGSV,1,1,04,07,73,259,45,08,48,043,43,13,63,161,45,26,57,310,44*60
###2023-11-09 13:09:41.541444$GBGSV,2,1,06,11,22,180,42,14,65,009,45,24,21,132,44,26,23,080,42*61
###2023-11-09 13:09:41.543380$GBGSV,2,2,06,28,43,287,47,33,59,304,47,,,,,,,,*66
###2023-11-09 13:09:41.544843$GNVTG,82.24,T,,M,6.32,N,11.70,K,A*2F
###2023-11-09 13:09:41.628138$GNGGA,130941.80,3611.0339486,N,07544.9250412,W,1,24,0.6,0.421,M,-39.961,M,0.0,*6B
###2023-11-09 13:09:41.630728$GPGSV,2,1,07,05,20,090,41,10,19,293,44,13,24,045,41,15,61,037,44*70
###2023-11-09 13:09:41.632978$GPGSV,2,2,07,18,78,277,46,23,50,316,45,24,50,134,45,,,,*4D
###2023-11-09 13:09:41.635538$GLGSV,2,1,05,70,50,017,35,71,48,290,48,80,18,090,43,85,57,203,48*61
###2023-11-09 13:09:41.637152$GLGSV,2,2,05,86,53,308,48,,,,,,,,,,,,*5F
###2023-11-09 13:09:41.639713$GAGSV,1,1,04,07,73,259,45,08,48,043,43,13,63,161,45,26,57,310,45*61
###2023-11-09 13:09:41.642290$GBGSV,2,1,06,11,22,180,42,14,65,009,45,24,21,132,44,26,23,080,42*61
###2023-11-09 13:09:41.644219$GBGSV,2,2,06,28,43,287,47,33,59,304,47,,,,,,,,*66
###2023-11-09 13:09:41.645682$GNVTG,82.10,T,,M,6.28,N,11.63,K,A*21
###2023-11-09 13:09:41.728178$GNGGA,130941.90,3611.0339708,N,07544.9248288,W,1,24,0.6,0.428,M,-39.961,M,0.0,*6A
###2023-11-09 13:09:41.730778$GPGSV,2,1,07,05,20,090,41,10,19,293,44,13,24,045,41,15,61,037,44*70
###2023-11-09 13:09:41.733022$GPGSV,2,2,07,18,78,277,46,23,50,316,45,24,50,134,45,,,,*4D
###2023-11-09 13:09:41.735577$GLGSV,2,1,05,70,50,017,35,71,48,290,48,80,18,090,43,85,57,203,48*61
###2023-11-09 13:09:41.737191$GLGSV,2,2,05,86,53,308,47,,,,,,,,,,,,*50
###2023-11-09 13:09:41.739742$GAGSV,1,1,04,07,73,259,45,08,48,043,44,13,63,161,45,26,57,310,45*66
###2023-11-09 13:09:41.742309$GBGSV,2,1,06,11,22,180,42,14,65,009,45,24,21,132,44,26,23,080,41*62
###2023-11-09 13:09:41.744535$GBGSV,2,2,06,28,43,287,47,33,59,304,47,,,,,,,,*66
###2023-11-09 13:09:41.746012$GNVTG,82.94,T,,M,6.22,N,11.52,K,A*25
###2023-11-09 13:09:41.832269$GNGGA,130942.00,3611.0339911,N,07544.9246186,W,1,24,0.6,0.437,M,-39.961,M,0.0,*6B
###2023-11-09 13:09:41.834891$GPGSV,2,1,07,05,20,090,41,10,19,293,44,13,24,045,41,15,61,037,45*71
###2023-11-09 13:09:41.837175$GPGSV,2,2,07,18,78,277,46,23,50,316,45,24,50,134,45,,,,*4D
###2023-11-09 13:09:41.839756$GLGSV,2,1,05,70,50,017,35,71,48,290,49,80,18,090,43,85,57,203,49*61
###2023-11-09 13:09:41.841365$GLGSV,2,2,05,86,53,308,48,,,,,,,,,,,,*5F
###2023-11-09 13:09:41.843942$GAGSV,1,1,04,07,73,259,45,08,48,043,44,13,63,161,45,26,57,310,45*66
###2023-11-09 13:09:41.846534$GBGSV,2,1,06,11,22,180,42,14,65,009,45,24,21,132,43,26,23,080,41*65
###2023-11-09 13:09:41.848479$GBGSV,2,2,06,28,43,287,47,33,59,304,47,,,,,,,,*66
