###2023-11-09 13:07:53.846274$GLGSV,2,2,05,86,52,309,48,,,,,,,,,,,,*5F
###2023-11-09 13:07:53.848894$GAGSV,1,1,04,07,72,257,45,08,49,042,45,13,64,160,45,26,56,310,45*6F
###2023-11-09 13:07:53.851472$GBGSV,2,1,06,11,23,180,41,14,65,008,45,24,20,132,44,26,23,081,44*64
###2023-11-09 13:07:53.853418$GBGSV,2,2,06,28,43,287,46,33,59,304,47,,,,,,,,*67
###2023-11-09 13:07:53.854889$GNVTG,270.57,T,,M,5.31,N,9.83,K,A*21
###2023-11-09 13:07:53.936112$GNGGA,130754.10,3611.0476343,N,07544.9731244,W,1,24,0.6,0.961,M,-39.961,M,0.0,*64
###2023-11-09 13:07:53.938728$GPGSV,2,1,07,05,21,090,43,10,18,292,43,13,24,045,43,15,62,037,46*77
###2023-11-09 13:07:53.940989$GPGSV,2,2,07,18,77,281,46,23,50,315,46,24,49,136,45,,,,*41
###2023-11-09 13:07:53.943558$GLGSV,2,1,05,70,50,016,36,71,48,288,49,80,17,091,45,85,58,203,48*6C
###2023-11-09 13:07:53.945165$GLGSV,2,2,05,86,52,309,48,,,,,,,,,,,,*5F
###2023-11-09 13:07:53.947745$GAGSV,1,1,04,07,72,258,45,08,49,042,45,13,64,160,45,26,56,310,45*60
###2023-11-09 13:07:53.950327$GBGSV,2,1,06,11,23,180,41,14,65,008,45,24,20,132,44,26,23,081,45*65
###2023-11-09 13:07:53.952256$GBGSV,2,2,06,28,43,287,46,33,59,304,47,,,,,,,,*67
###2023-11-09 13:07:53.953724$GNVTG,270.97,T,,M,5.33,N,9.86,K,A*2A
###2023-11-09 13:07:54.032100$GNGGA,130754.20,3611.0476349,N,07544.9733068,W,1,24,0.6,0.975,M,-39.961,M,0.0,*66
###2023-11-09 13:07:54.034679$GPGSV,2,1,07,05,21,090,43,10,18,292,44,13,24,045,43,15,62,037,46*70
###2023-11-09 13:07:54.036934$GPGSV,2,2,07,18,77,281,46,23,50,315,46,24,49,136,45,,,,*41
###2023-11-09 13:07:54.039500$GLGSV,2,1,05,70,50,016,36,71,48,288,49,80,17,091,45,85,58,203,48*6C
###2023-11-09 13:07:54.041097$GLGSV,2,2,05,86,52,309,49,,,,,,,,,,,,*5E
###2023-11-09 13:07:54.043646$GAGSV,1,1,04,07,72,258,45,08,49,042,45,13,64,160,45,26,56,310,45*60
###2023-11-09 13:07:54.046204$GBGSV,2,1,06,11,23,180,40,14,65,008,45,24,20,132,44,26,23,081,45*64
###2023-11-09 13:07:54.048142$GBGSV,2,2,06,28,43,287,46,33,59,304,48,,,,,,,,*68
###2023-11-09 13:07:54.049600$GNVTG,269.67,T,,M,5.35,N,9.90,K,A*2C
###2023-11-09 13:07:54.129130$GNGGA,130754.30,3611.0476321,N,07544.9734919,W,1,24,0.6,0.992,M,-39.961,M,0.0,*68
###2023-11-09 13:07:54.131725$GPGSV,2,1,07,05,21,090,43,10,18,292,44,13,24,045,43,15,62,037,46*70
###2023-11-09 13:07:54.133976$GPGSV,2,2,07,18,77,281,46,23,50,315,46,24,49,136,45,,,,*41
###2023-11-09 13:07:54.136544$GLGSV,2,1,05,70,50,016,36,71,48,288,49,80,17,091,45,85,58,203,48*6C
###2023-11-09 13:07:54.138172$GLGSV,2,2,05,86,52,309,49,,,,,,,,,,,,*5E
###2023-11-09 13:07:54.140748$GAGSV,1,1,04,07,72,258,45,08,49,042,45,13,64,160,45,26,56,310,45*60
###2023-11-09 13:07:54.143338$GBGSV,2,1,06,11,23,180,40,14,65,008,45,24,20,132,43,26,23,081,45*63
###2023-11-09 13:07:54.145280$GBGSV,2,2,06,28,43,287,46,33,59,304,48,,,,,,,,*68
###2023-11-09 13:07:54.146787$GNVTG,267.91,T,,M,5.44,N,10.08,K,A*14
###2023-11-09 13:07:54.230367$GNGGA,130754.40,3611.0476255,N,07544.9736796,W,1,24,0.6,1.018,M,-39.961,M,0.0,*6C
###2023-11-09 13:07:54.232972$GPGSV,2,1,07,05,21,090,43,10,18,292,44,13,24,045,43,15,62,037,46*70
###2023-11-09 13:07:54.235230$GPGSV,2,2,07,18,77,281,46,23,50,315,46,24,49,136,45,,,,*41
###2023-11-09 13:07:54.237829$GLGSV,2,1,05,70,50,016,36,71,48,288,49,80,17,091,45,85,58,203,48*6C
###2023-11-09 13:07:54.239436$GLGSV,2,2,05,86,52,309,49,,,,,,,,,,,,*5E
###2023-11-09 13:07:54.242003$GAGSV,1,1,04,07,72,258,45,08,49,042,45,13,64,160,45,26,56,310,45*60
###2023-11-09 13:07:54.244580$GBGSV,2,1,06,11,23,180,40,14,65,008,45,24,20,132,43,26,23,081,44*62
###2023-11-09 13:07:54.246517$GBGSV,2,2,06,28,43,287,46,33,59,304,48,,,,,,,,*68
###2023-11-09 13:07:54.248038$GNVTG,266.88,T,,M,5.54,N,10.26,K,A*10
###2023-11-09 13:07:54.329126$GNGGA,130754.50,3611.0476168,N,07544.9738707,W,1,24,0.6,1.030,M,-39.961,M,0.0,*6C
###2023-11-09 13:07:54.331712$GPGSV,2,1,07,05,21,090,43,10,18,292,44,13,24,045,43,15,62,037,46*70
###2023-11-09 13:07:54.333963$GPGSV,2,2,07,18,77,281,46,23,50,315,46,24,49,136,45,,,,*41
###2023-11-09 13:07:54.336535$GLGSV,2,1,05,70,50,016,36,71,48,288,49,80,17,091,45,85,58,203,48*6C
###2023-11-09 13:07:54.338153$GLGSV,2,2,05,86,52,309,48,,,,,,,,,,,,*5F
###2023-11-09 13:07:54.340725$GAGSV,1,1,04,07,72,258,45,08,49,042,45,13,64,160,45,26,56,310,45*60
###2023-11-09 13:07:54.343298$GBGSV,2,1,06,11,23,180,40,14,65,008,45,24,20,132,43,26,23,081,44*62
###2023-11-09 13:07:54.345235$GBGSV,2,2,06,28,43,287,46,33,59,304,48,,,,,,,,*68
###2023-11-09 13:07:54.346727$GNVTG,266.42,T,,M,5.62,N,10.40,K,A*13
###2023-11-09 13:07:54.429132$GNGGA,130754.60,3611.0476075,N,07544.9740629,W,1,24,0.6,1.040,M,-39.961,M,0.0,*67
###2023-11-09 13:07:54.431732$GPGSV,2,1,07,05,21,090,43,10,18,292,44,13,24,045,43,15,62,037,46*70
###2023-11-09 13:07:54.433988$GPGSV,2,2,07,18,77,281,46,23,50,315,45,24,49,136,45,,,,*42
###2023-11-09 13:07:54.436572$GLGSV,2,1,05,70,50,016,36,71,48,288,49,80,17,091,45,85,58,203,48*6C
###2023-11-09 13:07:54.438196$GLGSV,2,2,05,86,52,309,48,,,,,,,,,,,,*5F
###2023-11-09 13:07:54.440782$GAGSV,1,1,04,07,72,258,45,08,49,042,45,13,64,160,45,26,56,310,45*60
###2023-11-09 13:07:54.443363$GBGSV,2,1,06,11,23,180,41,14,65,008,45,24,20,132,44,26,23,081,44*64
###2023-11-09 13:07:54.445305$GBGSV,2,2,06,28,43,287,46,33,59,304,48,,,,,,,,*68
###2023-11-09 13:07:54.446803$GNVTG,266.46,T,,M,5.64,N,10.44,K,A*15
###2023-11-09 13:07:54.530270$GNGGA,130754.70,3611.0476000,N,07544.9742590,W,1,24,0.6,1.044,M,-39.961,M,0.0,*63
###2023-11-09 13:07:54.532883$GPGSV,2,1,07,05,21,090,43,10,18,292,43,13,24,045,43,15,62,037,46*77
###2023-11-09 13:07:54.535143$GPGSV,2,2,07,18,77,281,46,23,50,315,45,24,49,136,45,,,,*42
###2023-11-09 13:07:54.537758$GLGSV,2,1,05,70,50,016,36,71,48,288,48,80,17,091,45,85,58,203,48*6D
###2023-11-09 13:07:54.539375$GLGSV,2,2,05,86,52,309,48,,,,,,,,,,,,*5F
###2023-11-09 13:07:54.541949$GAGSV,1,1,04,07,72,258,45,08,49,042,45,13,64,160,45,26,56,310,45*60
###2023-11-09 13:07:54.544543$GBGSV,2,1,06,11,23,180,41,14,65,008,45,24,20,132,44,26,23,081,44*64
###2023-11-09 13:07:54.546488$GBGSV,2,2,06,28,43,287,46,33,59,304,48,,,,,,,,*68
###2023-11-09 13:07:54.548010$GNVTG,267.82,T,,M,5.83,N,10.80,K,A*1D
###2023-11-09 13:07:54.628735$GNGGA,130754.80,3611.0475977,N,07544.9744591,W,1,24,0.6,1.045,M,-39.961,M,0.0,*60
###2023-11-09 13:07:54.631324$GPGSV,2,1,07,05,21,090,43,10,18,292,43,13,24,045,43,15,62,037,46*77
###2023-11-09 13:07:54.633566$GPGSV,2,2,07,18,77,281,46,23,50,315,45,24,49,136,45,,,,*42
###2023-11-09 13:07:54.636118$GLGSV,2,1,05,70,50,016,36,71,48,288,48,80,17,091,45,85,58,203,48*6D
###2023-11-09 13:07:54.637728$GLGSV,2,2,05,86,52,309,48,,,,,,,,,,,,*5F
###2023-11-09 13:07:54.640285$GAGSV,1,1,04,07,72,258,45,08,49,042,45,13,64,160,45,26,56,310,45*60
###2023-11-09 13:07:54.642852$GBGSV,2,1,06,11,23,180,41,14,65,008,45,24,20,132,44,26,23,081,44*64
###2023-11-09 13:07:54.644778$GBGSV,2,2,06,28,43,287,46,33,59,304,47,,,,,,,,*67
###2023-11-09 13:07:54.646278$GNVTG,270.35,T,,M,5.85,N,10.84,K,A*15
###2023-11-09 13:07:54.729152$GNGGA,130754.90,3611.0475994,N,07544.9746602,W,1,24,0.6,1.049,M,-39.961,M,0.0,*6B
###2023-11-09 13:07:54.731758$GPGSV,2,1,07,05,21,090,43,10,18,292,43,13,24,045,43,15,62,037,46*77
###2023-11-09 13:07:54.734020$GPGSV,2,2,07,18,77,281,46,23,50,315,45,24,49,136,46,,,,*41
###2023-11-09 13:07:54.736597$GLGSV,2,1,05,70,50,016,36,71,48,288,48,80,17,091,45,85,58,203,48*6D
###2023-11-09 13:07:54.738226$GLGSV,2,2,05,86,52,309,48,,,,,,,,,,,,*5F
###2023-11-09 13:07:54.740807$GAGSV,1,1,04,07,72,258,44,08,49,042,45,13,64,160,45,26,56,310,45*61
###2023-11-09 13:07:54.743405$GBGSV,2,1,06,11,23,180,41,14,65,008,45,24,20,132,44,26,23,081,44*64
###2023-11-09 13:07:54.745347$GBGSV,2,2,06,28,43,287,46,33,59,304,48,,,,,,,,*68
###2023-11-09 13:07:54.746848$GNVTG,270.56,T,,M,5.87,N,10.87,K,A*11
###2023-11-09 13:07:54.832125$GNGGA,130755.00,3611.0475979,N,07544.9748617,W,1,24,0.6,1.055,M,-39.961,M,0.0,*67
###2023-11-09 13:07:54.834736$GPGSV,2,1,07,05,21,090,43,10,18,292,43,13,24,045,43,15,62,037,46*77
###2023-11-09 13:07:54.837026$GPGSV,2,2,07,18,77,281,46,23,50,315,45,24,49,136,45,,,,*42
###2023-11-09 13:07:54.839600$GLGSV,2,1,05,70,50,016,36,71,48,288,48,80,17,091,45,85,58,203,48*6D
###2023-11-09 13:07:54.841525$GLGSV,2,2,05,86,52,309,49,,,,,,,,,,,,*5E
###2023-11-09 13:07:54.844098$GAGSV,1,1,04,07,72,258,44,08,49,042,45,13,64,160,45,26,56,310,45*61
###2023-11-09 13:07:54.846691$GBGSV,2,1,06,11,23,180,41,14,65,008,45,24,20,132,44,26,23,081,44*64
###2023-11-09 13:07:54.848672$GBGSV,2,2,06,28,43,287,46,33,59,304,48,,,,,,,,*68
###2023-11-09 13:07:54.850186$GNVTG,268.17,T,,M,5.87,N,10.87,K,A*1D
###2023-11-09 13:07:54.930117$GNGGA,130755.10,3611.0475902,N,07544.9750619,W,1,24,0.6,1.062,M,-39.961,M,0.0,*69
###2023-11-09 13:07:54.932718$GPGSV,2,1,07,05,21,090,42,10,18,292,44,13,24,045,43,15,62,037,46*71
###2023-11-09 13:07:54.934970$GPGSV,2,2,07,18,77,281,46,23,50,315,45,24,49,136,45,,,,*42
###2023-11-09 13:07:54.937554$GLGSV,2,1,05,70,50,017,35,71,48,288,48,80,17,091,45,85,58,203,48*6F
###2023-11-09 13:07:54.939160$GLGSV,2,2,05,86,52,309,49,,,,,,,,,,,,*5E
