###2023-11-09 13:10:32.043411$GLGSV,2,2,05,86,54,306,48,,,,,,,,,,,,*56
###2023-11-09 13:10:32.046017$GAGSV,1,1,04,07,73,259,44,08,48,043,45,13,63,161,45,26,57,310,45*66
###2023-11-09 13:10:32.048658$GBGSV,2,1,06,11,22,180,40,14,65,009,46,24,21,132,43,26,23,080,46*63
###2023-11-09 13:10:32.050607$GBGSV,2,2,06,28,43,286,45,33,59,305,47,,,,,,,,*64
###2023-11-09 13:10:32.052075$GNVTG,314.44,T,,M,5.37,N,9.94,K,A*20
###2023-11-09 13:10:32.135967$GNGGA,131032.30,3611.0615770,N,07544.8732790,W,1,24,0.6,0.746,M,-39.960,M,0.0,*67
###2023-11-09 13:10:32.138570$GPGSV,2,1,07,05,20,091,44,10,19,294,39,13,23,045,44,15,60,038,46*77
###2023-11-09 13:10:32.140816$GPGSV,2,2,07,18,78,272,46,23,50,316,45,24,50,134,46,,,,*4B
###2023-11-09 13:10:32.143381$GLGSV,2,1,05,70,49,019,35,71,48,291,48,80,19,089,46,85,56,202,49*6B
###2023-11-09 13:10:32.144982$GLGSV,2,2,05,86,54,306,48,,,,,,,,,,,,*56
###2023-11-09 13:10:32.147549$GAGSV,1,1,04,07,73,259,44,08,48,043,45,13,63,161,45,26,57,310,45*66
###2023-11-09 13:10:32.150119$GBGSV,2,1,06,11,22,180,40,14,65,009,45,24,21,132,43,26,23,080,46*60
###2023-11-09 13:10:32.152037$GBGSV,2,2,06,28,43,286,45,33,59,305,47,,,,,,,,*64
###2023-11-09 13:10:32.153499$GNVTG,309.92,T,,M,5.31,N,9.83,K,A*27
###2023-11-09 13:10:32.232113$GNGGA,131032.40,3611.0616699,N,07544.8734221,W,1,24,0.6,0.747,M,-39.960,M,0.0,*6D
###2023-11-09 13:10:32.234708$GPGSV,2,1,07,05,20,091,44,10,19,294,41,13,23,045,43,15,60,038,46*7F
###2023-11-09 13:10:32.236985$GPGSV,2,2,07,18,78,272,46,23,50,316,45,24,50,134,46,,,,*4B
###2023-11-09 13:10:32.239565$GLGSV,2,1,05,70,49,019,35,71,48,291,48,80,19,089,46,85,56,202,49*6B
###2023-11-09 13:10:32.241170$GLGSV,2,2,05,86,54,306,47,,,,,,,,,,,,*59
###2023-11-09 13:10:32.243736$GAGSV,1,1,04,07,73,259,45,08,48,043,45,13,63,161,45,26,57,310,45*67
###2023-11-09 13:10:32.246317$GBGSV,2,1,06,11,22,180,40,14,65,009,45,24,21,132,43,26,23,080,46*60
###2023-11-09 13:10:32.248260$GBGSV,2,2,06,28,43,286,46,33,59,305,47,,,,,,,,*67
###2023-11-09 13:10:32.249725$GNVTG,307.14,T,,M,5.33,N,9.86,K,A*20
###2023-11-09 13:10:32.344339$GNGGA,131032.50,3611.0617595,N,07544.8735661,W,1,24,0.6,0.741,M,-39.960,M,0.0,*65
###2023-11-09 13:10:32.346923$GPGSV,2,1,07,05,20,091,43,10,19,294,42,13,23,045,42,15,60,038,46*7A
###2023-11-09 13:10:32.349179$GPGSV,2,2,07,18,78,272,46,23,50,316,45,24,50,134,46,,,,*4B
###2023-11-09 13:10:32.351739$GLGSV,2,1,05,70,49,019,35,71,48,291,48,80,19,089,45,85,56,202,49*68
###2023-11-09 13:10:32.353338$GLGSV,2,2,05,86,54,306,47,,,,,,,,,,,,*59
###2023-11-09 13:10:32.355897$GAGSV,1,1,04,07,73,259,45,08,48,043,45,13,63,161,45,26,57,310,45*67
###2023-11-09 13:10:32.358497$GBGSV,2,1,06,11,22,180,41,14,65,009,45,24,21,132,43,26,23,080,45*62
###2023-11-09 13:10:32.360431$GBGSV,2,2,06,28,43,286,46,33,59,305,47,,,,,,,,*67
###2023-11-09 13:10:32.361897$GNVTG,307.09,T,,M,5.25,N,9.72,K,A*20
###2023-11-09 13:10:32.431094$GNGGA,131032.60,3611.0618515,N,07544.8737044,W,1,24,0.6,0.726,M,-39.960,M,0.0,*63
###2023-11-09 13:10:32.433683$GPGSV,2,1,07,05,20,091,43,10,19,294,42,13,23,045,42,15,60,038,46*7A
###2023-11-09 13:10:32.435928$GPGSV,2,2,07,18,78,272,46,23,50,316,44,24,50,134,46,,,,*4A
###2023-11-09 13:10:32.438507$GLGSV,2,1,05,70,49,019,35,71,48,291,48,80,19,089,44,85,56,202,50*61
###2023-11-09 13:10:32.440109$GLGSV,2,2,05,86,54,306,47,,,,,,,,,,,,*59
###2023-11-09 13:10:32.442671$GAGSV,1,1,04,07,73,259,45,08,48,043,45,13,63,161,45,26,57,310,45*67
###2023-11-09 13:10:32.445256$GBGSV,2,1,06,11,22,180,42,14,65,009,44,24,21,132,43,26,23,080,44*61
###2023-11-09 13:10:32.447198$GBGSV,2,2,06,28,43,286,46,33,59,305,47,,,,,,,,*67
###2023-11-09 13:10:32.448660$GNVTG,310.93,T,,M,5.17,N,9.58,K,A*2C
###2023-11-09 13:10:32.531754$GNGGA,131032.70,3611.0619505,N,07544.8738322,W,1,24,0.6,0.714,M,-39.960,M,0.0,*6F
###2023-11-09 13:10:32.534347$GPGSV,2,1,07,05,20,091,43,10,19,294,42,13,23,045,42,15,60,038,46*7A
###2023-11-09 13:10:32.536600$GPGSV,2,2,07,18,78,272,46,23,50,316,45,24,50,134,46,,,,*4B
###2023-11-09 13:10:32.539193$GLGSV,2,1,05,70,49,019,35,71,48,291,48,80,19,089,44,85,56,202,50*61
###2023-11-09 13:10:32.540812$GLGSV,2,2,05,86,54,306,48,,,,,,,,,,,,*56
###2023-11-09 13:10:32.543383$GAGSV,1,1,04,07,73,259,45,08,48,043,45,13,63,161,46,26,57,310,45*64
###2023-11-09 13:10:32.545962$GBGSV,2,1,06,11,22,180,42,14,65,009,44,24,21,132,43,26,23,080,44*61
###2023-11-09 13:10:32.547920$GBGSV,2,2,06,28,43,286,46,33,59,305,47,,,,,,,,*67
###2023-11-09 13:10:32.549383$GNVTG,315.79,T,,M,5.11,N,9.47,K,A*25
###2023-11-09 13:10:32.632125$GNGGA,131032.80,3611.0620584,N,07544.8739478,W,1,24,0.6,0.713,M,-39.960,M,0.0,*6D
###2023-11-09 13:10:32.634703$GPGSV,2,1,07,05,20,091,43,10,19,294,42,13,23,045,42,15,60,038,46*7A
###2023-11-09 13:10:32.636978$GPGSV,2,2,07,18,78,272,46,23,50,316,45,24,50,134,46,,,,*4B
###2023-11-09 13:10:32.639556$GLGSV,2,1,05,70,49,019,35,71,48,291,48,80,19,089,44,85,56,202,50*61
###2023-11-09 13:10:32.641160$GLGSV,2,2,05,86,54,306,48,,,,,,,,,,,,*56
###2023-11-09 13:10:32.643724$GAGSV,1,1,04,07,73,259,45,08,48,043,45,13,63,161,46,26,57,310,45*64
###2023-11-09 13:10:32.646295$GBGSV,2,1,06,11,22,180,41,14,65,009,44,24,21,132,43,26,23,080,44*62
###2023-11-09 13:10:32.648242$GBGSV,2,2,06,28,43,286,46,33,59,305,47,,,,,,,,*67
###2023-11-09 13:10:32.649705$GNVTG,321.44,T,,M,5.17,N,9.58,K,A*24
###2023-11-09 13:10:32.731344$GNGGA,131032.90,3611.0621675,N,07544.8740608,W,1,24,0.6,0.705,M,-39.960,M,0.0,*6C
###2023-11-09 13:10:32.733917$GPGSV,2,1,07,05,20,091,44,10,19,294,41,13,23,045,43,15,60,038,46*7F
###2023-11-09 13:10:32.736163$GPGSV,2,2,07,18,78,272,46,23,50,316,45,24,50,134,46,,,,*4B
###2023-11-09 13:10:32.738749$GLGSV,2,1,05,70,49,019,35,71,48,291,47,80,19,089,45,85,56,202,49*67
###2023-11-09 13:10:32.740354$GLGSV,2,2,05,86,54,306,48,,,,,,,,,,,,*56
###2023-11-09 13:10:32.742920$GAGSV,1,1,04,07,73,259,45,08,48,043,45,13,63,161,45,26,57,310,45*67
###2023-11-09 13:10:32.745482$GBGSV,2,1,06,11,22,180,41,14,65,009,44,24,21,132,43,26,23,080,45*63
###2023-11-09 13:10:32.747416$GBGSV,2,2,06,28,43,286,46,33,59,305,47,,,,,,,,*67
###2023-11-09 13:10:32.748874$GNVTG,317.68,T,,M,5.07,N,9.40,K,A*27
###2023-11-09 13:10:32.833616$GNGGA,131033.00,3611.0622624,N,07544.8741841,W,1,24,0.6,0.678,M,-39.960,M,0.0,*6A
###2023-11-09 13:10:32.836223$GPGSV,2,1,07,05,20,091,44,10,19,294,41,13,23,045,44,15,60,038,46*78
###2023-11-09 13:10:32.838506$GPGSV,2,2,07,18,78,272,46,23,50,316,45,24,50,134,46,,,,*4B
###2023-11-09 13:10:32.841079$GLGSV,2,1,05,70,49,019,35,71,48,291,47,80,19,089,45,85,56,202,49*67
###2023-11-09 13:10:32.842681$GLGSV,2,2,05,86,54,306,48,,,,,,,,,,,,*56
###2023-11-09 13:10:32.845251$GAGSV,1,1,04,07,73,259,45,08,48,043,45,13,63,161,45,26,57,310,45*67
###2023-11-09 13:10:32.847853$GBGSV,2,1,06,11,22,180,40,14,65,009,45,24,21,132,43,26,23,080,45*63
###2023-11-09 13:10:32.849794$GBGSV,2,2,06,28,43,286,46,33,59,305,47,,,,,,,,*67
###2023-11-09 13:10:32.851262$GNVTG,308.38,T,,M,4.84,N,8.96,K,A*2C
###2023-11-09 13:10:32.932249$GNGGA,131033.10,3611.0623395,N,07544.8743167,W,1,24,0.6,0.646,M,-39.960,M,0.0,*67
###2023-11-09 13:10:32.934867$GPGSV,2,1,07,05,20,091,44,10,19,294,40,13,23,045,44,15,60,038,46*79
###2023-11-09 13:10:32.937150$GPGSV,2,2,07,18,78,272,46,23,50,316,45,24,50,134,46,,,,*4B
###2023-11-09 13:10:32.939733$GLGSV,2,1,05,70,49,019,35,71,48,291,47,80,19,089,46,85,56,202,49*64
###2023-11-09 13:10:32.941346$GLGSV,2,2,05,86,54,306,48,,,,,,,,,,,,*56
###2023-11-09 13:10:32.943927$GAGSV,1,1,04,07,73,259,45,08,48,043,46,13,63,161,45,26,57,310,45*64
###2023-11-09 13:10:32.946514$GBGSV,2,1,06,11,22,180,40,14,65,009,45,24,21,132,43,26,23,080,45*63
###2023-11-09 13:10:32.948464$GBGSV,2,2,06,28,43,286,46,33,59,305,47,,,,,,,,*67
###2023-11-09 13:10:32.949934$GNVTG,302.08,T,,M,4.65,N,8.60,K,A*23
###2023-11-09 13:10:33.034214$GNGGA,131033.20,3611.0624075,N,07544.8744480,W,1,24,0.6,0.622,M,-39.960,M,0.0,*67
###2023-11-09 13:10:33.036774$GPGSV,2,1,07,05,20,091,44,10,19,294,41,13,23,045,42,15,60,038,46*7E
###2023-11-09 13:10:33.039021$GPGSV,2,2,07,18,78,272,46,23,50,316,45,24,50,134,46,,,,*4B
###2023-11-09 13:10:33.041572$GLGSV,2,1,05,70,49,019,35,71,48,291,48,80,19,089,45,85,56,202,49*68
###2023-11-09 13:10:33.043472$GLGSV,2,2,05,86,54,306,47,,,,,,,,,,,,*59
###2023-11-09 13:10:33.046042$GAGSV,1,1,04,07,73,259,45,08,48,043,45,13,63,161,45,26,57,310,44*66
###2023-11-09 13:10:33.048616$GBGSV,2,1,06,11,22,180,41,14,65,009,45,24,21,132,44,26,23,080,45*65
###2023-11-09 13:10:33.050538$GBGSV,2,2,06,28,43,286,46,33,59,305,47,,,,,,,,*67
###2023-11-09 13:10:33.051988$GNVTG,302.21,T,,M,4.41,N,8.17,K,A*2E
###2023-11-09 13:10:33.135350$GNGGA,131033.30,3611.0624778,N,07544.8745680,W,1,24,0.6,0.615,M,-39.960,M,0.0,*6B
###2023-11-09 13:10:33.137954$GPGSV,2,1,07,05,20,091,43,10,19,294,41,13,23,045,41,15,60,038,46*7A
###2023-11-09 13:10:33.140199$GPGSV,2,2,07,18,78,272,46,23,50,316,45,24,50,134,46,,,,*4B
###2023-11-09 13:10:33.142754$GLGSV,2,1,05,70,49,019,35,71,48,291,48,80,19,089,44,85,56,202,50*61
###2023-11-09 13:10:33.144354$GLGSV,2,2,05,86,54,306,47,,,,,,,,,,,,*59
