###2023-11-09 13:07:09.141252$GAGSV,1,1,04,07,72,257,45,08,49,042,44,13,64,160,44,26,56,311,44*6F
###2023-11-09 13:07:09.143860$GBGSV,2,1,06,11,24,180,42,14,65,006,46,24,19,133,43,26,23,082,41*67
###2023-11-09 13:07:09.145810$GBGSV,2,2,06,28,43,289,47,33,58,302,47,,,,,,,,*6F
###2023-11-09 13:07:09.147309$GNVTG,324.98,T,,M,0.56,N,1.04,K,A*21
###2023-11-09 13:07:09.230377$GNGGA,130709.40,3611.0506835,N,07544.9778860,W,1,24,0.6,1.037,M,-39.961,M,0.0,*6F
###2023-11-09 13:07:09.232962$GPGSV,2,1,07,05,21,090,42,10,18,292,44,13,24,045,40,15,62,037,46*72
###2023-11-09 13:07:09.235212$GPGSV,2,2,07,18,77,281,47,23,50,315,45,24,49,136,46,,,,*40
###2023-11-09 13:07:09.237804$GLGSV,2,1,05,70,50,016,36,71,48,288,47,80,17,091,43,85,58,203,48*64
###2023-11-09 13:07:09.239415$GLGSV,2,2,05,86,52,309,47,,,,,,,,,,,,*50
###2023-11-09 13:07:09.241974$GAGSV,1,1,04,07,72,257,45,08,49,042,44,13,64,160,44,26,56,311,44*6F
###2023-11-09 13:07:09.244548$GBGSV,2,1,06,11,24,180,42,14,65,006,46,24,19,133,43,26,23,082,41*67
###2023-11-09 13:07:09.246476$GBGSV,2,2,06,28,43,289,47,33,58,302,47,,,,,,,,*6F
###2023-11-09 13:07:09.247960$GNVTG,324.98,T,,M,0.72,N,1.33,K,A*23
###2023-11-09 13:07:09.329360$GNGGA,130709.50,3611.0507056,N,07544.9778786,W,1,24,0.6,1.010,M,-39.961,M,0.0,*60
###2023-11-09 13:07:09.331931$GPGSV,2,1,07,05,21,090,42,10,18,292,44,13,24,045,40,15,62,037,46*72
###2023-11-09 13:07:09.334175$GPGSV,2,2,07,18,77,281,47,23,50,315,45,24,49,136,46,,,,*40
###2023-11-09 13:07:09.336721$GLGSV,2,1,05,70,50,016,36,71,48,288,47,80,17,091,43,85,58,203,48*64
###2023-11-09 13:07:09.338330$GLGSV,2,2,05,86,52,309,47,,,,,,,,,,,,*50
###2023-11-09 13:07:09.340880$GAGSV,1,1,04,07,72,257,45,08,49,042,44,13,64,160,44,26,56,311,44*6F
###2023-11-09 13:07:09.343439$GBGSV,2,1,06,11,24,180,42,14,65,006,46,24,19,133,43,26,23,082,41*67
###2023-11-09 13:07:09.345354$GBGSV,2,2,06,28,43,289,47,33,58,302,47,,,,,,,,*6F
###2023-11-09 13:07:09.346804$GNVTG,324.98,T,,M,0.89,N,1.66,K,A*27
###2023-11-09 13:07:09.429163$GNGGA,130709.60,3611.0507302,N,07544.9778680,W,1,24,0.6,0.995,M,-39.961,M,0.0,*63
###2023-11-09 13:07:09.431757$GPGSV,2,1,07,05,21,090,42,10,18,292,44,13,24,045,40,15,62,037,46*72
###2023-11-09 13:07:09.434005$GPGSV,2,2,07,18,77,281,47,23,50,315,45,24,49,136,46,,,,*40
###2023-11-09 13:07:09.436578$GLGSV,2,1,05,70,50,016,36,71,48,288,47,80,17,091,43,85,58,203,48*64
###2023-11-09 13:07:09.438208$GLGSV,2,2,05,86,52,309,47,,,,,,,,,,,,*50
###2023-11-09 13:07:09.440788$GAGSV,1,1,04,07,72,257,45,08,49,042,44,13,64,160,44,26,56,311,44*6F
###2023-11-09 13:07:09.443379$GBGSV,2,1,06,11,24,180,42,14,65,006,46,24,19,133,43,26,23,082,41*67
###2023-11-09 13:07:09.445325$GBGSV,2,2,06,28,43,289,47,33,58,302,47,,,,,,,,*6F
###2023-11-09 13:07:09.446799$GNVTG,324.98,T,,M,0.95,N,1.76,K,A*2B
###2023-11-09 13:07:09.529894$GNGGA,130709.70,3611.0507554,N,07544.9778554,W,1,24,0.6,0.980,M,-39.961,M,0.0,*69
###2023-11-09 13:07:09.532503$GPGSV,2,1,07,05,21,090,42,10,18,292,44,13,24,045,40,15,62,037,46*72
###2023-11-09 13:07:09.534769$GPGSV,2,2,07,18,77,281,47,23,50,315,45,24,49,136,46,,,,*40
###2023-11-09 13:07:09.537353$GLGSV,2,1,05,70,50,016,36,71,48,288,47,80,17,091,43,85,58,203,48*64
###2023-11-09 13:07:09.538967$GLGSV,2,2,05,86,52,309,47,,,,,,,,,,,,*50
###2023-11-09 13:07:09.541534$GAGSV,1,1,04,07,72,257,45,08,49,042,44,13,64,160,44,26,56,311,45*6E
###2023-11-09 13:07:09.544115$GBGSV,2,1,06,11,24,180,42,14,65,006,46,24,19,133,43,26,23,082,41*67
###2023-11-09 13:07:09.546056$GBGSV,2,2,06,28,43,289,47,33,58,302,47,,,,,,,,*6F
###2023-11-09 13:07:09.547548$GNVTG,324.98,T,,M,0.97,N,1.80,K,A*20
###2023-11-09 13:07:09.630105$GNGGA,130709.80,3611.0507791,N,07544.9778427,W,1,24,0.6,0.964,M,-39.961,M,0.0,*62
###2023-11-09 13:07:09.632676$GPGSV,2,1,07,05,21,090,42,10,18,292,44,13,24,045,42,15,62,037,46*70
###2023-11-09 13:07:09.634918$GPGSV,2,2,07,18,77,281,47,23,50,315,45,24,49,136,46,,,,*40
###2023-11-09 13:07:09.637486$GLGSV,2,1,05,70,50,016,36,71,48,288,47,80,17,091,43,85,58,203,48*64
###2023-11-09 13:07:09.639083$GLGSV,2,2,05,86,52,309,47,,,,,,,,,,,,*50
###2023-11-09 13:07:09.641637$GAGSV,1,1,04,07,72,257,45,08,49,042,44,13,64,160,44,26,56,311,45*6E
###2023-11-09 13:07:09.644203$GBGSV,2,1,06,11,24,180,42,14,65,006,46,24,19,133,43,26,23,082,42*64
###2023-11-09 13:07:09.646126$GBGSV,2,2,06,28,43,289,47,33,58,302,47,,,,,,,,*6F
###2023-11-09 13:07:09.647589$GNVTG,324.98,T,,M,0.84,N,1.55,K,A*2A
###2023-11-09 13:07:09.729260$GNGGA,130709.90,3611.0507996,N,07544.9778304,W,1,24,0.6,0.960,M,-39.961,M,0.0,*68
###2023-11-09 13:07:09.731854$GPGSV,2,1,07,05,21,090,42,10,18,292,44,13,24,045,42,15,62,037,46*70
###2023-11-09 13:07:09.734113$GPGSV,2,2,07,18,77,281,47,23,50,315,45,24,49,136,46,,,,*40
###2023-11-09 13:07:09.736698$GLGSV,2,1,05,70,50,016,36,71,48,288,47,80,17,091,44,85,58,203,47*6C
###2023-11-09 13:07:09.738323$GLGSV,2,2,05,86,52,309,48,,,,,,,,,,,,*5F
###2023-11-09 13:07:09.740894$GAGSV,1,1,04,07,72,257,45,08,49,042,44,13,64,160,44,26,56,311,45*6E
###2023-11-09 13:07:09.743476$GBGSV,2,1,06,11,24,180,42,14,65,006,46,24,19,133,43,26,23,082,42*64
###2023-11-09 13:07:09.745415$GBGSV,2,2,06,28,43,289,47,33,58,302,47,,,,,,,,*6F
###2023-11-09 13:07:09.746884$GNVTG,324.98,T,,M,0.76,N,1.40,K,A*23
###2023-11-09 13:07:09.833750$GNGGA,130710.00,3611.0508187,N,07544.9778182,W,1,24,0.6,0.960,M,-39.961,M,0.0,*62
###2023-11-09 13:07:09.836356$GPGSV,2,1,07,05,21,090,42,10,18,292,44,13,24,045,42,15,62,037,46*70
###2023-11-09 13:07:09.838632$GPGSV,2,2,07,18,77,281,47,23,50,315,45,24,49,136,46,,,,*40
###2023-11-09 13:07:09.841218$GLGSV,2,1,05,70,50,016,36,71,48,288,47,80,17,091,44,85,58,203,47*6C
###2023-11-09 13:07:09.842836$GLGSV,2,2,05,86,52,309,48,,,,,,,,,,,,*5F
###2023-11-09 13:07:09.845405$GAGSV,1,1,04,07,72,257,45,08,49,042,44,13,64,160,44,26,56,311,45*6E
###2023-11-09 13:07:09.848009$GBGSV,2,1,06,11,24,180,42,14,65,006,46,24,19,133,43,26,23,082,42*64
###2023-11-09 13:07:09.849957$GBGSV,2,2,06,28,43,289,47,33,58,302,47,,,,,,,,*6F
###2023-11-09 13:07:09.851432$GNVTG,324.98,T,,M,0.76,N,1.40,K,A*23
###2023-11-09 13:07:09.932236$GNGGA,130710.10,3611.0508391,N,07544.9778064,W,1,24,0.6,0.963,M,-39.961,M,0.0,*6C
###2023-11-09 13:07:09.934816$GPGSV,2,1,07,05,21,090,42,10,18,292,44,13,24,045,42,15,62,037,46*70
###2023-11-09 13:07:09.937083$GPGSV,2,2,07,18,77,281,47,23,50,315,45,24,49,136,46,,,,*40
###2023-11-09 13:07:09.939653$GLGSV,2,1,05,70,50,016,36,71,48,288,48,80,17,091,44,85,58,203,48*6C
###2023-11-09 13:07:09.941265$GLGSV,2,2,05,86,52,309,48,,,,,,,,,,,,*5F
###2023-11-09 13:07:09.943816$GAGSV,1,1,04,07,72,257,45,08,49,042,44,13,64,160,44,26,56,311,45*6E
###2023-11-09 13:07:09.946390$GBGSV,2,1,06,11,24,180,42,14,65,006,46,24,19,133,44,26,23,082,42*63
###2023-11-09 13:07:09.948337$GBGSV,2,2,06,28,43,289,47,33,58,302,47,,,,,,,,*6F
###2023-11-09 13:07:09.949817$GNVTG,324.98,T,,M,0.84,N,1.55,K,A*2A
###2023-11-09 13:07:10.029396$GNGGA,130710.20,3611.0508626,N,07544.9777933,W,1,24,0.6,0.971,M,-39.961,M,0.0,*61
###2023-11-09 13:07:10.032000$GPGSV,2,1,07,05,21,090,42,10,18,292,44,13,24,045,42,15,62,037,46*70
###2023-11-09 13:07:10.034257$GPGSV,2,2,07,18,77,281,47,23,50,315,45,24,49,136,46,,,,*40
###2023-11-09 13:07:10.036836$GLGSV,2,1,05,70,50,016,36,71,48,288,48,80,17,091,44,85,58,203,48*6C
###2023-11-09 13:07:10.038457$GLGSV,2,2,05,86,52,309,48,,,,,,,,,,,,*5F
###2023-11-09 13:07:10.041022$GAGSV,1,1,04,07,72,257,45,08,49,042,44,13,64,160,44,26,56,311,45*6E
###2023-11-09 13:07:10.043590$GBGSV,2,1,06,11,24,180,42,14,65,006,45,24,19,133,44,26,23,082,42*60
###2023-11-09 13:07:10.045515$GBGSV,2,2,06,28,43,289,47,33,58,302,47,,,,,,,,*6F
###2023-11-09 13:07:10.046985$GNVTG,324.98,T,,M,0.97,N,1.80,K,A*20
###2023-11-09 13:07:10.129254$GNGGA,130710.30,3611.0508886,N,07544.9777804,W,1,24,0.6,0.985,M,-39.961,M,0.0,*6A
###2023-11-09 13:07:10.131850$GPGSV,2,1,07,05,21,090,42,10,18,292,43,13,24,045,42,15,62,037,46*77
###2023-11-09 13:07:10.134098$GPGSV,2,2,07,18,77,281,47,23,50,315,45,24,49,136,46,,,,*40
###2023-11-09 13:07:10.136675$GLGSV,2,1,05,70,50,016,36,71,48,288,48,80,17,091,44,85,58,203,48*6C
###2023-11-09 13:07:10.138301$GLGSV,2,2,05,86,52,309,47,,,,,,,,,,,,*50
###2023-11-09 13:07:10.141158$GAGSV,1,1,04,07,72,257,45,08,49,042,44,13,64,160,44,26,56,311,45*6E
###2023-11-09 13:07:10.143748$GBGSV,2,1,06,11,24,180,42,14,65,006,45,24,19,133,44,26,23,082,42*60
###2023-11-09 13:07:10.145687$GBGSV,2,2,06,28,43,289,47,33,58,302,47,,,,,,,,*6F
###2023-11-09 13:07:10.147145$GNVTG,19.47,T,,M,1.03,N,1.91,K,A*13
###2023-11-09 13:07:10.227367$GNGGA,130710.40,3611.0509174,N,07544.9777690,W,1,24,0.6,0.985,M,-39.961,M,0.0,*6B
###2023-11-09 13:07:10.229953$GPGSV,2,1,07,05,21,090,42,10,18,292,43,13,24,045,42,15,62,037,46*77
###2023-11-09 13:07:10.232195$GPGSV,2,2,07,18,77,281,47,23,50,315,45,24,49,136,46,,,,*40
###2023-11-09 13:07:10.234764$GLGSV,2,1,05,70,50,016,36,71,48,288,48,80,17,091,44,85,58,203,48*6C
###2023-11-09 13:07:10.236368$GLGSV,2,2,05,86,52,309,48,,,,,,,,,,,,*5F
###2023-11-09 13:07:10.238948$GAGSV,1,1,04,07,72,257,45,08,49,042,44,13,64,160,44,26,56,311,45*6E
