###2023-11-09 13:06:15.236515$GPGSV,2,1,07,05,21,089,42,10,17,292,44,13,25,045,39,15,62,036,46*7B
###2023-11-09 13:06:15.238815$GPGSV,2,2,07,18,77,282,47,23,49,314,46,24,49,137,45,,,,*4B
###2023-11-09 13:06:15.241403$GLGSV,1,1,04,71,48,288,49,80,17,091,44,85,58,203,48,86,52,309,48*60
###2023-11-09 13:06:15.243975$GAGSV,1,1,04,07,72,255,45,08,49,042,44,13,64,160,44,26,56,311,45*6C
###2023-11-09 13:06:15.246562$GBGSV,2,1,06,11,24,180,41,14,65,006,45,24,19,133,42,26,23,082,42*65
###2023-11-09 13:06:15.248513$GBGSV,2,2,06,28,43,289,48,33,58,302,47,,,,,,,,*60
###2023-11-09 13:06:15.249945$GNVTG,58.88,T,,M,1.57,N,2.92,K,A*14
###2023-11-09 13:06:15.330237$GNGGA,130615.50,3611.0398216,N,07544.9823212,W,1,23,0.6,0.943,M,-39.962,M,0.0,*69
###2023-11-09 13:06:15.332816$GPGSV,2,1,07,05,21,089,42,10,17,292,43,13,25,045,41,15,62,036,46*73
###2023-11-09 13:06:15.335059$GPGSV,2,2,07,18,77,282,47,23,49,314,46,24,49,137,45,,,,*4B
###2023-11-09 13:06:15.337639$GLGSV,1,1,04,71,48,288,49,80,17,091,45,85,58,203,47,86,52,309,48*6E
###2023-11-09 13:06:15.340209$GAGSV,1,1,04,07,72,255,45,08,49,042,45,13,64,160,44,26,56,311,45*6D
###2023-11-09 13:06:15.342769$GBGSV,2,1,06,11,24,180,41,14,65,006,45,24,19,133,42,26,23,082,43*64
###2023-11-09 13:06:15.344700$GBGSV,2,2,06,28,43,289,47,33,58,302,47,,,,,,,,*6F
###2023-11-09 13:06:15.346122$GNVTG,61.47,T,,M,1.38,N,2.56,K,A*1C
###2023-11-09 13:06:15.429772$GNGGA,130615.60,3611.0398376,N,07544.9822826,W,1,23,0.6,0.949,M,-39.962,M,0.0,*6B
###2023-11-09 13:06:15.432374$GPGSV,2,1,07,05,21,089,43,10,17,292,43,13,25,045,42,15,62,036,46*71
###2023-11-09 13:06:15.434635$GPGSV,2,2,07,18,77,282,47,23,49,314,46,24,49,137,45,,,,*4B
###2023-11-09 13:06:15.437218$GLGSV,1,1,04,71,48,288,49,80,17,091,45,85,58,203,47,86,52,309,48*6E
###2023-11-09 13:06:15.439807$GAGSV,1,1,04,07,72,255,45,08,49,042,45,13,64,160,44,26,56,311,45*6D
###2023-11-09 13:06:15.442397$GBGSV,2,1,06,11,24,180,40,14,65,006,45,24,19,133,42,26,23,082,44*62
###2023-11-09 13:06:15.444332$GBGSV,2,2,06,28,43,289,47,33,58,302,47,,,,,,,,*6F
###2023-11-09 13:06:15.445762$GNVTG,63.31,T,,M,1.17,N,2.16,K,A*16
###2023-11-09 13:06:15.531615$GNGGA,130615.70,3611.0398498,N,07544.9822495,W,1,23,0.6,0.956,M,-39.962,M,0.0,*67
###2023-11-09 13:06:15.534206$GPGSV,2,1,07,05,21,089,43,10,17,292,43,13,25,045,42,15,62,036,46*71
###2023-11-09 13:06:15.536467$GPGSV,2,2,07,18,77,282,47,23,49,314,46,24,49,137,45,,,,*4B
###2023-11-09 13:06:15.539076$GLGSV,1,1,04,71,48,288,49,80,17,091,45,85,58,203,47,86,52,309,48*6E
###2023-11-09 13:06:15.541656$GAGSV,1,1,04,07,72,255,45,08,49,042,45,13,64,160,44,26,56,311,45*6D
###2023-11-09 13:06:15.544250$GBGSV,2,1,06,11,24,180,40,14,65,006,46,24,19,133,42,26,23,082,44*61
###2023-11-09 13:06:15.546197$GBGSV,2,2,06,28,43,289,47,33,58,302,47,,,,,,,,*6F
###2023-11-09 13:06:15.547648$GNVTG,63.31,T,,M,0.95,N,1.76,K,A*18
###2023-11-09 13:06:15.630596$GNGGA,130615.80,3611.0398601,N,07544.9822218,W,1,23,0.6,0.960,M,-39.962,M,0.0,*6C
###2023-11-09 13:06:15.633176$GPGSV,2,1,07,05,21,089,43,10,17,292,43,13,25,045,42,15,62,036,46*71
###2023-11-09 13:06:15.635412$GPGSV,2,2,07,18,77,282,47,23,49,314,45,24,49,137,45,,,,*48
###2023-11-09 13:06:15.637985$GLGSV,1,1,04,71,48,288,49,80,17,091,45,85,58,203,47,86,52,309,48*6E
###2023-11-09 13:06:15.640544$GAGSV,1,1,04,07,72,255,45,08,49,042,45,13,64,160,44,26,56,311,45*6D
###2023-11-09 13:06:15.643123$GBGSV,2,1,06,11,24,180,40,14,65,006,46,24,19,133,42,26,23,082,43*66
###2023-11-09 13:06:15.645067$GBGSV,2,2,06,28,43,289,47,33,58,302,47,,,,,,,,*6F
###2023-11-09 13:06:15.646500$GNVTG,63.31,T,,M,0.84,N,1.55,K,A*19
###2023-11-09 13:06:15.730644$GNGGA,130615.90,3611.0398715,N,07544.9821952,W,1,23,0.6,0.965,M,-39.962,M,0.0,*6A
###2023-11-09 13:06:15.733253$GPGSV,2,1,07,05,21,089,43,10,17,292,43,13,25,045,40,15,62,036,46*73
###2023-11-09 13:06:15.735507$GPGSV,2,2,07,18,77,282,47,23,49,314,45,24,49,137,45,,,,*48
###2023-11-09 13:06:15.738108$GLGSV,1,1,04,71,48,288,49,80,17,091,45,85,58,203,48,86,52,309,48*61
###2023-11-09 13:06:15.740694$GAGSV,1,1,04,07,72,255,45,08,49,042,45,13,64,160,44,26,56,311,45*6D
###2023-11-09 13:06:15.743281$GBGSV,2,1,06,11,24,180,40,14,65,006,45,24,19,133,42,26,23,082,43*65
###2023-11-09 13:06:15.745229$GBGSV,2,2,06,28,43,289,47,33,58,302,47,,,,,,,,*6F
###2023-11-09 13:06:15.746657$GNVTG,63.31,T,,M,0.91,N,1.69,K,A*12
###2023-11-09 13:06:15.832763$GNGGA,130616.00,3611.0398849,N,07544.9821653,W,1,23,0.6,0.970,M,-39.962,M,0.0,*6C
###2023-11-09 13:06:15.835365$GPGSV,2,1,07,05,21,089,43,10,17,292,43,13,25,045,39,15,62,036,46*7D
###2023-11-09 13:06:15.837651$GPGSV,2,2,07,18,77,282,47,23,49,314,45,24,49,137,45,,,,*48
###2023-11-09 13:06:15.840224$GLGSV,1,1,04,71,48,288,49,80,17,091,44,85,58,203,48,86,52,309,48*60
###2023-11-09 13:06:15.842811$GAGSV,1,1,04,07,72,255,45,08,49,042,45,13,64,160,44,26,56,311,45*6D
###2023-11-09 13:06:15.845403$GBGSV,2,1,06,11,24,180,40,14,65,006,45,24,19,133,42,26,23,082,42*64
###2023-11-09 13:06:15.847347$GBGSV,2,2,06,28,43,289,48,33,58,302,47,,,,,,,,*60
###2023-11-09 13:06:15.848782$GNVTG,61.02,T,,M,1.07,N,1.98,K,A*10
###2023-11-09 13:06:15.935613$GNGGA,130616.10,3611.0399015,N,07544.9821313,W,1,23,0.6,0.976,M,-39.962,M,0.0,*6A
###2023-11-09 13:06:15.938210$GPGSV,2,1,07,05,21,089,42,10,17,292,43,13,25,045,39,15,62,036,46*7C
###2023-11-09 13:06:15.940451$GPGSV,2,2,07,18,77,282,47,23,49,314,46,24,49,137,45,,,,*4B
###2023-11-09 13:06:15.943021$GLGSV,1,1,04,71,48,288,49,80,17,091,44,85,58,203,48,86,52,309,48*60
###2023-11-09 13:06:15.945581$GAGSV,1,1,04,07,72,255,45,08,49,042,44,13,64,160,44,26,56,311,45*6C
###2023-11-09 13:06:15.948153$GBGSV,2,1,06,11,24,180,40,14,65,006,45,24,19,133,42,26,23,082,42*64
###2023-11-09 13:06:15.950093$GBGSV,2,2,06,28,43,289,47,33,58,302,47,,,,,,,,*6F
###2023-11-09 13:06:15.951550$GNVTG,56.94,T,,M,1.24,N,2.30,K,A*1B
###2023-11-09 13:06:16.033228$GNGGA,130616.20,3611.0399227,N,07544.9820939,W,1,23,0.6,0.983,M,-39.962,M,0.0,*63
###2023-11-09 13:06:16.035816$GPGSV,2,1,07,05,21,089,42,10,17,292,44,13,25,045,39,15,62,036,46*7B
###2023-11-09 13:06:16.038088$GPGSV,2,2,07,18,77,282,47,23,49,314,46,24,49,137,45,,,,*4B
###2023-11-09 13:06:16.040656$GLGSV,1,1,04,71,48,288,49,80,17,091,44,85,58,203,48,86,52,309,48*60
###2023-11-09 13:06:16.043228$GAGSV,1,1,04,07,72,255,45,08,49,042,44,13,64,160,44,26,56,311,45*6C
###2023-11-09 13:06:16.045805$GBGSV,2,1,06,11,24,180,41,14,65,006,45,24,19,133,42,26,23,082,42*65
###2023-11-09 13:06:16.047753$GBGSV,2,2,06,28,43,289,47,33,58,302,47,,,,,,,,*6F
###2023-11-09 13:06:16.049183$GNVTG,53.32,T,,M,1.42,N,2.63,K,A*14
###2023-11-09 13:06:16.133251$GNGGA,130616.30,3611.0399449,N,07544.9820568,W,1,23,0.6,0.989,M,-39.962,M,0.0,*6E
###2023-11-09 13:06:16.135859$GPGSV,2,1,07,05,21,089,42,10,17,292,44,13,25,045,39,15,62,036,46*7B
###2023-11-09 13:06:16.138122$GPGSV,2,2,07,18,77,282,47,23,49,314,46,24,49,137,45,,,,*4B
###2023-11-09 13:06:16.140697$GLGSV,1,1,04,71,48,288,49,80,17,091,44,85,58,203,48,86,52,309,48*60
###2023-11-09 13:06:16.143275$GAGSV,1,1,04,07,72,255,45,08,49,042,44,13,64,160,45,26,56,311,45*6D
###2023-11-09 13:06:16.145875$GBGSV,2,1,06,11,24,180,41,14,65,006,45,24,19,133,42,26,23,082,42*65
###2023-11-09 13:06:16.147824$GBGSV,2,2,06,28,43,289,47,33,58,302,47,,,,,,,,*6F
###2023-11-09 13:06:16.149254$GNVTG,55.69,T,,M,1.30,N,2.41,K,A*19
###2023-11-09 13:06:16.231464$GNGGA,130616.40,3611.0399654,N,07544.9820216,W,1,23,0.6,1.004,M,-39.962,M,0.0,*64
###2023-11-09 13:06:16.234038$GPGSV,2,1,07,05,21,089,42,10,17,292,44,13,25,045,41,15,62,036,46*74
###2023-11-09 13:06:16.236272$GPGSV,2,2,07,18,77,282,47,23,49,314,46,24,49,137,45,,,,*4B
###2023-11-09 13:06:16.238833$GLGSV,1,1,04,71,48,288,49,80,17,091,44,85,58,203,48,86,52,309,48*60
###2023-11-09 13:06:16.241381$GAGSV,1,1,04,07,72,255,45,08,49,042,45,13,64,160,45,26,56,311,45*6C
###2023-11-09 13:06:16.243932$GBGSV,2,1,06,11,24,180,41,14,65,006,45,24,19,133,42,26,23,082,43*64
###2023-11-09 13:06:16.245848$GBGSV,2,2,06,28,43,289,47,33,58,302,47,,,,,,,,*6F
###2023-11-09 13:06:16.247274$GNVTG,54.45,T,,M,1.24,N,2.30,K,A*15
###2023-11-09 13:06:16.331215$GNGGA,130616.50,3611.0399854,N,07544.9819882,W,1,23,0.6,1.017,M,-39.962,M,0.0,*64
###2023-11-09 13:06:16.334123$GPGSV,2,1,07,05,21,089,43,10,17,292,44,13,25,045,41,15,62,036,46*75
###2023-11-09 13:06:16.336393$GPGSV,2,2,07,18,77,282,47,23,49,314,46,24,49,137,45,,,,*4B
###2023-11-09 13:06:16.338991$GLGSV,1,1,04,71,48,288,49,80,17,091,45,85,58,203,48,86,52,309,48*61
###2023-11-09 13:06:16.341564$GAGSV,1,1,04,07,72,255,45,08,49,042,45,13,64,160,45,26,56,311,45*6C
###2023-11-09 13:06:16.344137$GBGSV,2,1,06,11,24,180,40,14,65,006,45,24,19,133,42,26,23,082,43*65
###2023-11-09 13:06:16.346079$GBGSV,2,2,06,28,43,289,47,33,58,302,47,,,,,,,,*6F
###2023-11-09 13:06:16.347531$GNVTG,54.93,T,,M,1.19,N,2.20,K,A*11
###2023-11-09 13:06:16.432754$GNGGA,130616.60,3611.0400020,N,07544.9819558,W,1,24,0.6,1.031,M,-39.962,M,0.0,*62
###2023-11-09 13:06:16.435346$GPGSV,2,1,07,05,21,089,43,10,17,292,44,13,25,045,41,15,62,036,46*75
###2023-11-09 13:06:16.437641$GPGSV,2,2,07,18,77,282,47,23,49,314,45,24,49,137,45,,,,*48
###2023-11-09 13:06:16.440213$GLGSV,2,1,05,70,50,016,35,71,48,288,49,80,17,091,45,85,58,203,48*6F
###2023-11-09 13:06:16.441814$GLGSV,2,2,05,86,52,309,48,,,,,,,,,,,,*5F
