###2023-11-09 13:07:29.237593$GPGSV,2,1,07,05,21,090,41,10,18,292,42,13,24,045,42,15,62,037,45*76
###2023-11-09 13:07:29.239870$GPGSV,2,2,07,18,77,281,47,23,50,315,45,24,49,136,46,,,,*40
###2023-11-09 13:07:29.242469$GLGSV,2,1,05,70,50,016,35,71,48,288,48,80,17,091,43,85,58,203,48*68
###2023-11-09 13:07:29.244082$GLGSV,2,2,05,86,52,309,47,,,,,,,,,,,,*50
###2023-11-09 13:07:29.246650$GAGSV,1,1,04,07,72,257,45,08,49,042,44,13,64,160,44,26,56,310,45*6F
###2023-11-09 13:07:29.249250$GBGSV,2,1,06,11,24,180,41,14,65,006,45,24,19,133,44,26,23,082,43*62
###2023-11-09 13:07:29.251198$GBGSV,2,2,06,28,43,289,47,33,58,302,47,,,,,,,,*6F
###2023-11-09 13:07:29.252629$GNVTG,18.47,T,,M,0.60,N,1.12,K,A*1D
###2023-11-09 13:07:29.331723$GNGGA,130729.50,3611.0549007,N,07544.9770056,W,1,24,0.6,1.213,M,-39.961,M,0.0,*6F
###2023-11-09 13:07:29.334319$GPGSV,2,1,07,05,21,090,41,10,18,292,42,13,24,045,42,15,62,037,45*76
###2023-11-09 13:07:29.336577$GPGSV,2,2,07,18,77,281,47,23,50,315,45,24,49,136,46,,,,*40
###2023-11-09 13:07:29.339170$GLGSV,2,1,05,70,50,016,35,71,48,288,47,80,17,091,43,85,58,203,48*67
###2023-11-09 13:07:29.340786$GLGSV,2,2,05,86,52,309,47,,,,,,,,,,,,*50
###2023-11-09 13:07:29.343359$GAGSV,1,1,04,07,72,257,45,08,49,042,44,13,64,160,44,26,56,310,45*6F
###2023-11-09 13:07:29.345943$GBGSV,2,1,06,11,24,180,41,14,65,006,45,24,19,133,44,26,23,082,43*62
###2023-11-09 13:07:29.347899$GBGSV,2,2,06,28,43,289,47,33,58,302,47,,,,,,,,*6F
###2023-11-09 13:07:29.349332$GNVTG,18.47,T,,M,0.58,N,1.08,K,A*1D
###2023-11-09 13:07:29.430709$GNGGA,130729.60,3611.0549170,N,07544.9770081,W,1,24,0.6,1.202,M,-39.961,M,0.0,*67
###2023-11-09 13:07:29.433303$GPGSV,2,1,07,05,21,090,41,10,18,292,42,13,24,045,42,15,62,037,45*76
###2023-11-09 13:07:29.435552$GPGSV,2,2,07,18,77,281,47,23,50,315,45,24,49,136,46,,,,*40
###2023-11-09 13:07:29.438168$GLGSV,2,1,05,70,50,016,35,71,48,288,47,80,17,091,43,85,58,203,48*67
###2023-11-09 13:07:29.439767$GLGSV,2,2,05,86,52,309,47,,,,,,,,,,,,*50
###2023-11-09 13:07:29.442329$GAGSV,1,1,04,07,72,257,45,08,49,042,44,13,64,160,45,26,56,310,45*6E
###2023-11-09 13:07:29.444897$GBGSV,2,1,06,11,24,180,41,14,65,006,45,24,19,133,44,26,23,082,43*62
###2023-11-09 13:07:29.446833$GBGSV,2,2,06,28,43,289,47,33,58,302,47,,,,,,,,*6F
###2023-11-09 13:07:29.448271$GNVTG,18.47,T,,M,0.62,N,1.15,K,A*18
###2023-11-09 13:07:29.539653$GNGGA,130729.70,3611.0549347,N,07544.9770106,W,1,24,0.6,1.193,M,-39.961,M,0.0,*65
###2023-11-09 13:07:29.542259$GPGSV,2,1,07,05,21,090,41,10,18,292,42,13,24,045,42,15,62,037,45*76
###2023-11-09 13:07:29.544517$GPGSV,2,2,07,18,77,281,47,23,50,315,45,24,49,136,46,,,,*40
###2023-11-09 13:07:29.547126$GLGSV,2,1,05,70,50,016,35,71,48,288,47,80,17,091,43,85,58,203,48*67
###2023-11-09 13:07:29.548735$GLGSV,2,2,05,86,52,309,47,,,,,,,,,,,,*50
###2023-11-09 13:07:29.551300$GAGSV,1,1,04,07,72,257,45,08,49,042,44,13,64,160,45,26,56,310,45*6E
###2023-11-09 13:07:29.553890$GBGSV,2,1,06,11,24,180,41,14,65,006,45,24,19,133,43,26,23,082,43*65
###2023-11-09 13:07:29.555829$GBGSV,2,2,06,28,43,289,47,33,58,302,47,,,,,,,,*6F
###2023-11-09 13:07:29.557286$GNVTG,18.47,T,,M,0.70,N,1.30,K,A*1C
###2023-11-09 13:07:29.630863$GNGGA,130729.80,3611.0549542,N,07544.9770142,W,1,24,0.6,1.180,M,-39.961,M,0.0,*6B
###2023-11-09 13:07:29.633477$GPGSV,2,1,07,05,21,090,41,10,18,292,42,13,24,045,42,15,62,037,45*76
###2023-11-09 13:07:29.635753$GPGSV,2,2,07,18,77,281,47,23,50,315,45,24,49,136,46,,,,*40
###2023-11-09 13:07:29.638357$GLGSV,2,1,05,70,50,016,35,71,48,288,48,80,17,091,43,85,58,203,48*68
###2023-11-09 13:07:29.639973$GLGSV,2,2,05,86,52,309,47,,,,,,,,,,,,*50
###2023-11-09 13:07:29.642542$GAGSV,1,1,04,07,72,257,45,08,49,042,44,13,64,160,45,26,56,310,45*6E
###2023-11-09 13:07:29.645121$GBGSV,2,1,06,11,24,180,41,14,65,006,45,24,19,133,43,26,23,082,43*65
###2023-11-09 13:07:29.647069$GBGSV,2,2,06,28,43,289,47,33,58,302,47,,,,,,,,*6F
###2023-11-09 13:07:29.648497$GNVTG,18.47,T,,M,0.76,N,1.40,K,A*1D
###2023-11-09 13:07:29.730344$GNGGA,130729.90,3611.0549743,N,07544.9770174,W,1,24,0.6,1.177,M,-39.961,M,0.0,*64
###2023-11-09 13:07:29.732920$GPGSV,2,1,07,05,21,090,41,10,18,292,43,13,24,045,42,15,62,037,45*77
###2023-11-09 13:07:29.735162$GPGSV,2,2,07,18,77,281,47,23,50,315,45,24,49,136,46,,,,*40
###2023-11-09 13:07:29.737747$GLGSV,2,1,05,70,50,016,35,71,48,288,48,80,17,091,43,85,58,203,48*68
###2023-11-09 13:07:29.739349$GLGSV,2,2,05,86,52,309,47,,,,,,,,,,,,*50
###2023-11-09 13:07:29.741894$GAGSV,1,1,04,07,72,257,45,08,49,042,44,13,64,160,44,26,56,310,45*6F
###2023-11-09 13:07:29.744456$GBGSV,2,1,06,11,24,180,41,14,65,006,45,24,19,133,43,26,23,082,43*65
###2023-11-09 13:07:29.746381$GBGSV,2,2,06,28,43,289,48,33,58,302,47,,,,,,,,*60
###2023-11-09 13:07:29.747810$GNVTG,18.47,T,,M,0.74,N,1.37,K,A*1F
###2023-11-09 13:07:29.836741$GNGGA,130730.00,3611.0549941,N,07544.9770206,W,1,24,0.6,1.182,M,-39.961,M,0.0,*65
###2023-11-09 13:07:29.839368$GPGSV,2,1,07,05,21,090,41,10,18,292,43,13,24,045,42,15,62,037,45*77
###2023-11-09 13:07:29.841635$GPGSV,2,2,07,18,77,281,47,23,50,315,45,24,49,136,46,,,,*40
###2023-11-09 13:07:29.844221$GLGSV,2,1,05,70,50,016,35,71,48,288,48,80,17,091,43,85,58,203,48*68
###2023-11-09 13:07:29.845826$GLGSV,2,2,05,86,52,309,47,,,,,,,,,,,,*50
###2023-11-09 13:07:29.848427$GAGSV,1,1,04,07,72,257,45,08,49,042,44,13,64,160,44,26,56,310,45*6F
###2023-11-09 13:07:29.851017$GBGSV,2,1,06,11,24,180,41,14,65,006,45,24,19,133,43,26,23,082,43*65
###2023-11-09 13:07:29.852961$GBGSV,2,2,06,28,43,289,48,33,58,302,47,,,,,,,,*60
###2023-11-09 13:07:29.854396$GNVTG,18.47,T,,M,0.76,N,1.40,K,A*1D
###2023-11-09 13:07:29.939877$GNGGA,130730.10,3611.0550134,N,07544.9770245,W,1,24,0.6,1.191,M,-39.961,M,0.0,*63
###2023-11-09 13:07:29.942461$GPGSV,2,1,07,05,21,090,41,10,18,292,44,13,24,045,42,15,62,037,45*70
###2023-11-09 13:07:29.944708$GPGSV,2,2,07,18,77,281,47,23,50,315,45,24,49,136,46,,,,*40
###2023-11-09 13:07:29.947285$GLGSV,2,1,05,70,50,016,35,71,48,288,47,80,17,091,43,85,58,203,48*67
###2023-11-09 13:07:29.948889$GLGSV,2,2,05,86,52,309,47,,,,,,,,,,,,*50
###2023-11-09 13:07:29.951450$GAGSV,1,1,04,07,72,257,45,08,49,042,44,13,64,160,44,26,56,310,45*6F
###2023-11-09 13:07:29.954030$GBGSV,2,1,06,11,24,180,41,14,65,006,45,24,19,133,43,26,23,082,43*65
###2023-11-09 13:07:29.955965$GBGSV,2,2,06,28,43,289,48,33,58,302,47,,,,,,,,*60
###2023-11-09 13:07:29.957403$GNVTG,18.47,T,,M,0.70,N,1.30,K,A*1C
###2023-11-09 13:07:30.033588$GNGGA,130730.20,3611.0550304,N,07544.9770301,W,1,24,0.6,1.207,M,-39.961,M,0.0,*6C
###2023-11-09 13:07:30.036150$GPGSV,2,1,07,05,21,090,41,10,18,292,44,13,24,045,42,15,62,037,45*70
###2023-11-09 13:07:30.038399$GPGSV,2,2,07,18,77,281,47,23,50,315,45,24,49,136,46,,,,*40
###2023-11-09 13:07:30.040956$GLGSV,2,1,05,70,50,016,35,71,48,288,47,80,17,091,44,85,58,203,48*60
###2023-11-09 13:07:30.042552$GLGSV,2,2,05,86,52,309,47,,,,,,,,,,,,*50
###2023-11-09 13:07:30.045104$GAGSV,1,1,04,07,72,257,45,08,49,042,44,13,64,160,44,26,56,310,45*6F
###2023-11-09 13:07:30.047678$GBGSV,2,1,06,11,24,180,41,14,65,006,45,24,19,133,43,26,23,082,43*65
###2023-11-09 13:07:30.049600$GBGSV,2,2,06,28,43,289,47,33,58,302,47,,,,,,,,*6F
###2023-11-09 13:07:30.051023$GNVTG,18.47,T,,M,0.64,N,1.19,K,A*12
###2023-11-09 13:07:30.129760$GNGGA,130730.30,3611.0550444,N,07544.9770372,W,1,24,0.6,1.225,M,-39.961,M,0.0,*6A
###2023-11-09 13:07:30.132352$GPGSV,2,1,07,05,21,090,41,10,18,292,44,13,24,045,42,15,62,037,45*70
###2023-11-09 13:07:30.134605$GPGSV,2,2,07,18,77,281,47,23,50,315,45,24,49,136,46,,,,*40
###2023-11-09 13:07:30.137197$GLGSV,2,1,05,70,50,016,35,71,48,288,47,80,17,091,44,85,58,203,48*60
###2023-11-09 13:07:30.138808$GLGSV,2,2,05,86,52,309,47,,,,,,,,,,,,*50
###2023-11-09 13:07:30.141364$GAGSV,1,1,04,07,72,257,45,08,49,042,44,13,64,160,44,26,56,310,45*6F
###2023-11-09 13:07:30.143933$GBGSV,2,1,06,11,24,180,41,14,65,006,45,24,19,133,43,26,23,082,43*65
###2023-11-09 13:07:30.145863$GBGSV,2,2,06,28,43,289,47,33,58,302,47,,,,,,,,*6F
###2023-11-09 13:07:30.147307$GNVTG,18.47,T,,M,0.45,N,0.83,K,A*13
###2023-11-09 13:07:30.231863$GNGGA,130730.40,3611.0550554,N,07544.9770455,W,1,24,0.6,1.244,M,-39.961,M,0.0,*68
###2023-11-09 13:07:30.234449$GPGSV,2,1,07,05,21,090,42,10,18,292,44,13,24,045,42,15,62,037,45*73
###2023-11-09 13:07:30.237026$GPGSV,2,2,07,18,77,281,47,23,50,315,45,24,49,136,46,,,,*40
###2023-11-09 13:07:30.239602$GLGSV,2,1,05,70,50,016,35,71,48,288,48,80,17,091,44,85,58,203,48*6F
###2023-11-09 13:07:30.241212$GLGSV,2,2,05,86,52,309,47,,,,,,,,,,,,*50
###2023-11-09 13:07:30.243774$GAGSV,1,1,04,07,72,257,45,08,49,042,44,13,64,160,44,26,56,310,45*6F
###2023-11-09 13:07:30.246357$GBGSV,2,1,06,11,24,180,41,14,65,006,45,24,19,133,43,26,23,082,43*65
###2023-11-09 13:07:30.248309$GBGSV,2,2,06,28,43,289,47,33,58,302,47,,,,,,,,*6F
###2023-11-09 13:07:30.249732$GNVTG,18.47,T,,M,0.47,N,0.86,K,A*14
###2023-11-09 13:07:30.330980$GNGGA,130730.50,3611.0550653,N,07544.9770573,W,1,24,0.6,1.253,M,-39.961,M,0.0,*6E
###2023-11-09 13:07:30.333549$GPGSV,2,1,07,05,21,090,42,10,18,292,42,13,24,045,42,15,62,037,45*75
