###2023-11-09 13:10:40.937603$GLGSV,2,1,05,70,49,019,36,71,48,291,48,80,19,089,45,85,56,202,48*6A
###2023-11-09 13:10:40.939247$GLGSV,2,2,05,86,54,306,48,,,,,,,,,,,,*56
###2023-11-09 13:10:40.941831$GAGSV,1,1,04,07,73,259,45,08,48,043,45,13,63,161,44,26,57,310,45*66
###2023-11-09 13:10:40.944411$GBGSV,2,1,06,11,22,180,41,14,65,009,45,24,21,132,44,26,23,080,45*65
###2023-11-09 13:10:40.946345$GBGSV,2,2,06,28,43,286,46,33,59,305,47,,,,,,,,*67
###2023-11-09 13:10:40.947831$GNVTG,294.22,T,,M,5.29,N,9.79,K,A*25
###2023-11-09 13:10:41.030694$GNGGA,131041.20,3611.0674232,N,07544.8841109,W,1,24,0.6,0.761,M,-39.960,M,0.0,*6E
###2023-11-09 13:10:41.033331$GPGSV,2,1,07,05,20,091,43,10,19,294,41,13,23,045,43,15,60,038,46*78
###2023-11-09 13:10:41.035612$GPGSV,2,2,07,18,78,272,46,23,51,317,46,24,51,133,45,,,,*4D
###2023-11-09 13:10:41.038273$GLGSV,2,1,05,70,49,019,36,71,48,291,48,80,19,089,45,85,56,202,49*6B
###2023-11-09 13:10:41.039896$GLGSV,2,2,05,86,54,306,48,,,,,,,,,,,,*56
###2023-11-09 13:10:41.042474$GAGSV,1,1,04,07,73,259,45,08,48,043,45,13,63,161,44,26,57,310,45*66
###2023-11-09 13:10:41.045058$GBGSV,2,1,06,11,22,180,41,14,65,009,45,24,21,132,45,26,23,080,44*65
###2023-11-09 13:10:41.047026$GBGSV,2,2,06,28,43,286,46,33,59,305,47,,,,,,,,*67
###2023-11-09 13:10:41.048528$GNVTG,296.97,T,,M,5.44,N,10.08,K,A*1C
###2023-11-09 13:10:41.128231$GNGGA,131041.30,3611.0674952,N,07544.8842768,W,1,24,0.6,0.758,M,-39.960,M,0.0,*6A
###2023-11-09 13:10:41.130810$GPGSV,2,1,07,05,20,091,43,10,19,294,41,13,23,045,43,15,60,038,46*78
###2023-11-09 13:10:41.133040$GPGSV,2,2,07,18,78,272,46,23,51,317,46,24,51,133,45,,,,*4D
###2023-11-09 13:10:41.135583$GLGSV,2,1,05,70,49,019,36,71,48,291,49,80,19,089,45,85,56,202,49*6A
###2023-11-09 13:10:41.137180$GLGSV,2,2,05,86,54,306,48,,,,,,,,,,,,*56
###2023-11-09 13:10:41.139722$GAGSV,1,1,04,07,73,259,45,08,48,043,45,13,63,161,44,26,57,310,45*66
###2023-11-09 13:10:41.142276$GBGSV,2,1,06,11,22,180,41,14,65,009,45,24,21,132,45,26,23,080,44*65
###2023-11-09 13:10:41.144197$GBGSV,2,2,06,28,43,286,47,33,59,305,47,,,,,,,,*66
###2023-11-09 13:10:41.145689$GNVTG,299.27,T,,M,5.54,N,10.26,K,A*15
###2023-11-09 13:10:41.228515$GNGGA,131041.40,3611.0675719,N,07544.8844456,W,1,24,0.6,0.755,M,-39.960,M,0.0,*68
###2023-11-09 13:10:41.231109$GPGSV,2,1,07,05,20,091,43,10,19,294,41,13,23,045,43,15,60,038,46*78
###2023-11-09 13:10:41.233363$GPGSV,2,2,07,18,78,272,46,23,51,317,46,24,51,133,45,,,,*4D
###2023-11-09 13:10:41.235929$GLGSV,2,1,05,70,49,019,36,71,48,291,48,80,19,089,45,85,56,202,49*6B
###2023-11-09 13:10:41.237554$GLGSV,2,2,05,86,54,306,48,,,,,,,,,,,,*56
###2023-11-09 13:10:41.240121$GAGSV,1,1,04,07,73,259,45,08,48,043,45,13,63,161,44,26,57,310,45*66
###2023-11-09 13:10:41.242698$GBGSV,2,1,06,11,22,180,41,14,65,009,45,24,21,132,44,26,23,080,44*64
###2023-11-09 13:10:41.244631$GBGSV,2,2,06,28,43,286,47,33,59,305,47,,,,,,,,*66
###2023-11-09 13:10:41.246126$GNVTG,299.34,T,,M,5.73,N,10.62,K,A*12
###2023-11-09 13:10:41.328634$GNGGA,131041.50,3611.0676501,N,07544.8846202,W,1,24,0.6,0.753,M,-39.960,M,0.0,*62
###2023-11-09 13:10:41.331236$GPGSV,2,1,07,05,20,091,43,10,19,294,42,13,23,045,44,15,60,038,46*7C
###2023-11-09 13:10:41.333489$GPGSV,2,2,07,18,78,272,46,23,51,317,46,24,51,133,45,,,,*4D
###2023-11-09 13:10:41.336060$GLGSV,2,1,05,70,49,019,36,71,48,291,48,80,19,089,45,85,56,202,48*6A
###2023-11-09 13:10:41.337687$GLGSV,2,2,05,86,54,306,48,,,,,,,,,,,,*56
###2023-11-09 13:10:41.340250$GAGSV,1,1,04,07,73,259,45,08,48,043,45,13,63,161,44,26,57,310,45*66
###2023-11-09 13:10:41.342824$GBGSV,2,1,06,11,22,180,41,14,65,009,45,24,21,132,44,26,23,080,45*65
###2023-11-09 13:10:41.344760$GBGSV,2,2,06,28,43,286,47,33,59,305,47,,,,,,,,*66
###2023-11-09 13:10:41.346256$GNVTG,298.54,T,,M,5.89,N,10.91,K,A*1C
###2023-11-09 13:10:41.428235$GNGGA,131041.60,3611.0677247,N,07544.8847978,W,1,24,0.6,0.744,M,-39.960,M,0.0,*64
###2023-11-09 13:10:41.430819$GPGSV,2,1,07,05,20,091,43,10,19,294,42,13,23,045,44,15,60,038,46*7C
###2023-11-09 13:10:41.433067$GPGSV,2,2,07,18,78,272,46,23,51,317,46,24,51,133,45,,,,*4D
###2023-11-09 13:10:41.435623$GLGSV,2,1,05,70,49,019,36,71,48,291,48,80,19,089,45,85,56,202,48*6A
###2023-11-09 13:10:41.437271$GLGSV,2,2,05,86,54,306,48,,,,,,,,,,,,*56
###2023-11-09 13:10:41.439845$GAGSV,1,1,04,07,73,259,45,08,48,043,45,13,63,161,44,26,57,310,45*66
###2023-11-09 13:10:41.442413$GBGSV,2,1,06,11,22,180,39,14,65,009,45,24,21,132,44,26,23,080,45*6A
###2023-11-09 13:10:41.444337$GBGSV,2,2,06,28,43,286,47,33,59,305,48,,,,,,,,*69
###2023-11-09 13:10:41.445827$GNVTG,296.21,T,,M,5.75,N,10.66,K,A*1B
###2023-11-09 13:10:41.528887$GNGGA,131041.70,3611.0677943,N,07544.8849768,W,1,24,0.6,0.739,M,-39.960,M,0.0,*61
###2023-11-09 13:10:41.531487$GPGSV,2,1,07,05,20,091,43,10,19,294,42,13,23,045,44,15,60,038,47*7D
###2023-11-09 13:10:41.533738$GPGSV,2,2,07,18,78,272,46,23,51,317,46,24,51,133,45,,,,*4D
###2023-11-09 13:10:41.536310$GLGSV,2,1,05,70,49,019,36,71,48,291,48,80,19,089,46,85,56,202,48*69
###2023-11-09 13:10:41.537938$GLGSV,2,2,05,86,54,306,48,,,,,,,,,,,,*56
###2023-11-09 13:10:41.540503$GAGSV,1,1,04,07,73,259,45,08,48,043,45,13,63,161,44,26,57,310,45*66
###2023-11-09 13:10:41.543069$GBGSV,2,1,06,11,22,180,39,14,65,009,45,24,21,132,44,26,23,080,46*69
###2023-11-09 13:10:41.545001$GBGSV,2,2,06,28,43,286,47,33,59,305,48,,,,,,,,*69
###2023-11-09 13:10:41.546494$GNVTG,295.26,T,,M,5.81,N,10.76,K,A*15
###2023-11-09 13:10:41.628609$GNGGA,131041.80,3611.0678600,N,07544.8851590,W,1,24,0.6,0.743,M,-39.960,M,0.0,*68
###2023-11-09 13:10:41.631189$GPGSV,2,1,07,05,20,091,43,10,19,294,42,13,23,045,44,15,60,038,47*7D
###2023-11-09 13:10:41.633447$GPGSV,2,2,07,18,78,272,46,23,51,317,46,24,51,133,45,,,,*4D
###2023-11-09 13:10:41.636012$GLGSV,2,1,05,70,49,019,36,71,48,291,48,80,19,089,46,85,56,202,48*69
###2023-11-09 13:10:41.637628$GLGSV,2,2,05,86,54,306,48,,,,,,,,,,,,*56
###2023-11-09 13:10:41.640189$GAGSV,1,1,04,07,73,259,45,08,48,043,45,13,63,161,44,26,57,310,45*66
###2023-11-09 13:10:41.642768$GBGSV,2,1,06,11,22,180,39,14,65,009,45,24,21,132,44,26,23,080,46*69
###2023-11-09 13:10:41.644699$GBGSV,2,2,06,28,43,286,47,33,59,305,47,,,,,,,,*66
###2023-11-09 13:10:41.646196$GNVTG,292.69,T,,M,5.85,N,10.84,K,A*10
###2023-11-09 13:10:41.729002$GNGGA,131041.90,3611.0679212,N,07544.8853437,W,1,24,0.6,0.748,M,-39.960,M,0.0,*6A
###2023-11-09 13:10:41.731613$GPGSV,2,1,07,05,20,091,43,10,19,294,42,13,23,045,43,15,60,038,47*7A
###2023-11-09 13:10:41.733861$GPGSV,2,2,07,18,78,272,46,23,51,317,46,24,51,133,45,,,,*4D
###2023-11-09 13:10:41.736422$GLGSV,2,1,05,70,49,019,36,71,48,291,48,80,19,089,46,85,56,202,48*69
###2023-11-09 13:10:41.738060$GLGSV,2,2,05,86,54,306,48,,,,,,,,,,,,*56
###2023-11-09 13:10:41.740625$GAGSV,1,1,04,07,73,259,45,08,48,043,45,13,63,161,44,26,57,310,45*66
###2023-11-09 13:10:41.743204$GBGSV,2,1,06,11,22,180,41,14,65,009,45,24,21,132,44,26,23,080,45*65
###2023-11-09 13:10:41.745122$GBGSV,2,2,06,28,43,286,47,33,59,305,47,,,,,,,,*66
###2023-11-09 13:10:41.746613$GNVTG,291.83,T,,M,5.79,N,10.73,K,A*1C
###2023-11-09 13:10:41.831617$GNGGA,131042.00,3611.0679801,N,07544.8855288,W,1,24,0.6,0.746,M,-39.960,M,0.0,*62
###2023-11-09 13:10:41.834218$GPGSV,2,1,07,05,20,091,43,10,19,294,42,13,23,045,43,15,60,038,46*7B
###2023-11-09 13:10:41.836474$GPGSV,2,2,07,18,78,272,46,23,51,317,45,24,51,133,46,,,,*4D
###2023-11-09 13:10:41.839066$GLGSV,2,1,05,70,49,019,36,71,48,291,48,80,19,089,46,85,56,202,48*69
###2023-11-09 13:10:41.840679$GLGSV,2,2,05,86,54,306,48,,,,,,,,,,,,*56
###2023-11-09 13:10:41.843248$GAGSV,1,1,04,07,73,259,45,08,48,043,45,13,63,161,45,26,57,310,45*67
###2023-11-09 13:10:41.845819$GBGSV,2,1,06,11,22,180,41,14,65,009,45,24,21,132,44,26,23,080,45*65
###2023-11-09 13:10:41.847767$GBGSV,2,2,06,28,43,286,47,33,59,305,47,,,,,,,,*66
###2023-11-09 13:10:41.849268$GNVTG,291.22,T,,M,5.79,N,10.73,K,A*17
###2023-11-09 13:10:41.934983$GNGGA,131042.10,3611.0680379,N,07544.8857121,W,1,24,0.6,0.739,M,-39.960,M,0.0,*6B
###2023-11-09 13:10:41.937597$GPGSV,2,1,07,05,20,091,43,10,19,294,42,13,23,045,43,15,60,038,46*7B
###2023-11-09 13:10:41.939875$GPGSV,2,2,07,18,78,272,46,23,51,317,46,24,51,133,46,,,,*4E
###2023-11-09 13:10:41.942748$GLGSV,2,1,05,70,49,019,36,71,48,291,48,80,19,089,45,85,56,202,48*6A
###2023-11-09 13:10:41.944371$GLGSV,2,2,05,86,54,306,48,,,,,,,,,,,,*56
###2023-11-09 13:10:41.946994$GAGSV,1,1,04,07,73,259,45,08,48,043,45,13,63,161,46,26,57,310,45*64
###2023-11-09 13:10:41.949577$GBGSV,2,1,06,11,22,180,41,14,65,009,45,24,21,132,45,26,23,080,45*64
###2023-11-09 13:10:41.951514$GBGSV,2,2,06,28,43,286,47,33,59,305,47,,,,,,,,*66
###2023-11-09 13:10:41.953017$GNVTG,291.39,T,,M,5.68,N,10.51,K,A*1D
###2023-11-09 13:10:42.030734$GNGGA,131042.20,3611.0680955,N,07544.8858946,W,1,24,0.6,0.730,M,-39.960,M,0.0,*63
###2023-11-09 13:10:42.033312$GPGSV,2,1,07,05,20,091,42,10,19,294,42,13,23,045,43,15,60,038,46*7A
###2023-11-09 13:10:42.035559$GPGSV,2,2,07,18,78,272,46,23,51,317,46,24,51,133,46,,,,*4E
###2023-11-09 13:10:42.038141$GLGSV,2,1,05,70,49,019,36,71,48,291,48,80,19,089,45,85,56,202,48*6A
