###2023-11-09 13:08:39.427059$GNGGA,130839.60,3611.0192338,N,07545.0144080,W,1,24,0.6,0.807,M,-39.962,M,0.0,*60
###2023-11-09 13:08:39.429683$GPGSV,2,1,07,05,20,090,40,10,19,293,44,13,24,045,42,15,61,037,45*73
###2023-11-09 13:08:39.431948$GPGSV,2,2,07,18,78,277,47,23,50,316,45,24,50,135,46,,,,*4E
###2023-11-09 13:08:39.434539$GLGSV,2,1,05,70,50,017,35,71,48,290,48,80,18,090,41,85,57,203,48*63
###2023-11-09 13:08:39.436165$GLGSV,2,2,05,86,53,308,47,,,,,,,,,,,,*50
###2023-11-09 13:08:39.438759$GAGSV,1,1,04,07,72,258,45,08,48,043,45,13,64,160,44,26,57,310,45*60
###2023-11-09 13:08:39.441391$GBGSV,2,1,06,11,23,180,42,14,65,008,45,24,20,132,43,26,23,081,43*67
###2023-11-09 13:08:39.443366$GBGSV,2,2,06,28,43,287,47,33,59,304,47,,,,,,,,*66
###2023-11-09 13:08:39.444817$GNVTG,98.91,T,,M,4.76,N,8.82,K,A*1D
###2023-11-09 13:08:39.528912$GNGGA,130839.70,3611.0192138,N,07545.0142436,W,1,24,0.6,0.782,M,-39.962,M,0.0,*6E
###2023-11-09 13:08:39.531531$GPGSV,2,1,07,05,20,090,40,10,19,293,44,13,24,045,42,15,61,037,45*73
###2023-11-09 13:08:39.533814$GPGSV,2,2,07,18,78,277,47,23,50,316,45,24,50,135,46,,,,*4E
###2023-11-09 13:08:39.536403$GLGSV,2,1,05,70,50,017,35,71,48,290,48,80,18,090,41,85,57,203,48*63
###2023-11-09 13:08:39.538033$GLGSV,2,2,05,86,53,308,47,,,,,,,,,,,,*50
###2023-11-09 13:08:39.540628$GAGSV,1,1,04,07,72,258,45,08,48,043,45,13,64,160,44,26,57,310,45*60
###2023-11-09 13:08:39.543220$GBGSV,2,1,06,11,23,180,42,14,65,008,45,24,20,132,43,26,23,081,43*67
###2023-11-09 13:08:39.545165$GBGSV,2,2,06,28,43,287,47,33,59,304,47,,,,,,,,*66
###2023-11-09 13:08:39.546596$GNVTG,98.59,T,,M,4.86,N,9.00,K,A*1D
###2023-11-09 13:08:39.627890$GNGGA,130839.80,3611.0191951,N,07545.0140770,W,1,24,0.6,0.767,M,-39.962,M,0.0,*6D
###2023-11-09 13:08:39.630492$GPGSV,2,1,07,05,20,090,40,10,19,293,44,13,24,045,41,15,61,037,45*70
###2023-11-09 13:08:39.632747$GPGSV,2,2,07,18,78,277,47,23,50,316,45,24,50,135,46,,,,*4E
###2023-11-09 13:08:39.635323$GLGSV,2,1,05,70,50,017,35,71,48,290,48,80,18,090,41,85,57,203,48*63
###2023-11-09 13:08:39.636937$GLGSV,2,2,05,86,53,308,47,,,,,,,,,,,,*50
###2023-11-09 13:08:39.639507$GAGSV,1,1,04,07,72,258,45,08,48,043,45,13,64,160,44,26,57,310,45*60
###2023-11-09 13:08:39.642086$GBGSV,2,1,06,11,23,180,42,14,65,008,45,24,20,132,43,26,23,081,43*67
###2023-11-09 13:08:39.644022$GBGSV,2,2,06,28,43,287,47,33,59,304,47,,,,,,,,*66
###2023-11-09 13:08:39.645449$GNVTG,97.52,T,,M,4.88,N,9.04,K,A*13
###2023-11-09 13:08:39.727904$GNGGA,130839.90,3611.0191817,N,07545.0139085,W,1,24,0.6,0.757,M,-39.962,M,0.0,*6F
###2023-11-09 13:08:39.730511$GPGSV,2,1,07,05,20,090,40,10,19,293,44,13,24,045,40,15,61,037,45*71
###2023-11-09 13:08:39.732783$GPGSV,2,2,07,18,78,277,47,23,50,316,45,24,50,135,46,,,,*4E
###2023-11-09 13:08:39.735373$GLGSV,2,1,05,70,50,017,35,71,48,290,48,80,18,090,42,85,57,203,48*60
###2023-11-09 13:08:39.737123$GLGSV,2,2,05,86,53,308,47,,,,,,,,,,,,*50
###2023-11-09 13:08:39.739703$GAGSV,1,1,04,07,72,258,45,08,48,043,45,13,64,160,44,26,57,310,45*60
###2023-11-09 13:08:39.742281$GBGSV,2,1,06,11,23,180,42,14,65,008,45,24,20,132,43,26,23,081,43*67
###2023-11-09 13:08:39.744222$GBGSV,2,2,06,28,43,287,47,33,59,304,47,,,,,,,,*66
###2023-11-09 13:08:39.745657$GNVTG,93.96,T,,M,4.94,N,9.14,K,A*13
###2023-11-09 13:08:39.832994$GNGGA,130840.00,3611.0191757,N,07545.0137380,W,1,24,0.6,0.754,M,-39.962,M,0.0,*68
###2023-11-09 13:08:39.835587$GPGSV,2,1,07,05,20,090,40,10,19,293,44,13,24,045,40,15,61,037,45*71
###2023-11-09 13:08:39.837860$GPGSV,2,2,07,18,78,277,47,23,50,316,45,24,50,135,46,,,,*4E
###2023-11-09 13:08:39.840442$GLGSV,2,1,05,70,50,017,35,71,48,290,48,80,18,090,43,85,57,203,48*61
###2023-11-09 13:08:39.842048$GLGSV,2,2,05,86,53,308,47,,,,,,,,,,,,*50
###2023-11-09 13:08:39.844624$GAGSV,1,1,04,07,72,258,45,08,48,043,45,13,64,160,44,26,57,310,45*60
###2023-11-09 13:08:39.847233$GBGSV,2,1,06,11,23,180,42,14,65,008,45,24,20,132,43,26,23,081,42*66
###2023-11-09 13:08:39.849176$GBGSV,2,2,06,28,43,287,47,33,59,304,47,,,,,,,,*66
###2023-11-09 13:08:39.850608$GNVTG,91.27,T,,M,4.94,N,9.14,K,A*1B
###2023-11-09 13:08:39.932243$GNGGA,130840.10,3611.0191773,N,07545.0135668,W,1,24,0.6,0.755,M,-39.962,M,0.0,*6F
###2023-11-09 13:08:39.934821$GPGSV,2,1,07,05,20,090,41,10,19,293,44,13,24,045,40,15,61,037,45*70
###2023-11-09 13:08:39.937092$GPGSV,2,2,07,18,78,277,47,23,50,316,45,24,50,135,46,,,,*4E
###2023-11-09 13:08:39.939660$GLGSV,2,1,05,70,50,017,35,71,48,290,48,80,18,090,43,85,57,203,48*61
###2023-11-09 13:08:39.941266$GLGSV,2,2,05,86,53,308,47,,,,,,,,,,,,*50
###2023-11-09 13:08:39.943821$GAGSV,1,1,04,07,72,258,45,08,48,043,45,13,64,160,44,26,57,310,45*60
###2023-11-09 13:08:39.946395$GBGSV,2,1,06,11,23,180,42,14,65,008,45,24,20,132,43,26,23,081,42*66
###2023-11-09 13:08:39.948342$GBGSV,2,2,06,28,43,287,47,33,59,304,47,,,,,,,,*66
###2023-11-09 13:08:39.949768$GNVTG,87.68,T,,M,4.98,N,9.22,K,A*1E
###2023-11-09 13:08:40.030866$GNGGA,130840.20,3611.0191850,N,07545.0133957,W,1,24,0.6,0.761,M,-39.962,M,0.0,*60
###2023-11-09 13:08:40.033469$GPGSV,2,1,07,05,20,090,41,10,19,293,44,13,24,045,40,15,61,037,45*70
###2023-11-09 13:08:40.035731$GPGSV,2,2,07,18,78,277,47,23,50,316,45,24,50,135,46,,,,*4E
###2023-11-09 13:08:40.038326$GLGSV,2,1,05,70,50,017,35,71,48,290,48,80,18,090,43,85,57,203,48*61
###2023-11-09 13:08:40.039940$GLGSV,2,2,05,86,53,308,47,,,,,,,,,,,,*50
###2023-11-09 13:08:40.042509$GAGSV,1,1,04,07,72,258,45,08,48,043,45,13,64,160,44,26,57,310,45*60
###2023-11-09 13:08:40.045091$GBGSV,2,1,06,11,23,180,41,14,65,008,45,24,20,132,43,26,23,081,41*66
###2023-11-09 13:08:40.047036$GBGSV,2,2,06,28,43,287,47,33,59,304,47,,,,,,,,*66
###2023-11-09 13:08:40.048473$GNVTG,86.19,T,,M,4.96,N,9.18,K,A*1E
###2023-11-09 13:08:40.128891$GNGGA,130840.30,3611.0191937,N,07545.0132263,W,1,24,0.6,0.765,M,-39.962,M,0.0,*68
###2023-11-09 13:08:40.131498$GPGSV,2,1,07,05,20,090,41,10,19,293,45,13,24,045,40,15,61,037,45*71
###2023-11-09 13:08:40.133762$GPGSV,2,2,07,18,78,277,47,23,50,316,45,24,50,135,46,,,,*4E
###2023-11-09 13:08:40.136332$GLGSV,2,1,05,70,50,017,35,71,48,290,48,80,18,090,43,85,57,203,48*61
###2023-11-09 13:08:40.137982$GLGSV,2,2,05,86,53,308,47,,,,,,,,,,,,*50
###2023-11-09 13:08:40.140601$GAGSV,1,1,04,07,72,258,45,08,48,043,45,13,64,160,44,26,57,310,45*60
###2023-11-09 13:08:40.143205$GBGSV,2,1,06,11,23,180,41,14,65,008,45,24,20,132,43,26,23,081,41*66
###2023-11-09 13:08:40.145153$GBGSV,2,2,06,28,43,287,47,33,59,304,47,,,,,,,,*66
###2023-11-09 13:08:40.146586$GNVTG,86.66,T,,M,4.94,N,9.14,K,A*18
###2023-11-09 13:08:40.227865$GNGGA,130840.40,3611.0192016,N,07545.0130567,W,1,24,0.6,0.778,M,-39.962,M,0.0,*6B
###2023-11-09 13:08:40.230446$GPGSV,2,1,07,05,20,090,41,10,19,293,45,13,24,045,41,15,61,037,45*70
###2023-11-09 13:08:40.232687$GPGSV,2,2,07,18,78,277,47,23,50,316,45,24,50,135,46,,,,*4E
###2023-11-09 13:08:40.235251$GLGSV,2,1,05,70,50,017,35,71,48,290,48,80,18,090,43,85,57,203,48*61
###2023-11-09 13:08:40.236851$GLGSV,2,2,05,86,53,308,48,,,,,,,,,,,,*5F
###2023-11-09 13:08:40.239421$GAGSV,1,1,04,07,72,258,45,08,48,043,45,13,64,160,44,26,57,310,45*60
###2023-11-09 13:08:40.241989$GBGSV,2,1,06,11,23,180,41,14,65,008,45,24,20,132,43,26,23,081,41*66
###2023-11-09 13:08:40.243911$GBGSV,2,2,06,28,43,287,47,33,59,304,47,,,,,,,,*66
###2023-11-09 13:08:40.245336$GNVTG,86.81,T,,M,4.98,N,9.22,K,A*18
###2023-11-09 13:08:40.327903$GNGGA,130840.50,3611.0192089,N,07545.0128848,W,1,24,0.6,0.796,M,-39.962,M,0.0,*65
###2023-11-09 13:08:40.330511$GPGSV,2,1,07,05,20,090,41,10,19,293,45,13,24,045,40,15,61,037,45*71
###2023-11-09 13:08:40.332773$GPGSV,2,2,07,18,78,277,47,23,50,316,45,24,50,135,46,,,,*4E
###2023-11-09 13:08:40.335357$GLGSV,2,1,05,70,50,017,35,71,48,290,48,80,18,090,43,85,57,203,48*61
###2023-11-09 13:08:40.336984$GLGSV,2,2,05,86,53,308,48,,,,,,,,,,,,*5F
###2023-11-09 13:08:40.339565$GAGSV,1,1,04,07,72,258,45,08,48,043,45,13,64,160,44,26,57,310,45*60
###2023-11-09 13:08:40.342149$GBGSV,2,1,06,11,23,180,41,14,65,008,45,24,20,132,43,26,23,081,41*66
###2023-11-09 13:08:40.344089$GBGSV,2,2,06,28,43,287,47,33,59,304,47,,,,,,,,*66
###2023-11-09 13:08:40.345518$GNVTG,87.13,T,,M,5.05,N,9.36,K,A*12
###2023-11-09 13:08:40.429025$GNGGA,130840.60,3611.0192189,N,07545.0127119,W,1,24,0.6,0.807,M,-39.962,M,0.0,*62
###2023-11-09 13:08:40.431925$GPGSV,2,1,07,05,20,090,41,10,19,293,45,13,24,045,40,15,61,037,45*71
###2023-11-09 13:08:40.434197$GPGSV,2,2,07,18,78,277,47,23,50,316,45,24,50,135,46,,,,*4E
###2023-11-09 13:08:40.436788$GLGSV,2,1,05,70,50,017,35,71,48,290,48,80,18,090,43,85,57,203,48*61
###2023-11-09 13:08:40.438422$GLGSV,2,2,05,86,53,308,47,,,,,,,,,,,,*50
###2023-11-09 13:08:40.441018$GAGSV,1,1,04,07,72,258,45,08,48,043,45,13,64,160,44,26,57,310,45*60
###2023-11-09 13:08:40.443618$GBGSV,2,1,06,11,23,180,41,14,65,008,45,24,20,132,43,26,23,081,41*66
###2023-11-09 13:08:40.445564$GBGSV,2,2,06,28,43,287,47,33,59,304,47,,,,,,,,*66
###2023-11-09 13:08:40.447017$GNVTG,84.75,T,,M,5.05,N,9.36,K,A*11
###2023-11-09 13:08:40.530362$GNGGA,130840.70,3611.0192340,N,07545.0125399,W,1,24,0.6,0.807,M,-39.962,M,0.0,*6C
