###2023-11-09 13:09:32.929167$GNGGA,130933.10,3611.0340200,N,07544.9417986,W,1,23,0.6,0.670,M,-39.961,M,0.0,*65
###2023-11-09 13:09:32.931792$GPGSV,2,1,07,05,20,090,41,10,19,293,43,13,24,045,41,15,61,037,45*76
###2023-11-09 13:09:32.934059$GPGSV,2,2,07,18,78,277,47,23,50,316,45,24,50,134,46,,,,*4F
###2023-11-09 13:09:32.936635$GLGSV,1,1,04,71,48,290,48,80,18,090,43,85,57,203,48,86,53,308,47*61
###2023-11-09 13:09:32.939222$GAGSV,1,1,04,07,73,259,45,08,48,043,44,13,63,161,44,26,57,310,44*66
###2023-11-09 13:09:32.941807$GBGSV,2,1,06,11,22,180,42,14,65,009,44,24,20,132,44,26,23,081,42*60
###2023-11-09 13:09:32.943756$GBGSV,2,2,06,28,43,287,46,33,59,304,46,,,,,,,,*66
###2023-11-09 13:09:32.945204$GNVTG,73.40,T,,M,2.66,N,4.93,K,A*1F
###2023-11-09 13:09:33.030749$GNGGA,130933.20,3611.0340384,N,07544.9417117,W,1,24,0.6,0.673,M,-39.961,M,0.0,*6F
###2023-11-09 13:09:33.033355$GPGSV,2,1,07,05,20,090,41,10,19,293,44,13,24,045,41,15,61,037,45*71
###2023-11-09 13:09:33.035609$GPGSV,2,2,07,18,78,277,47,23,50,316,45,24,50,134,46,,,,*4F
###2023-11-09 13:09:33.038196$GLGSV,2,1,05,70,50,017,35,71,48,290,48,80,18,090,43,85,57,203,48*61
###2023-11-09 13:09:33.039807$GLGSV,2,2,05,86,53,308,47,,,,,,,,,,,,*50
###2023-11-09 13:09:33.042369$GAGSV,1,1,04,07,73,259,45,08,48,043,44,13,63,161,44,26,57,310,44*66
###2023-11-09 13:09:33.044956$GBGSV,2,1,06,11,22,180,41,14,65,009,44,24,20,132,43,26,23,081,42*64
###2023-11-09 13:09:33.046893$GBGSV,2,2,06,28,43,287,47,33,59,304,47,,,,,,,,*66
###2023-11-09 13:09:33.048333$GNVTG,76.09,T,,M,2.60,N,4.82,K,A*11
###2023-11-09 13:09:33.129265$GNGGA,130933.30,3611.0340507,N,07544.9416234,W,1,23,0.6,0.666,M,-39.961,M,0.0,*63
###2023-11-09 13:09:33.131866$GPGSV,2,1,07,05,20,090,41,10,19,293,44,13,24,045,42,15,61,037,45*72
###2023-11-09 13:09:33.134116$GPGSV,2,2,07,18,78,277,47,23,50,316,45,24,50,134,46,,,,*4F
###2023-11-09 13:09:33.136693$GLGSV,1,1,04,71,48,290,48,80,18,090,43,85,57,203,48,86,53,308,47*61
###2023-11-09 13:09:33.139302$GAGSV,1,1,04,07,73,259,45,08,48,043,44,13,63,161,45,26,57,310,44*67
###2023-11-09 13:09:33.141892$GBGSV,2,1,06,11,22,180,41,14,65,009,44,24,20,132,43,26,23,081,42*64
###2023-11-09 13:09:33.143835$GBGSV,2,2,06,28,43,287,47,33,59,304,47,,,,,,,,*66
###2023-11-09 13:09:33.145265$GNVTG,83.27,T,,M,2.66,N,4.93,K,A*11
###2023-11-09 13:09:33.232231$GNGGA,130933.40,3611.0340528,N,07544.9415340,W,1,24,0.6,0.655,M,-39.961,M,0.0,*6F
###2023-11-09 13:09:33.234824$GPGSV,2,1,07,05,20,090,41,10,19,293,44,13,24,045,42,15,61,037,45*72
###2023-11-09 13:09:33.237097$GPGSV,2,2,07,18,78,277,47,23,50,316,46,24,50,134,46,,,,*4C
###2023-11-09 13:09:33.239675$GLGSV,2,1,05,70,50,017,35,71,48,290,48,80,18,090,43,85,57,203,48*61
###2023-11-09 13:09:33.241283$GLGSV,2,2,05,86,53,308,47,,,,,,,,,,,,*50
###2023-11-09 13:09:33.243857$GAGSV,1,1,04,07,73,259,45,08,48,043,44,13,63,161,45,26,57,310,44*67
###2023-11-09 13:09:33.246435$GBGSV,2,1,06,11,22,180,41,14,65,009,45,24,20,132,43,26,23,081,42*65
###2023-11-09 13:09:33.248381$GBGSV,2,2,06,28,43,287,47,33,59,304,47,,,,,,,,*66
###2023-11-09 13:09:33.249812$GNVTG,92.40,T,,M,2.59,N,4.79,K,A*18
###2023-11-09 13:09:33.329105$GNGGA,130933.50,3611.0340471,N,07544.9414449,W,1,24,0.6,0.646,M,-39.961,M,0.0,*6E
###2023-11-09 13:09:33.331683$GPGSV,2,1,07,05,20,090,41,10,19,293,44,13,24,045,42,15,61,037,45*72
###2023-11-09 13:09:33.333932$GPGSV,2,2,07,18,78,277,47,23,50,316,46,24,50,134,46,,,,*4C
###2023-11-09 13:09:33.336480$GLGSV,2,1,05,70,50,017,35,71,48,290,48,80,18,090,43,85,57,203,48*61
###2023-11-09 13:09:33.338089$GLGSV,2,2,05,86,53,308,47,,,,,,,,,,,,*50
###2023-11-09 13:09:33.340650$GAGSV,1,1,04,07,73,259,45,08,48,043,44,13,63,161,45,26,57,310,44*67
###2023-11-09 13:09:33.343214$GBGSV,2,1,06,11,22,180,41,14,65,009,45,24,20,132,43,26,23,081,42*65
###2023-11-09 13:09:33.345140$GBGSV,2,2,06,28,43,287,47,33,59,304,47,,,,,,,,*66
###2023-11-09 13:09:33.346562$GNVTG,95.43,T,,M,2.62,N,4.86,K,A*14
###2023-11-09 13:09:33.429528$GNGGA,130933.60,3611.0340400,N,07544.9413574,W,1,23,0.6,0.639,M,-39.961,M,0.0,*6C
###2023-11-09 13:09:33.432120$GPGSV,2,1,07,05,20,090,41,10,19,293,44,13,24,045,41,15,61,037,45*71
###2023-11-09 13:09:33.434372$GPGSV,2,2,07,18,78,277,47,23,50,316,46,24,50,134,46,,,,*4C
###2023-11-09 13:09:33.436944$GLGSV,1,1,04,71,48,290,47,80,18,090,43,85,57,203,49,86,53,308,47*6F
###2023-11-09 13:09:33.439517$GAGSV,1,1,04,07,73,259,45,08,48,043,44,13,63,161,45,26,57,310,44*67
###2023-11-09 13:09:33.442097$GBGSV,2,1,06,11,22,180,42,14,65,009,45,24,20,132,43,26,23,081,42*66
###2023-11-09 13:09:33.444031$GBGSV,2,2,06,28,43,287,47,33,59,304,47,,,,,,,,*66
###2023-11-09 13:09:33.445471$GNVTG,95.17,T,,M,2.53,N,4.68,K,A*17
###2023-11-09 13:09:33.529520$GNGGA,130933.70,3611.0340398,N,07544.9412725,W,1,23,0.6,0.645,M,-39.961,M,0.0,*67
###2023-11-09 13:09:33.532122$GPGSV,2,1,07,05,20,090,41,10,19,293,44,13,24,045,40,15,61,037,45*70
###2023-11-09 13:09:33.534378$GPGSV,2,2,07,18,78,277,47,23,50,316,45,24,50,134,46,,,,*4F
###2023-11-09 13:09:33.536969$GLGSV,1,1,04,71,48,290,47,80,18,090,43,85,57,203,49,86,53,308,47*6F
###2023-11-09 13:09:33.539543$GAGSV,1,1,04,07,73,259,45,08,48,043,44,13,63,161,45,26,57,310,44*67
###2023-11-09 13:09:33.542125$GBGSV,2,1,06,11,22,180,42,14,65,009,45,24,20,132,43,26,23,081,42*66
###2023-11-09 13:09:33.544053$GBGSV,2,2,06,28,43,287,47,33,59,304,47,,,,,,,,*66
###2023-11-09 13:09:33.545480$GNVTG,83.93,T,,M,2.49,N,4.61,K,A*1E
###2023-11-09 13:09:33.629477$GNGGA,130933.80,3611.0340528,N,07544.9411864,W,1,23,0.6,0.657,M,-39.961,M,0.0,*6F
###2023-11-09 13:09:33.632045$GPGSV,2,1,07,05,20,090,41,10,19,293,44,13,24,045,40,15,61,037,45*70
###2023-11-09 13:09:33.634284$GPGSV,2,2,07,18,78,277,47,23,50,316,45,24,50,134,46,,,,*4F
###2023-11-09 13:09:33.636837$GLGSV,1,1,04,71,48,290,47,80,18,090,43,85,57,203,49,86,53,308,47*6F
###2023-11-09 13:09:33.639409$GAGSV,1,1,04,07,73,259,45,08,48,043,44,13,63,161,45,26,57,310,44*67
###2023-11-09 13:09:33.641963$GBGSV,2,1,06,11,22,180,42,14,65,009,45,24,20,132,43,26,23,081,42*66
###2023-11-09 13:09:33.643885$GBGSV,2,2,06,28,43,287,47,33,59,304,47,,,,,,,,*66
###2023-11-09 13:09:33.645305$GNVTG,74.66,T,,M,2.66,N,4.93,K,A*1C
###2023-11-09 13:09:33.729506$GNGGA,130933.90,3611.0340728,N,07544.9410969,W,1,23,0.6,0.672,M,-39.961,M,0.0,*66
###2023-11-09 13:09:33.732104$GPGSV,2,1,07,05,20,090,41,10,19,293,44,13,24,045,40,15,61,037,45*70
###2023-11-09 13:09:33.734356$GPGSV,2,2,07,18,78,277,47,23,50,316,45,24,50,134,46,,,,*4F
###2023-11-09 13:09:33.736939$GLGSV,1,1,04,71,48,290,48,80,18,090,43,85,57,203,49,86,53,308,47*60
###2023-11-09 13:09:33.739505$GAGSV,1,1,04,07,73,259,45,08,48,043,44,13,63,161,45,26,57,310,44*67
###2023-11-09 13:09:33.742076$GBGSV,2,1,06,11,22,180,41,14,65,009,45,24,20,132,43,26,23,081,42*65
###2023-11-09 13:09:33.744009$GBGSV,2,2,06,28,43,287,47,33,59,304,47,,,,,,,,*66
###2023-11-09 13:09:33.745434$GNVTG,73.82,T,,M,2.78,N,5.15,K,A*11
###2023-11-09 13:09:33.832605$GNGGA,130934.00,3611.0340894,N,07544.9410042,W,1,24,0.6,0.676,M,-39.961,M,0.0,*63
###2023-11-09 13:09:33.835199$GPGSV,2,1,07,05,20,090,41,10,19,293,44,13,24,045,40,15,61,037,45*70
###2023-11-09 13:09:33.837474$GPGSV,2,2,07,18,78,277,47,23,50,316,45,24,50,134,45,,,,*4C
###2023-11-09 13:09:33.840046$GLGSV,2,1,05,70,50,017,35,71,48,290,48,80,18,090,43,85,57,203,48*61
###2023-11-09 13:09:33.841650$GLGSV,2,2,05,86,53,308,47,,,,,,,,,,,,*50
###2023-11-09 13:09:33.844206$GAGSV,1,1,04,07,73,259,45,08,48,043,45,13,63,161,45,26,57,310,44*66
###2023-11-09 13:09:33.846784$GBGSV,2,1,06,11,22,180,41,14,65,009,45,24,20,132,42,26,23,081,42*64
###2023-11-09 13:09:33.848726$GBGSV,2,2,06,28,43,287,47,33,59,304,47,,,,,,,,*66
###2023-11-09 13:09:33.850151$GNVTG,80.61,T,,M,2.80,N,5.18,K,A*1A
###2023-11-09 13:09:33.931605$GNGGA,130934.10,3611.0340977,N,07544.9409086,W,1,24,0.6,0.667,M,-39.961,M,0.0,*6E
###2023-11-09 13:09:33.934174$GPGSV,2,1,07,05,20,090,41,10,19,293,44,13,24,045,41,15,61,037,45*71
###2023-11-09 13:09:33.936413$GPGSV,2,2,07,18,78,277,47,23,50,316,46,24,50,134,45,,,,*4F
###2023-11-09 13:09:33.938991$GLGSV,2,1,05,70,50,017,35,71,48,290,48,80,18,090,43,85,57,203,48*61
###2023-11-09 13:09:33.940582$GLGSV,2,2,05,86,53,308,47,,,,,,,,,,,,*50
###2023-11-09 13:09:33.943428$GAGSV,1,1,04,07,73,259,45,08,48,043,45,13,63,161,45,26,57,310,44*66
###2023-11-09 13:09:33.946011$GBGSV,2,1,06,11,22,180,40,14,65,009,46,24,20,132,42,26,23,081,43*67
###2023-11-09 13:09:33.947998$GBGSV,2,2,06,28,43,287,47,33,59,304,47,,,,,,,,*66
###2023-11-09 13:09:33.949435$GNVTG,86.27,T,,M,2.84,N,5.26,K,A*17
###2023-11-09 13:09:34.031853$GNGGA,130934.20,3611.0340985,N,07544.9408111,W,1,24,0.6,0.651,M,-39.961,M,0.0,*6B
###2023-11-09 13:09:34.034446$GPGSV,2,1,07,05,20,090,41,10,19,293,42,13,24,045,41,15,61,037,45*77
###2023-11-09 13:09:34.036685$GPGSV,2,2,07,18,78,277,47,23,50,316,46,24,50,134,45,,,,*4F
###2023-11-09 13:09:34.039276$GLGSV,2,1,05,70,50,017,35,71,48,290,47,80,18,090,43,85,57,203,48*6E
###2023-11-09 13:09:34.040881$GLGSV,2,2,05,86,53,308,47,,,,,,,,,,,,*50
###2023-11-09 13:09:34.043438$GAGSV,1,1,04,07,73,259,45,08,48,043,45,13,63,161,45,26,57,310,44*66
###2023-11-09 13:09:34.045998$GBGSV,2,1,06,11,22,180,40,14,65,009,45,24,20,132,42,26,23,081,43*64
