###2023-11-09 13:09:51.855494$GNVTG,49.89,T,,M,5.09,N,9.43,K,A*1D
###2023-11-09 13:09:51.933230$GNGGA,130952.10,3611.0416328,N,07544.9112979,W,1,24,0.6,0.576,M,-39.961,M,0.0,*6F
###2023-11-09 13:09:51.935834$GPGSV,2,1,07,05,20,090,43,10,19,293,43,13,24,045,41,15,61,037,46*77
###2023-11-09 13:09:51.938102$GPGSV,2,2,07,18,78,277,47,23,50,316,45,24,50,134,46,,,,*4F
###2023-11-09 13:09:51.940672$GLGSV,2,1,05,70,50,017,36,71,48,290,48,80,18,090,44,85,57,203,48*65
###2023-11-09 13:09:51.942267$GLGSV,2,2,05,86,53,308,48,,,,,,,,,,,,*5F
###2023-11-09 13:09:51.944824$GAGSV,1,1,04,07,73,259,45,08,48,043,44,13,63,161,45,26,57,310,45*66
###2023-11-09 13:09:51.947401$GBGSV,2,1,06,11,22,180,42,14,65,009,44,24,21,132,43,26,23,080,43*66
###2023-11-09 13:09:51.949325$GBGSV,2,2,06,28,43,286,47,33,59,305,47,,,,,,,,*66
###2023-11-09 13:09:51.950744$GNVTG,51.35,T,,M,5.09,N,9.43,K,A*13
###2023-11-09 13:09:52.030752$GNGGA,130952.20,3611.0417200,N,07544.9111560,W,1,24,0.6,0.573,M,-39.961,M,0.0,*64
###2023-11-09 13:09:52.033352$GPGSV,2,1,07,05,20,090,42,10,19,293,43,13,24,045,41,15,61,037,46*76
###2023-11-09 13:09:52.035599$GPGSV,2,2,07,18,78,277,47,23,50,316,46,24,50,134,46,,,,*4C
###2023-11-09 13:09:52.038184$GLGSV,2,1,05,70,50,017,36,71,48,290,48,80,18,090,44,85,57,203,48*65
###2023-11-09 13:09:52.039789$GLGSV,2,2,05,86,53,308,48,,,,,,,,,,,,*5F
###2023-11-09 13:09:52.042344$GAGSV,1,1,04,07,73,259,46,08,48,043,44,13,63,161,45,26,57,310,45*65
###2023-11-09 13:09:52.044918$GBGSV,2,1,06,11,22,180,42,14,65,009,44,24,21,132,43,26,23,080,43*66
###2023-11-09 13:09:52.046841$GBGSV,2,2,06,28,43,286,47,33,59,305,47,,,,,,,,*66
###2023-11-09 13:09:52.048280$GNVTG,53.90,T,,M,5.23,N,9.68,K,A*1F
###2023-11-09 13:09:52.129419$GNGGA,130952.30,3611.0418026,N,07544.9110111,W,1,24,0.6,0.557,M,-39.961,M,0.0,*69
###2023-11-09 13:09:52.132025$GPGSV,2,1,07,05,20,090,42,10,19,293,43,13,24,045,41,15,61,037,46*76
###2023-11-09 13:09:52.134285$GPGSV,2,2,07,18,78,277,47,23,50,316,46,24,50,134,46,,,,*4C
###2023-11-09 13:09:52.136849$GLGSV,2,1,05,70,50,017,36,71,48,290,47,80,18,090,44,85,57,203,48*6A
###2023-11-09 13:09:52.138477$GLGSV,2,2,05,86,53,308,48,,,,,,,,,,,,*5F
###2023-11-09 13:09:52.141054$GAGSV,1,1,04,07,73,259,46,08,48,043,44,13,63,161,45,26,57,310,45*65
###2023-11-09 13:09:52.143622$GBGSV,2,1,06,11,22,180,42,14,65,009,44,24,21,132,43,26,23,080,43*66
###2023-11-09 13:09:52.145563$GBGSV,2,2,06,28,43,286,47,33,59,305,47,,,,,,,,*66
###2023-11-09 13:09:52.147006$GNVTG,55.80,T,,M,5.11,N,9.47,K,A*14
###2023-11-09 13:09:52.229107$GNGGA,130952.40,3611.0418814,N,07544.9108667,W,1,24,0.6,0.553,M,-39.961,M,0.0,*6C
###2023-11-09 13:09:52.231685$GPGSV,2,1,07,05,20,090,42,10,19,293,42,13,24,045,41,15,61,037,46*77
###2023-11-09 13:09:52.233930$GPGSV,2,2,07,18,78,277,47,23,50,316,46,24,50,134,46,,,,*4C
###2023-11-09 13:09:52.236486$GLGSV,2,1,05,70,50,017,36,71,48,290,47,80,18,090,44,85,57,203,49*6B
###2023-11-09 13:09:52.238094$GLGSV,2,2,05,86,53,308,48,,,,,,,,,,,,*5F
###2023-11-09 13:09:52.240646$GAGSV,1,1,04,07,73,259,46,08,48,043,44,13,63,161,45,26,57,310,45*65
###2023-11-09 13:09:52.243203$GBGSV,2,1,06,11,22,180,42,14,65,009,44,24,21,132,44,26,23,080,43*61
###2023-11-09 13:09:52.245122$GBGSV,2,2,06,28,43,286,47,33,59,305,47,,,,,,,,*66
###2023-11-09 13:09:52.246544$GNVTG,56.11,T,,M,5.03,N,9.32,K,A*1E
###2023-11-09 13:09:52.329260$GNGGA,130952.50,3611.0419629,N,07544.9107275,W,1,24,0.6,0.559,M,-39.961,M,0.0,*6E
###2023-11-09 13:09:52.331847$GPGSV,2,1,07,05,20,090,42,10,19,293,42,13,24,045,41,15,61,037,46*77
###2023-11-09 13:09:52.334098$GPGSV,2,2,07,18,78,277,47,23,50,316,45,24,50,134,45,,,,*4C
###2023-11-09 13:09:52.336668$GLGSV,2,1,05,70,50,017,36,71,48,290,47,80,18,090,45,85,57,203,49*6A
###2023-11-09 13:09:52.338282$GLGSV,2,2,05,86,53,308,47,,,,,,,,,,,,*50
###2023-11-09 13:09:52.340838$GAGSV,1,1,04,07,73,259,45,08,48,043,44,13,63,161,45,26,57,310,45*66
###2023-11-09 13:09:52.343411$GBGSV,2,1,06,11,22,180,43,14,65,009,44,24,21,132,45,26,23,080,44*66
###2023-11-09 13:09:52.345342$GBGSV,2,2,06,28,43,286,47,33,59,305,47,,,,,,,,*66
###2023-11-09 13:09:52.346770$GNVTG,51.89,T,,M,4.98,N,9.22,K,A*1A
###2023-11-09 13:09:52.428294$GNGGA,130952.60,3611.0420512,N,07544.9105960,W,1,24,0.6,0.576,M,-39.961,M,0.0,*6C
###2023-11-09 13:09:52.430893$GPGSV,2,1,07,05,20,090,42,10,19,293,42,13,24,045,41,15,61,037,46*77
###2023-11-09 13:09:52.433146$GPGSV,2,2,07,18,78,277,47,23,50,316,46,24,50,134,45,,,,*4F
###2023-11-09 13:09:52.435715$GLGSV,2,1,05,70,50,017,36,71,48,290,47,80,18,090,44,85,57,203,49*6B
###2023-11-09 13:09:52.437336$GLGSV,2,2,05,86,53,308,47,,,,,,,,,,,,*50
###2023-11-09 13:09:52.439907$GAGSV,1,1,04,07,73,259,45,08,48,043,44,13,63,161,45,26,57,310,45*66
###2023-11-09 13:09:52.442482$GBGSV,2,1,06,11,22,180,43,14,65,009,44,24,21,132,45,26,23,080,44*66
###2023-11-09 13:09:52.444409$GBGSV,2,2,06,28,43,286,47,33,59,305,47,,,,,,,,*66
###2023-11-09 13:09:52.445829$GNVTG,48.80,T,,M,5.00,N,9.25,K,A*1C
###2023-11-09 13:09:52.528989$GNGGA,130952.70,3611.0421416,N,07544.9104662,W,1,24,0.6,0.603,M,-39.961,M,0.0,*64
###2023-11-09 13:09:52.531562$GPGSV,2,1,07,05,20,090,42,10,19,293,43,13,24,045,41,15,61,037,46*76
###2023-11-09 13:09:52.533799$GPGSV,2,2,07,18,78,277,47,23,50,316,46,24,50,134,45,,,,*4F
###2023-11-09 13:09:52.536353$GLGSV,2,1,05,70,50,017,36,71,48,290,47,80,18,090,44,85,57,203,49*6B
###2023-11-09 13:09:52.538087$GLGSV,2,2,05,86,53,308,48,,,,,,,,,,,,*5F
###2023-11-09 13:09:52.540648$GAGSV,1,1,04,07,73,259,45,08,48,043,44,13,63,161,45,26,57,310,45*66
###2023-11-09 13:09:52.543207$GBGSV,2,1,06,11,22,180,42,14,65,009,44,24,21,132,45,26,23,080,43*60
###2023-11-09 13:09:52.545125$GBGSV,2,2,06,28,43,286,47,33,59,305,47,,,,,,,,*66
###2023-11-09 13:09:52.546547$GNVTG,49.62,T,,M,5.00,N,9.25,K,A*11
###2023-11-09 13:09:52.629282$GNGGA,130952.80,3611.0422273,N,07544.9103327,W,1,24,0.6,0.617,M,-39.961,M,0.0,*6B
###2023-11-09 13:09:52.631905$GPGSV,2,1,07,05,20,090,42,10,19,293,43,13,24,045,41,15,61,037,46*76
###2023-11-09 13:09:52.634178$GPGSV,2,2,07,18,78,277,47,23,50,316,46,24,50,134,45,,,,*4F
###2023-11-09 13:09:52.636776$GLGSV,2,1,05,70,50,017,36,71,48,290,48,80,18,090,44,85,57,203,49*64
###2023-11-09 13:09:52.638432$GLGSV,2,2,05,86,53,308,48,,,,,,,,,,,,*5F
###2023-11-09 13:09:52.641024$GAGSV,1,1,04,07,73,259,46,08,48,043,44,13,63,161,45,26,57,310,45*65
###2023-11-09 13:09:52.643602$GBGSV,2,1,06,11,22,180,42,14,65,009,44,24,21,132,44,26,23,080,43*61
###2023-11-09 13:09:52.645538$GBGSV,2,2,06,28,43,286,47,33,59,305,47,,,,,,,,*66
###2023-11-09 13:09:52.646979$GNVTG,53.52,T,,M,4.96,N,9.18,K,A*19
###2023-11-09 13:09:52.729271$GNGGA,130952.90,3611.0423041,N,07544.9101918,W,1,24,0.6,0.625,M,-39.961,M,0.0,*6D
###2023-11-09 13:09:52.731871$GPGSV,2,1,07,05,20,090,42,10,19,293,43,13,24,045,41,15,61,037,46*76
###2023-11-09 13:09:52.734128$GPGSV,2,2,07,18,78,277,47,23,50,316,46,24,50,134,45,,,,*4F
###2023-11-09 13:09:52.736700$GLGSV,2,1,05,70,50,017,36,71,48,290,48,80,18,090,44,85,57,203,49*64
###2023-11-09 13:09:52.738332$GLGSV,2,2,05,86,53,308,48,,,,,,,,,,,,*5F
###2023-11-09 13:09:52.740902$GAGSV,1,1,04,07,73,259,46,08,48,043,44,13,63,161,45,26,57,310,45*65
###2023-11-09 13:09:52.743476$GBGSV,2,1,06,11,22,180,42,14,65,009,44,24,21,132,44,26,23,080,43*61
###2023-11-09 13:09:52.745415$GBGSV,2,2,06,28,43,286,47,33,59,305,47,,,,,,,,*66
###2023-11-09 13:09:52.746841$GNVTG,58.41,T,,M,4.98,N,9.22,K,A*17
###2023-11-09 13:09:52.832220$GNGGA,130953.00,3611.0423738,N,07544.9100466,W,1,24,0.6,0.636,M,-39.961,M,0.0,*6B
###2023-11-09 13:09:52.834790$GPGSV,2,1,07,05,20,090,43,10,19,293,43,13,24,045,41,15,61,037,46*77
###2023-11-09 13:09:52.837041$GPGSV,2,2,07,18,78,277,47,23,50,316,46,24,50,134,45,,,,*4F
###2023-11-09 13:09:52.839602$GLGSV,2,1,05,70,50,017,36,71,48,290,48,80,18,090,45,85,57,203,49*65
###2023-11-09 13:09:52.841203$GLGSV,2,2,05,86,53,308,48,,,,,,,,,,,,*5F
###2023-11-09 13:09:52.843758$GAGSV,1,1,04,07,73,259,46,08,48,043,44,13,63,161,45,26,57,310,45*65
###2023-11-09 13:09:52.846321$GBGSV,2,1,06,11,22,180,42,14,65,009,44,24,21,132,44,26,23,080,43*61
###2023-11-09 13:09:52.848264$GBGSV,2,2,06,28,43,286,47,33,59,305,47,,,,,,,,*66
###2023-11-09 13:09:52.849686$GNVTG,59.96,T,,M,4.88,N,9.04,K,A*19
###2023-11-09 13:09:52.931396$GNGGA,130953.10,3611.0424424,N,07544.9099050,W,1,24,0.6,0.655,M,-39.961,M,0.0,*66
###2023-11-09 13:09:52.934005$GPGSV,2,1,07,05,20,090,43,10,19,293,42,13,24,045,41,15,61,037,46*76
###2023-11-09 13:09:52.936276$GPGSV,2,2,07,18,78,277,47,23,50,316,45,24,50,134,45,,,,*4C
###2023-11-09 13:09:52.938897$GLGSV,2,1,05,70,49,019,36,71,48,290,47,80,18,090,45,85,57,203,49*6C
###2023-11-09 13:09:52.940523$GLGSV,2,2,05,86,53,308,48,,,,,,,,,,,,*5F
###2023-11-09 13:09:52.943110$GAGSV,1,1,04,07,73,259,46,08,48,043,44,13,63,161,45,26,57,310,45*65
###2023-11-09 13:09:52.945709$GBGSV,2,1,06,11,22,180,43,14,65,009,44,24,21,132,45,26,23,080,43*61
###2023-11-09 13:09:52.947671$GBGSV,2,2,06,28,43,286,47,33,59,305,47,,,,,,,,*66
###2023-11-09 13:09:52.949117$GNVTG,58.11,T,,M,4.76,N,8.82,K,A*19
