###2023-11-09 13:06:42.438521$GLGSV,2,2,05,86,52,309,47,,,,,,,,,,,,*50
###2023-11-09 13:06:42.441118$GAGSV,1,1,04,07,72,255,45,08,49,042,44,13,64,160,44,26,56,311,45*6C
###2023-11-09 13:06:42.443716$GBGSV,2,1,06,11,24,180,41,14,65,006,46,24,19,133,42,26,23,082,42*66
###2023-11-09 13:06:42.445667$GBGSV,2,2,06,28,43,289,47,33,58,302,47,,,,,,,,*6F
###2023-11-09 13:06:42.447127$GNVTG,13.68,T,,M,0.66,N,1.22,K,A*1E
###2023-11-09 13:06:42.531498$GNGGA,130642.70,3611.0444977,N,07544.9791387,W,1,24,0.6,0.944,M,-39.961,M,0.0,*6B
###2023-11-09 13:06:42.534100$GPGSV,2,1,07,05,21,090,42,10,18,292,44,13,24,045,41,15,62,037,46*73
###2023-11-09 13:06:42.536357$GPGSV,2,2,07,18,77,281,47,23,50,315,45,24,49,136,47,,,,*41
###2023-11-09 13:06:42.538945$GLGSV,2,1,05,70,50,016,35,71,48,288,48,80,17,091,42,85,58,203,48*69
###2023-11-09 13:06:42.540554$GLGSV,2,2,05,86,52,309,47,,,,,,,,,,,,*50
###2023-11-09 13:06:42.543118$GAGSV,1,1,04,07,72,255,45,08,49,042,44,13,64,160,45,26,56,311,45*6D
###2023-11-09 13:06:42.545694$GBGSV,2,1,06,11,24,180,42,14,65,006,46,24,19,133,43,26,23,082,42*64
###2023-11-09 13:06:42.547648$GBGSV,2,2,06,28,43,289,47,33,58,302,47,,,,,,,,*6F
###2023-11-09 13:06:42.549081$GNVTG,13.68,T,,M,0.72,N,1.33,K,A*1B
###2023-11-09 13:06:42.630462$GNGGA,130642.80,3611.0445136,N,07544.9791191,W,1,24,0.6,0.925,M,-39.961,M,0.0,*6A
###2023-11-09 13:06:42.633030$GPGSV,2,1,07,05,21,090,41,10,18,292,44,13,24,045,41,15,62,037,46*70
###2023-11-09 13:06:42.635273$GPGSV,2,2,07,18,77,281,47,23,50,315,45,24,49,136,46,,,,*40
###2023-11-09 13:06:42.637850$GLGSV,2,1,05,70,50,016,35,71,48,288,47,80,17,091,42,85,58,203,48*66
###2023-11-09 13:06:42.639450$GLGSV,2,2,05,86,52,309,47,,,,,,,,,,,,*50
###2023-11-09 13:06:42.642001$GAGSV,1,1,04,07,72,255,45,08,49,042,44,13,64,160,45,26,56,311,45*6D
###2023-11-09 13:06:42.644557$GBGSV,2,1,06,11,24,180,42,14,65,006,45,24,19,133,43,26,23,082,42*67
###2023-11-09 13:06:42.646477$GBGSV,2,2,06,28,43,289,47,33,58,302,47,,,,,,,,*6F
###2023-11-09 13:06:42.647913$GNVTG,13.68,T,,M,0.89,N,1.66,K,A*1F
###2023-11-09 13:06:42.731123$GNGGA,130642.90,3611.0445339,N,07544.9790961,W,1,24,0.6,0.901,M,-39.961,M,0.0,*66
###2023-11-09 13:06:42.733726$GPGSV,2,1,07,05,21,090,41,10,18,292,44,13,24,045,41,15,62,037,46*70
###2023-11-09 13:06:42.735984$GPGSV,2,2,07,18,77,281,47,23,50,315,45,24,49,136,46,,,,*40
###2023-11-09 13:06:42.738586$GLGSV,2,1,05,70,50,016,36,71,48,288,47,80,17,091,43,85,58,203,48*64
###2023-11-09 13:06:42.740204$GLGSV,2,2,05,86,52,309,47,,,,,,,,,,,,*50
###2023-11-09 13:06:42.742780$GAGSV,1,1,04,07,72,255,45,08,49,042,44,13,64,160,45,26,56,311,45*6D
###2023-11-09 13:06:42.745369$GBGSV,2,1,06,11,24,180,43,14,65,006,46,24,19,133,43,26,23,082,42*65
###2023-11-09 13:06:42.747323$GBGSV,2,2,06,28,43,289,47,33,58,302,47,,,,,,,,*6F
###2023-11-09 13:06:42.748761$GNVTG,44.25,T,,M,1.07,N,1.98,K,A*12
###2023-11-09 13:06:42.832604$GNGGA,130643.00,3611.0445565,N,07544.9790694,W,1,24,0.6,0.889,M,-39.961,M,0.0,*65
###2023-11-09 13:06:42.835210$GPGSV,2,1,07,05,21,090,41,10,18,292,44,13,24,045,41,15,62,037,46*70
###2023-11-09 13:06:42.837498$GPGSV,2,2,07,18,77,281,47,23,50,315,45,24,49,136,46,,,,*40
###2023-11-09 13:06:42.840070$GLGSV,2,1,05,70,50,016,36,71,48,288,47,80,17,091,43,85,58,203,48*64
###2023-11-09 13:06:42.841671$GLGSV,2,2,05,86,52,309,47,,,,,,,,,,,,*50
###2023-11-09 13:06:42.844238$GAGSV,1,1,04,07,72,255,45,08,49,042,44,13,64,160,44,26,56,311,45*6C
###2023-11-09 13:06:42.846815$GBGSV,2,1,06,11,24,180,43,14,65,006,46,24,19,133,43,26,23,082,42*65
###2023-11-09 13:06:42.848763$GBGSV,2,2,06,28,43,289,47,33,58,302,47,,,,,,,,*6F
###2023-11-09 13:06:42.850195$GNVTG,44.27,T,,M,1.17,N,2.16,K,A*14
###2023-11-09 13:06:42.932980$GNGGA,130643.10,3611.0445808,N,07544.9790406,W,1,24,0.6,0.879,M,-39.961,M,0.0,*64
###2023-11-09 13:06:42.935555$GPGSV,2,1,07,05,21,090,41,10,18,292,44,13,24,045,41,15,62,037,46*70
###2023-11-09 13:06:42.937819$GPGSV,2,2,07,18,77,281,47,23,50,315,45,24,49,136,46,,,,*40
###2023-11-09 13:06:42.940379$GLGSV,2,1,05,70,50,016,36,71,48,288,48,80,17,091,44,85,58,203,48*6C
###2023-11-09 13:06:42.941980$GLGSV,2,2,05,86,52,309,47,,,,,,,,,,,,*50
###2023-11-09 13:06:42.944533$GAGSV,1,1,04,07,72,255,45,08,49,042,44,13,64,160,44,26,56,311,44*6D
###2023-11-09 13:06:42.947108$GBGSV,2,1,06,11,24,180,43,14,65,006,46,24,19,133,43,26,23,082,42*65
###2023-11-09 13:06:42.949026$GBGSV,2,2,06,28,43,289,47,33,58,302,47,,,,,,,,*6F
###2023-11-09 13:06:42.950447$GNVTG,44.83,T,,M,1.22,N,2.27,K,A*1E
###2023-11-09 13:06:43.031867$GNGGA,130643.20,3611.0446043,N,07544.9790101,W,1,24,0.6,0.879,M,-39.961,M,0.0,*61
###2023-11-09 13:06:43.034482$GPGSV,2,1,07,05,21,090,41,10,18,292,44,13,24,045,41,15,62,037,46*70
###2023-11-09 13:06:43.036754$GPGSV,2,2,07,18,77,281,47,23,50,315,45,24,49,136,46,,,,*40
###2023-11-09 13:06:43.039358$GLGSV,2,1,05,70,50,016,36,71,48,288,48,80,17,091,44,85,58,203,47*63
###2023-11-09 13:06:43.040974$GLGSV,2,2,05,86,52,309,48,,,,,,,,,,,,*5F
###2023-11-09 13:06:43.043547$GAGSV,1,1,04,07,72,255,45,08,49,042,44,13,64,160,44,26,56,311,45*6C
###2023-11-09 13:06:43.046126$GBGSV,2,1,06,11,24,180,42,14,65,006,45,24,19,133,43,26,23,082,42*67
###2023-11-09 13:06:43.048075$GBGSV,2,2,06,28,43,289,47,33,58,302,47,,,,,,,,*6F
###2023-11-09 13:06:43.049511$GNVTG,48.69,T,,M,1.21,N,2.23,K,A*11
###2023-11-09 13:06:43.130976$GNGGA,130643.30,3611.0446261,N,07544.9789800,W,1,24,0.6,0.879,M,-39.961,M,0.0,*62
###2023-11-09 13:06:43.133559$GPGSV,2,1,07,05,21,090,41,10,18,292,44,13,24,045,41,15,62,037,46*70
###2023-11-09 13:06:43.135816$GPGSV,2,2,07,18,77,281,47,23,50,315,45,24,49,136,46,,,,*40
###2023-11-09 13:06:43.138417$GLGSV,2,1,05,70,50,016,36,71,48,288,48,80,17,091,43,85,58,203,47*64
###2023-11-09 13:06:43.140033$GLGSV,2,2,05,86,52,309,48,,,,,,,,,,,,*5F
###2023-11-09 13:06:43.142605$GAGSV,1,1,04,07,72,255,45,08,49,042,44,13,64,160,44,26,56,311,45*6C
###2023-11-09 13:06:43.145182$GBGSV,2,1,06,11,24,180,42,14,65,006,45,24,19,133,43,26,23,082,43*66
###2023-11-09 13:06:43.147130$GBGSV,2,2,06,28,43,289,47,33,58,302,47,,,,,,,,*6F
###2023-11-09 13:06:43.148560$GNVTG,49.79,T,,M,1.13,N,2.09,K,A*18
###2023-11-09 13:06:43.229966$GNGGA,130643.40,3611.0446465,N,07544.9789509,W,1,24,0.6,0.885,M,-39.961,M,0.0,*60
###2023-11-09 13:06:43.232539$GPGSV,2,1,07,05,21,090,41,10,18,292,44,13,24,045,41,15,62,037,46*70
###2023-11-09 13:06:43.234780$GPGSV,2,2,07,18,77,281,47,23,50,315,45,24,49,136,46,,,,*40
###2023-11-09 13:06:43.237358$GLGSV,2,1,05,70,50,016,36,71,48,288,48,80,17,091,43,85,58,203,47*64
###2023-11-09 13:06:43.238960$GLGSV,2,2,05,86,52,309,48,,,,,,,,,,,,*5F
###2023-11-09 13:06:43.241517$GAGSV,1,1,04,07,72,255,45,08,49,042,44,13,64,160,44,26,56,311,45*6C
###2023-11-09 13:06:43.244085$GBGSV,2,1,06,11,24,180,42,14,65,006,45,24,19,133,43,26,23,082,43*66
###2023-11-09 13:06:43.246002$GBGSV,2,2,06,28,43,289,47,33,58,302,47,,,,,,,,*6F
###2023-11-09 13:06:43.247433$GNVTG,50.81,T,,M,1.11,N,2.05,K,A*19
###2023-11-09 13:06:43.328763$GNGGA,130643.50,3611.0446675,N,07544.9789234,W,1,24,0.6,0.893,M,-39.961,M,0.0,*6C
###2023-11-09 13:06:43.331368$GPGSV,2,1,07,05,21,090,41,10,18,292,44,13,24,045,42,15,62,037,46*73
###2023-11-09 13:06:43.333626$GPGSV,2,2,07,18,77,281,47,23,50,315,45,24,49,136,46,,,,*40
###2023-11-09 13:06:43.336194$GLGSV,2,1,05,70,50,016,36,71,48,288,48,80,17,091,43,85,58,203,48*6B
###2023-11-09 13:06:43.337819$GLGSV,2,2,05,86,52,309,48,,,,,,,,,,,,*5F
###2023-11-09 13:06:43.340385$GAGSV,1,1,04,07,72,255,45,08,49,042,44,13,64,160,44,26,56,311,45*6C
###2023-11-09 13:06:43.342955$GBGSV,2,1,06,11,24,180,42,14,65,006,45,24,19,133,43,26,23,082,43*66
###2023-11-09 13:06:43.344887$GBGSV,2,2,06,28,43,289,47,33,58,302,47,,,,,,,,*6F
###2023-11-09 13:06:43.346311$GNVTG,44.94,T,,M,1.09,N,2.02,K,A*16
###2023-11-09 13:06:43.430476$GNGGA,130643.60,3611.0446916,N,07544.9788978,W,1,24,0.6,0.904,M,-39.961,M,0.0,*68
###2023-11-09 13:06:43.433056$GPGSV,2,1,07,05,21,090,41,10,18,292,43,13,24,045,41,15,62,037,46*77
###2023-11-09 13:06:43.435304$GPGSV,2,2,07,18,77,281,47,23,50,315,45,24,49,136,46,,,,*40
###2023-11-09 13:06:43.437922$GLGSV,2,1,05,70,50,016,35,71,48,288,48,80,17,091,43,85,58,203,48*68
###2023-11-09 13:06:43.439540$GLGSV,2,2,05,86,52,309,48,,,,,,,,,,,,*5F
###2023-11-09 13:06:43.442427$GAGSV,1,1,04,07,72,255,45,08,49,042,44,13,64,160,44,26,56,311,45*6C
###2023-11-09 13:06:43.445015$GBGSV,2,1,06,11,24,180,42,14,65,006,45,24,19,133,43,26,23,082,43*66
###2023-11-09 13:06:43.446983$GBGSV,2,2,06,28,43,289,47,33,58,302,47,,,,,,,,*6F
###2023-11-09 13:06:43.448417$GNVTG,38.72,T,,M,1.19,N,2.20,K,A*14
###2023-11-09 13:06:43.530468$GNGGA,130643.70,3611.0447205,N,07544.9788741,W,1,24,0.6,0.914,M,-39.961,M,0.0,*64
###2023-11-09 13:06:43.533043$GPGSV,2,1,07,05,21,090,41,10,18,292,43,13,24,045,41,15,62,037,46*77
###2023-11-09 13:06:43.535291$GPGSV,2,2,07,18,77,281,47,23,50,315,45,24,49,136,46,,,,*40
###2023-11-09 13:06:43.537856$GLGSV,2,1,05,70,50,016,35,71,48,288,48,80,17,091,43,85,58,203,48*68
###2023-11-09 13:06:43.539458$GLGSV,2,2,05,86,52,309,48,,,,,,,,,,,,*5F
