###2023-11-09 13:09:44.135224$GPGSV,2,1,07,05,20,090,42,10,19,293,44,13,24,045,40,15,61,037,46*70
###2023-11-09 13:09:44.137542$GPGSV,2,2,07,18,78,277,47,23,50,316,45,24,50,134,45,,,,*4C
###2023-11-09 13:09:44.140105$GLGSV,2,1,05,70,50,017,36,71,48,290,49,80,18,090,45,85,57,203,50*6C
###2023-11-09 13:09:44.141721$GLGSV,2,2,05,86,53,308,48,,,,,,,,,,,,*5F
###2023-11-09 13:09:44.144281$GAGSV,1,1,04,07,73,259,45,08,48,043,45,13,63,161,45,26,57,310,45*67
###2023-11-09 13:09:44.146846$GBGSV,2,1,06,11,22,180,43,14,65,009,45,24,21,132,44,26,23,080,42*60
###2023-11-09 13:09:44.148795$GBGSV,2,2,06,28,43,286,47,33,59,304,47,,,,,,,,*67
###2023-11-09 13:09:44.150218$GNVTG,68.28,T,,M,4.90,N,9.07,K,A*14
###2023-11-09 13:09:44.226998$GNGGA,130944.40,3611.0349923,N,07544.9202145,W,1,24,0.6,0.711,M,-39.961,M,0.0,*67
###2023-11-09 13:09:44.229604$GPGSV,2,1,07,05,20,090,42,10,19,293,44,13,24,045,40,15,61,037,46*70
###2023-11-09 13:09:44.231866$GPGSV,2,2,07,18,78,277,47,23,50,316,45,24,50,134,45,,,,*4C
###2023-11-09 13:09:44.234431$GLGSV,2,1,05,70,50,017,36,71,48,290,49,80,18,090,45,85,57,203,50*6C
###2023-11-09 13:09:44.236039$GLGSV,2,2,05,86,53,308,48,,,,,,,,,,,,*5F
###2023-11-09 13:09:44.238623$GAGSV,1,1,04,07,73,259,45,08,48,043,45,13,63,161,45,26,57,310,45*67
###2023-11-09 13:09:44.241215$GBGSV,2,1,06,11,22,180,43,14,65,009,45,24,21,132,44,26,23,080,42*60
###2023-11-09 13:09:44.243151$GBGSV,2,2,06,28,43,286,46,33,59,304,47,,,,,,,,*66
###2023-11-09 13:09:44.244578$GNVTG,65.20,T,,M,4.94,N,9.14,K,A*17
###2023-11-09 13:09:44.329006$GNGGA,130944.50,3611.0350495,N,07544.9200615,W,1,24,0.6,0.677,M,-39.961,M,0.0,*6F
###2023-11-09 13:09:44.331593$GPGSV,2,1,07,05,20,090,42,10,19,293,44,13,24,045,40,15,61,037,46*70
###2023-11-09 13:09:44.333846$GPGSV,2,2,07,18,78,277,47,23,50,316,45,24,50,134,45,,,,*4C
###2023-11-09 13:09:44.336423$GLGSV,2,1,05,70,50,017,36,71,48,290,49,80,18,090,45,85,57,203,50*6C
###2023-11-09 13:09:44.338048$GLGSV,2,2,05,86,53,308,48,,,,,,,,,,,,*5F
###2023-11-09 13:09:44.340625$GAGSV,1,1,04,07,73,259,45,08,48,043,45,13,63,161,45,26,57,310,45*67
###2023-11-09 13:09:44.343211$GBGSV,2,1,06,11,22,180,43,14,65,009,45,24,21,132,44,26,23,080,43*61
###2023-11-09 13:09:44.345144$GBGSV,2,2,06,28,43,286,46,33,59,304,47,,,,,,,,*66
###2023-11-09 13:09:44.346575$GNVTG,65.67,T,,M,4.90,N,9.07,K,A*12
###2023-11-09 13:09:44.430853$GNGGA,130944.60,3611.0351066,N,07544.9199102,W,1,24,0.6,0.641,M,-39.961,M,0.0,*62
###2023-11-09 13:09:44.433429$GPGSV,2,1,07,05,20,090,42,10,19,293,44,13,24,045,40,15,61,037,45*73
###2023-11-09 13:09:44.435664$GPGSV,2,2,07,18,78,277,47,23,50,316,45,24,50,134,45,,,,*4C
###2023-11-09 13:09:44.438278$GLGSV,2,1,05,70,50,017,36,71,48,290,49,80,18,090,45,85,57,203,49*64
###2023-11-09 13:09:44.439880$GLGSV,2,2,05,86,53,308,48,,,,,,,,,,,,*5F
###2023-11-09 13:09:44.442436$GAGSV,1,1,04,07,73,259,45,08,48,043,45,13,63,161,45,26,57,310,45*67
###2023-11-09 13:09:44.445007$GBGSV,2,1,06,11,22,180,43,14,65,009,45,24,21,132,44,26,23,080,43*61
###2023-11-09 13:09:44.446947$GBGSV,2,2,06,28,43,286,47,33,59,304,47,,,,,,,,*67
###2023-11-09 13:09:44.448374$GNVTG,64.74,T,,M,4.84,N,8.96,K,A*1D
###2023-11-09 13:09:44.528012$GNGGA,130944.70,3611.0351668,N,07544.9197624,W,1,24,0.6,0.604,M,-39.961,M,0.0,*67
###2023-11-09 13:09:44.530608$GPGSV,2,1,07,05,20,090,42,10,19,293,44,13,24,045,40,15,61,037,46*70
###2023-11-09 13:09:44.532863$GPGSV,2,2,07,18,78,277,47,23,50,316,46,24,50,134,45,,,,*4F
###2023-11-09 13:09:44.535435$GLGSV,2,1,05,70,50,017,36,71,48,290,49,80,18,090,45,85,57,203,49*64
###2023-11-09 13:09:44.537097$GLGSV,2,2,05,86,53,308,49,,,,,,,,,,,,*5E
###2023-11-09 13:09:44.539674$GAGSV,1,1,04,07,73,259,45,08,48,043,45,13,63,161,45,26,57,310,45*67
###2023-11-09 13:09:44.542260$GBGSV,2,1,06,11,22,180,42,14,65,009,45,24,21,132,44,26,23,080,43*60
###2023-11-09 13:09:44.544196$GBGSV,2,2,06,28,43,286,47,33,59,304,47,,,,,,,,*67
###2023-11-09 13:09:44.545626$GNVTG,62.23,T,,M,4.82,N,8.93,K,A*1A
###2023-11-09 13:09:44.628009$GNGGA,130944.80,3611.0352272,N,07544.9196161,W,1,24,0.6,0.576,M,-39.961,M,0.0,*65
###2023-11-09 13:09:44.630608$GPGSV,2,1,07,05,20,090,42,10,19,293,44,13,24,045,41,15,61,037,46*71
###2023-11-09 13:09:44.632871$GPGSV,2,2,07,18,78,277,47,23,50,316,46,24,50,134,45,,,,*4F
###2023-11-09 13:09:44.635455$GLGSV,2,1,05,70,50,017,36,71,48,290,49,80,18,090,45,85,57,203,49*64
###2023-11-09 13:09:44.637082$GLGSV,2,2,05,86,53,308,49,,,,,,,,,,,,*5E
###2023-11-09 13:09:44.639637$GAGSV,1,1,04,07,73,259,45,08,48,043,45,13,63,161,45,26,57,310,45*67
###2023-11-09 13:09:44.642202$GBGSV,2,1,06,11,22,180,42,14,65,009,44,24,21,132,44,26,23,080,43*61
###2023-11-09 13:09:44.644133$GBGSV,2,2,06,28,43,286,47,33,59,304,47,,,,,,,,*67
###2023-11-09 13:09:44.645561$GNVTG,63.91,T,,M,4.78,N,8.86,K,A*13
###2023-11-09 13:09:44.727984$GNGGA,130944.90,3611.0352849,N,07544.9194669,W,1,24,0.6,0.558,M,-39.961,M,0.0,*67
###2023-11-09 13:09:44.730557$GPGSV,2,1,07,05,20,090,42,10,19,293,44,13,24,045,41,15,61,037,46*71
###2023-11-09 13:09:44.732800$GPGSV,2,2,07,18,78,277,47,23,50,316,46,24,50,134,45,,,,*4F
###2023-11-09 13:09:44.735348$GLGSV,2,1,05,70,50,017,36,71,48,290,49,80,18,090,45,85,57,203,49*64
###2023-11-09 13:09:44.736962$GLGSV,2,2,05,86,53,308,49,,,,,,,,,,,,*5E
###2023-11-09 13:09:44.739518$GAGSV,1,1,04,07,73,259,45,08,48,043,45,13,63,161,45,26,57,310,45*67
###2023-11-09 13:09:44.742084$GBGSV,2,1,06,11,22,180,42,14,65,009,44,24,21,132,44,26,23,080,42*60
###2023-11-09 13:09:44.744014$GBGSV,2,2,06,28,43,286,47,33,59,304,47,,,,,,,,*67
###2023-11-09 13:09:44.745440$GNVTG,65.18,T,,M,4.86,N,9.00,K,A*1A
###2023-11-09 13:09:44.832022$GNGGA,130945.00,3611.0353420,N,07544.9193167,W,1,24,0.6,0.528,M,-39.961,M,0.0,*64
###2023-11-09 13:09:44.834626$GPGSV,2,1,07,05,20,090,42,10,19,293,44,13,24,045,41,15,61,037,46*71
###2023-11-09 13:09:44.836877$GPGSV,2,2,07,18,78,277,47,23,50,316,46,24,50,134,45,,,,*4F
###2023-11-09 13:09:44.839463$GLGSV,2,1,05,70,50,017,36,71,48,290,49,80,18,090,45,85,57,203,49*64
###2023-11-09 13:09:44.841072$GLGSV,2,2,05,86,53,308,49,,,,,,,,,,,,*5E
###2023-11-09 13:09:44.843632$GAGSV,1,1,04,07,73,259,45,08,48,043,45,13,63,161,45,26,57,310,46*64
###2023-11-09 13:09:44.846192$GBGSV,2,1,06,11,22,180,42,14,65,009,44,24,21,132,44,26,23,080,43*61
###2023-11-09 13:09:44.848151$GBGSV,2,2,06,28,43,286,47,33,59,304,47,,,,,,,,*67
###2023-11-09 13:09:44.849585$GNVTG,64.98,T,,M,4.84,N,8.96,K,A*1F
###2023-11-09 13:09:44.928006$GNGGA,130945.10,3611.0354003,N,07544.9191694,W,1,24,0.6,0.502,M,-39.961,M,0.0,*66
###2023-11-09 13:09:44.930589$GPGSV,2,1,07,05,20,090,42,10,19,293,44,13,24,045,41,15,61,037,46*71
###2023-11-09 13:09:44.932842$GPGSV,2,2,07,18,78,277,47,23,50,316,46,24,50,134,45,,,,*4F
###2023-11-09 13:09:44.935405$GLGSV,2,1,05,70,50,017,36,71,48,290,49,80,18,090,45,85,57,203,50*6C
###2023-11-09 13:09:44.937018$GLGSV,2,2,05,86,53,308,49,,,,,,,,,,,,*5E
###2023-11-09 13:09:44.939589$GAGSV,1,1,04,07,73,259,45,08,48,043,44,13,63,161,45,26,57,310,46*65
###2023-11-09 13:09:44.942165$GBGSV,2,1,06,11,22,180,43,14,65,009,44,24,21,132,45,26,23,080,43*61
###2023-11-09 13:09:44.944102$GBGSV,2,2,06,28,43,286,47,33,59,304,47,,,,,,,,*67
###2023-11-09 13:09:44.945528$GNVTG,63.35,T,,M,4.74,N,8.78,K,A*10
###2023-11-09 13:09:45.030099$GNGGA,130945.20,3611.0354602,N,07544.9190290,W,1,24,0.6,0.491,M,-39.961,M,0.0,*68
###2023-11-09 13:09:45.032669$GPGSV,2,1,07,05,20,090,43,10,19,293,44,13,24,045,41,15,61,037,45*73
###2023-11-09 13:09:45.034902$GPGSV,2,2,07,18,78,277,47,23,50,316,46,24,50,134,45,,,,*4F
###2023-11-09 13:09:45.037484$GLGSV,2,1,05,70,50,017,36,71,48,290,49,80,18,090,45,85,57,203,50*6C
###2023-11-09 13:09:45.039099$GLGSV,2,2,05,86,53,308,49,,,,,,,,,,,,*5E
###2023-11-09 13:09:45.041656$GAGSV,1,1,04,07,73,259,45,08,48,043,44,13,63,161,45,26,57,310,45*66
###2023-11-09 13:09:45.044218$GBGSV,2,1,06,11,22,180,43,14,65,009,44,24,21,132,45,26,23,080,43*61
###2023-11-09 13:09:45.046136$GBGSV,2,2,06,28,43,286,47,33,59,304,47,,,,,,,,*67
###2023-11-09 13:09:45.047595$GNVTG,61.34,T,,M,4.53,N,8.39,K,A*13
###2023-11-09 13:09:45.128136$GNGGA,130945.30,3611.0355218,N,07544.9188972,W,1,24,0.6,0.504,M,-39.961,M,0.0,*64
###2023-11-09 13:09:45.130730$GPGSV,2,1,07,05,20,090,44,10,19,293,44,13,24,045,41,15,61,037,45*74
###2023-11-09 13:09:45.133283$GPGSV,2,2,07,18,78,277,47,23,50,316,46,24,50,134,45,,,,*4F
###2023-11-09 13:09:45.135857$GLGSV,2,1,05,70,50,017,36,71,48,290,48,80,18,090,45,85,57,203,50*6D
###2023-11-09 13:09:45.137475$GLGSV,2,2,05,86,53,308,49,,,,,,,,,,,,*5E
###2023-11-09 13:09:45.140034$GAGSV,1,1,04,07,73,259,45,08,48,043,44,13,63,161,45,26,57,310,45*66
###2023-11-09 13:09:45.142613$GBGSV,2,1,06,11,22,180,43,14,65,009,44,24,21,132,45,26,23,080,43*61
###2023-11-09 13:09:45.144537$GBGSV,2,2,06,28,43,286,47,33,59,304,47,,,,,,,,*67
###2023-11-09 13:09:45.145966$GNVTG,59.12,T,,M,4.37,N,8.10,K,A*15
###2023-11-09 13:09:45.229003$GNGGA,130945.40,3611.0355860,N,07544.9187712,W,1,24,0.6,0.539,M,-39.961,M,0.0,*6F
###2023-11-09 13:09:45.231583$GPGSV,2,1,07,05,20,090,43,10,19,293,44,13,24,045,39,15,61,037,45*7C
