###2023-11-09 13:08:26.046648$GBGSV,2,1,06,11,23,180,39,14,65,008,45,24,20,132,43,26,23,081,43*6B
###2023-11-09 13:08:26.048649$GBGSV,2,2,06,28,43,287,47,33,59,304,48,,,,,,,,*69
###2023-11-09 13:08:26.050131$GNVTG,203.97,T,,M,4.47,N,8.28,K,A*29
###2023-11-09 13:08:26.133258$GNGGA,130826.30,3611.0323773,N,07545.0184789,W,1,24,0.6,0.648,M,-39.962,M,0.0,*6F
###2023-11-09 13:08:26.135859$GPGSV,2,1,07,05,20,090,42,10,19,293,45,13,24,045,42,15,62,037,46*70
###2023-11-09 13:08:26.138132$GPGSV,2,2,07,18,77,281,46,23,50,315,47,24,49,136,45,,,,*40
###2023-11-09 13:08:26.140706$GLGSV,2,1,05,70,50,017,36,71,48,290,48,80,18,090,43,85,57,203,48*62
###2023-11-09 13:08:26.142312$GLGSV,2,2,05,86,53,308,48,,,,,,,,,,,,*5F
###2023-11-09 13:08:26.144881$GAGSV,1,1,04,07,72,258,44,08,48,043,45,13,64,160,43,26,57,310,45*66
###2023-11-09 13:08:26.147494$GBGSV,2,1,06,11,23,180,38,14,65,008,45,24,20,132,43,26,23,081,43*6A
###2023-11-09 13:08:26.149434$GBGSV,2,2,06,28,43,287,46,33,59,304,48,,,,,,,,*68
###2023-11-09 13:08:26.150897$GNVTG,201.93,T,,M,4.51,N,8.35,K,A*24
###2023-11-09 13:08:26.229401$GNGGA,130826.40,3611.0322578,N,07545.0185364,W,1,24,0.6,0.654,M,-39.962,M,0.0,*6B
###2023-11-09 13:08:26.232009$GPGSV,2,1,07,05,20,090,43,10,19,293,44,13,24,045,42,15,62,037,46*70
###2023-11-09 13:08:26.234265$GPGSV,2,2,07,18,77,281,46,23,50,315,46,24,49,136,45,,,,*41
###2023-11-09 13:08:26.236838$GLGSV,2,1,05,70,50,017,36,71,48,290,47,80,18,090,44,85,57,203,47*65
###2023-11-09 13:08:26.238469$GLGSV,2,2,05,86,53,308,48,,,,,,,,,,,,*5F
###2023-11-09 13:08:26.241065$GAGSV,1,1,04,07,72,258,44,08,48,043,45,13,64,160,44,26,57,310,45*61
###2023-11-09 13:08:26.243652$GBGSV,2,1,06,11,23,180,38,14,65,008,45,24,20,132,43,26,23,081,43*6A
###2023-11-09 13:08:26.245602$GBGSV,2,2,06,28,43,287,46,33,59,304,48,,,,,,,,*68
###2023-11-09 13:08:26.247086$GNVTG,201.14,T,,M,4.70,N,8.71,K,A*28
###2023-11-09 13:08:26.330359$GNGGA,130826.50,3611.0321385,N,07545.0185948,W,1,24,0.6,0.645,M,-39.962,M,0.0,*69
###2023-11-09 13:08:26.332950$GPGSV,2,1,07,05,20,090,43,10,19,293,44,13,24,045,43,15,62,037,46*71
###2023-11-09 13:08:26.335213$GPGSV,2,2,07,18,77,281,46,23,50,315,45,24,49,136,46,,,,*41
###2023-11-09 13:08:26.337813$GLGSV,2,1,05,70,50,017,36,71,48,290,47,80,18,090,45,85,57,203,48*6B
###2023-11-09 13:08:26.339420$GLGSV,2,2,05,86,53,308,48,,,,,,,,,,,,*5F
###2023-11-09 13:08:26.341987$GAGSV,1,1,04,07,72,258,44,08,48,043,45,13,64,160,44,26,57,310,45*61
###2023-11-09 13:08:26.344559$GBGSV,2,1,06,11,23,180,38,14,65,008,45,24,20,132,44,26,23,081,43*6D
###2023-11-09 13:08:26.346485$GBGSV,2,2,06,28,43,287,46,33,59,304,48,,,,,,,,*68
###2023-11-09 13:08:26.347978$GNVTG,202.70,T,,M,4.53,N,8.39,K,A*24
###2023-11-09 13:08:26.429374$GNGGA,130826.60,3611.0320229,N,07545.0186537,W,1,24,0.6,0.618,M,-39.962,M,0.0,*63
###2023-11-09 13:08:26.431956$GPGSV,2,1,07,05,20,090,44,10,19,293,43,13,24,045,42,15,62,037,46*70
###2023-11-09 13:08:26.434201$GPGSV,2,2,07,18,77,281,46,23,50,315,45,24,49,136,46,,,,*41
###2023-11-09 13:08:26.436764$GLGSV,2,1,05,70,50,017,36,71,48,290,47,80,18,090,45,85,57,203,48*6B
###2023-11-09 13:08:26.438375$GLGSV,2,2,05,86,53,308,48,,,,,,,,,,,,*5F
###2023-11-09 13:08:26.440931$GAGSV,1,1,04,07,72,258,44,08,48,043,45,13,64,160,44,26,57,310,45*61
###2023-11-09 13:08:26.443501$GBGSV,2,1,06,11,23,180,40,14,65,008,45,24,20,132,44,26,23,081,43*62
###2023-11-09 13:08:26.445430$GBGSV,2,2,06,28,43,287,46,33,59,304,47,,,,,,,,*67
###2023-11-09 13:08:26.446890$GNVTG,202.61,T,,M,4.47,N,8.28,K,A*21
###2023-11-09 13:08:26.530521$GNGGA,130826.70,3611.0319076,N,07545.0187138,W,1,24,0.6,0.591,M,-39.962,M,0.0,*68
###2023-11-09 13:08:26.533125$GPGSV,2,1,07,05,20,090,44,10,19,293,43,13,24,045,42,15,62,037,46*70
###2023-11-09 13:08:26.535388$GPGSV,2,2,07,18,77,281,46,23,50,315,45,24,49,136,46,,,,*41
###2023-11-09 13:08:26.537981$GLGSV,2,1,05,70,50,017,36,71,48,290,47,80,18,090,45,85,57,203,49*6A
###2023-11-09 13:08:26.539595$GLGSV,2,2,05,86,53,308,48,,,,,,,,,,,,*5F
###2023-11-09 13:08:26.542164$GAGSV,1,1,04,07,72,258,44,08,48,043,45,13,64,160,44,26,57,310,45*61
###2023-11-09 13:08:26.544736$GBGSV,2,1,06,11,23,180,40,14,65,008,45,24,20,132,44,26,23,081,44*65
###2023-11-09 13:08:26.546669$GBGSV,2,2,06,28,43,287,46,33,59,304,47,,,,,,,,*67
###2023-11-09 13:08:26.548148$GNVTG,203.59,T,,M,4.55,N,8.42,K,A*24
###2023-11-09 13:08:26.633001$GNGGA,130826.80,3611.0317920,N,07545.0187775,W,1,24,0.6,0.578,M,-39.962,M,0.0,*6B
###2023-11-09 13:08:26.635626$GPGSV,2,1,07,05,20,090,44,10,19,293,43,13,24,045,42,15,62,037,46*70
###2023-11-09 13:08:26.637914$GPGSV,2,2,07,18,77,281,46,23,50,315,45,24,49,136,46,,,,*41
###2023-11-09 13:08:26.640499$GLGSV,2,1,05,70,50,017,36,71,48,290,47,80,18,090,45,85,57,203,49*6A
###2023-11-09 13:08:26.642112$GLGSV,2,2,05,86,53,308,48,,,,,,,,,,,,*5F
###2023-11-09 13:08:26.644683$GAGSV,1,1,04,07,72,258,44,08,48,043,45,13,64,160,44,26,57,310,45*61
###2023-11-09 13:08:26.647268$GBGSV,2,1,06,11,23,180,40,14,65,008,45,24,20,132,44,26,23,081,44*65
###2023-11-09 13:08:26.649203$GBGSV,2,2,06,28,43,287,46,33,59,304,47,,,,,,,,*67
###2023-11-09 13:08:26.650666$GNVTG,205.37,T,,M,4.59,N,8.50,K,A*25
###2023-11-09 13:08:26.729412$GNGGA,130826.90,3611.0316748,N,07545.0188431,W,1,24,0.6,0.565,M,-39.962,M,0.0,*6B
###2023-11-09 13:08:26.732016$GPGSV,2,1,07,05,20,090,43,10,19,293,44,13,24,045,42,15,62,037,46*70
###2023-11-09 13:08:26.734262$GPGSV,2,2,07,18,77,281,46,23,50,315,45,24,49,136,46,,,,*41
###2023-11-09 13:08:26.736832$GLGSV,2,1,05,70,50,017,36,71,48,290,48,80,18,090,45,85,57,203,49*65
###2023-11-09 13:08:26.738446$GLGSV,2,2,05,86,53,308,48,,,,,,,,,,,,*5F
###2023-11-09 13:08:26.741005$GAGSV,1,1,04,07,72,258,44,08,48,043,45,13,64,160,44,26,57,310,45*61
###2023-11-09 13:08:26.743571$GBGSV,2,1,06,11,23,180,40,14,65,008,45,24,20,132,44,26,23,081,43*62
###2023-11-09 13:08:26.745499$GBGSV,2,2,06,28,43,287,46,33,59,304,47,,,,,,,,*67
###2023-11-09 13:08:26.746972$GNVTG,204.01,T,,M,4.68,N,8.68,K,A*28
###2023-11-09 13:08:26.831387$GNGGA,130827.00,3611.0315542,N,07545.0188992,W,1,24,0.6,0.552,M,-39.962,M,0.0,*68
###2023-11-09 13:08:26.833997$GPGSV,2,1,07,05,20,090,42,10,19,293,44,13,24,045,42,15,62,037,46*71
###2023-11-09 13:08:26.836250$GPGSV,2,2,07,18,77,281,46,23,50,315,46,24,49,136,45,,,,*41
###2023-11-09 13:08:26.838848$GLGSV,2,1,05,70,50,017,36,71,48,290,48,80,18,090,44,85,57,203,49*64
###2023-11-09 13:08:26.840465$GLGSV,2,2,05,86,53,308,49,,,,,,,,,,,,*5E
###2023-11-09 13:08:26.843038$GAGSV,1,1,04,07,72,258,44,08,48,043,45,13,64,160,44,26,57,310,46*62
###2023-11-09 13:08:26.845629$GBGSV,2,1,06,11,23,180,38,14,65,008,45,24,20,132,43,26,23,081,42*6B
###2023-11-09 13:08:26.847587$GBGSV,2,2,06,28,43,287,47,33,59,304,48,,,,,,,,*69
###2023-11-09 13:08:26.849058$GNVTG,197.84,T,,M,4.61,N,8.53,K,A*2D
###2023-11-09 13:08:26.933629$GNGGA,130827.10,3611.0314299,N,07545.0189410,W,1,24,0.6,0.539,M,-39.962,M,0.0,*62
###2023-11-09 13:08:26.936229$GPGSV,2,1,07,05,20,090,42,10,19,293,45,13,24,045,42,15,62,037,46*70
###2023-11-09 13:08:26.938509$GPGSV,2,2,07,18,77,281,46,23,50,315,46,24,49,136,45,,,,*41
###2023-11-09 13:08:26.941091$GLGSV,2,1,05,70,50,017,36,71,48,290,48,80,18,090,44,85,57,203,49*64
###2023-11-09 13:08:26.942699$GLGSV,2,2,05,86,53,308,49,,,,,,,,,,,,*5E
###2023-11-09 13:08:26.945274$GAGSV,1,1,04,07,72,258,44,08,48,043,45,13,64,160,43,26,57,310,46*65
###2023-11-09 13:08:26.947872$GBGSV,2,1,06,11,23,180,38,14,65,008,45,24,20,132,42,26,23,081,42*6A
###2023-11-09 13:08:26.949811$GBGSV,2,2,06,28,43,287,47,33,59,304,48,,,,,,,,*69
###2023-11-09 13:08:26.951274$GNVTG,193.33,T,,M,4.67,N,8.64,K,A*27
###2023-11-09 13:08:27.032622$GNGGA,130827.20,3611.0313004,N,07545.0189735,W,1,24,0.6,0.532,M,-39.962,M,0.0,*6F
###2023-11-09 13:08:27.035216$GPGSV,2,1,07,05,20,090,42,10,19,293,45,13,24,045,42,15,62,037,46*70
###2023-11-09 13:08:27.037491$GPGSV,2,2,07,18,77,281,46,23,50,315,46,24,49,136,45,,,,*41
###2023-11-09 13:08:27.040061$GLGSV,2,1,05,70,50,017,36,71,48,290,48,80,18,090,44,85,57,203,49*64
###2023-11-09 13:08:27.041662$GLGSV,2,2,05,86,53,308,48,,,,,,,,,,,,*5F
###2023-11-09 13:08:27.044225$GAGSV,1,1,04,07,72,258,44,08,48,043,45,13,64,160,43,26,57,310,46*65
###2023-11-09 13:08:27.047113$GBGSV,2,1,06,11,23,180,38,14,65,008,45,24,20,132,42,26,23,081,42*6A
###2023-11-09 13:08:27.049051$GBGSV,2,2,06,28,43,287,46,33,59,304,48,,,,,,,,*68
###2023-11-09 13:08:27.050509$GNVTG,190.31,T,,M,4.82,N,8.93,K,A*25
###2023-11-09 13:08:27.129268$GNGGA,130827.30,3611.0311682,N,07545.0190015,W,1,24,0.6,0.529,M,-39.962,M,0.0,*63
###2023-11-09 13:08:27.131869$GPGSV,2,1,07,05,20,090,43,10,19,293,45,13,24,045,42,15,62,037,46*71
###2023-11-09 13:08:27.134127$GPGSV,2,2,07,18,77,281,46,23,50,315,46,24,49,136,45,,,,*41
###2023-11-09 13:08:27.136697$GLGSV,2,1,05,70,50,017,36,71,48,290,48,80,18,090,45,85,57,203,48*64
###2023-11-09 13:08:27.138317$GLGSV,2,2,05,86,53,308,48,,,,,,,,,,,,*5F
###2023-11-09 13:08:27.140876$GAGSV,1,1,04,07,72,258,44,08,48,043,45,13,64,160,43,26,57,310,46*65
###2023-11-09 13:08:27.143452$GBGSV,2,1,06,11,23,180,40,14,65,008,45,24,20,132,43,26,23,081,43*65
