###2023-11-09 13:09:21.732845$GPGSV,2,1,07,05,20,090,41,10,19,293,42,13,24,045,41,15,61,037,45*77
###2023-11-09 13:09:21.735126$GPGSV,2,2,07,18,78,277,47,23,50,316,45,24,50,134,46,,,,*4F
###2023-11-09 13:09:21.737753$GLGSV,2,1,05,70,50,017,35,71,48,290,48,80,18,090,43,85,57,203,49*60
###2023-11-09 13:09:21.739378$GLGSV,2,2,05,86,53,308,47,,,,,,,,,,,,*50
###2023-11-09 13:09:21.741949$GAGSV,1,1,04,07,73,259,45,08,48,043,44,13,63,161,45,26,57,310,44*67
###2023-11-09 13:09:21.744538$GBGSV,2,1,06,11,23,180,41,14,65,008,45,24,20,132,42,26,23,081,42*64
###2023-11-09 13:09:21.746482$GBGSV,2,2,06,28,43,287,47,33,59,304,46,,,,,,,,*67
###2023-11-09 13:09:21.747935$GNVTG,96.65,T,,M,2.08,N,3.85,K,A*1B
###2023-11-09 13:09:21.832871$GNGGA,130922.00,3611.0331035,N,07544.9520517,W,1,24,0.6,0.893,M,-39.961,M,0.0,*63
###2023-11-09 13:09:21.835492$GPGSV,2,1,07,05,20,090,41,10,19,293,42,13,24,045,40,15,61,037,44*77
###2023-11-09 13:09:21.837774$GPGSV,2,2,07,18,78,277,47,23,50,316,44,24,50,134,46,,,,*4E
###2023-11-09 13:09:21.840367$GLGSV,2,1,05,70,50,017,35,71,48,290,47,80,18,090,43,85,57,203,50*67
###2023-11-09 13:09:21.841981$GLGSV,2,2,05,86,53,308,47,,,,,,,,,,,,*50
###2023-11-09 13:09:21.844551$GAGSV,1,1,04,07,73,259,45,08,48,043,44,13,63,161,45,26,57,310,43*60
###2023-11-09 13:09:21.847155$GBGSV,2,1,06,11,23,180,43,14,65,008,44,24,20,132,44,26,23,081,42*61
###2023-11-09 13:09:21.849098$GBGSV,2,2,06,28,43,287,47,33,59,304,46,,,,,,,,*67
###2023-11-09 13:09:21.850533$GNVTG,86.50,T,,M,1.83,N,3.38,K,A*1A
###2023-11-09 13:09:21.932370$GNGGA,130922.10,3611.0331136,N,07544.9519905,W,1,24,0.6,0.889,M,-39.961,M,0.0,*6E
###2023-11-09 13:09:21.934980$GPGSV,2,1,07,05,20,090,41,10,19,293,42,13,24,045,40,15,61,037,44*77
###2023-11-09 13:09:21.937248$GPGSV,2,2,07,18,78,277,46,23,50,316,44,24,50,134,46,,,,*4F
###2023-11-09 13:09:21.939837$GLGSV,2,1,05,70,50,017,35,71,48,290,47,80,18,090,43,85,57,203,50*67
###2023-11-09 13:09:21.941446$GLGSV,2,2,05,86,53,308,47,,,,,,,,,,,,*50
###2023-11-09 13:09:21.944020$GAGSV,1,1,04,07,73,259,45,08,48,043,43,13,63,161,45,26,57,310,43*67
###2023-11-09 13:09:21.946605$GBGSV,2,1,06,11,23,180,43,14,65,008,44,24,20,132,44,26,23,081,42*61
###2023-11-09 13:09:21.948562$GBGSV,2,2,06,28,43,287,47,33,59,304,46,,,,,,,,*67
###2023-11-09 13:09:21.949990$GNVTG,70.25,T,,M,1.89,N,3.49,K,A*1D
###2023-11-09 13:09:22.033630$GNGGA,130922.20,3611.0331350,N,07544.9519301,W,1,24,0.6,0.896,M,-39.961,M,0.0,*6F
###2023-11-09 13:09:22.036245$GPGSV,2,1,07,05,20,090,41,10,19,293,42,13,24,045,40,15,61,037,44*77
###2023-11-09 13:09:22.038522$GPGSV,2,2,07,18,78,277,46,23,50,316,44,24,50,134,46,,,,*4F
###2023-11-09 13:09:22.041119$GLGSV,2,1,05,70,50,017,35,71,48,290,47,80,18,090,43,85,57,203,49*6F
###2023-11-09 13:09:22.042729$GLGSV,2,2,05,86,53,308,47,,,,,,,,,,,,*50
###2023-11-09 13:09:22.045300$GAGSV,1,1,04,07,73,259,45,08,48,043,43,13,63,161,45,26,57,310,43*67
###2023-11-09 13:09:22.047897$GBGSV,2,1,06,11,23,180,43,14,65,008,44,24,20,132,44,26,23,081,42*61
###2023-11-09 13:09:22.049839$GBGSV,2,2,06,28,43,287,47,33,59,304,46,,,,,,,,*67
###2023-11-09 13:09:22.051275$GNVTG,62.28,T,,M,2.00,N,3.71,K,A*1A
###2023-11-09 13:09:22.130856$GNGGA,130922.30,3611.0331589,N,07544.9518706,W,1,23,0.6,0.896,M,-39.961,M,0.0,*69
###2023-11-09 13:09:22.133455$GPGSV,2,1,07,05,20,090,41,10,19,293,43,13,24,045,41,15,61,037,45*76
###2023-11-09 13:09:22.135713$GPGSV,2,2,07,18,78,277,46,23,50,316,45,24,50,134,46,,,,*4E
###2023-11-09 13:09:22.138312$GLGSV,1,1,04,71,48,290,48,80,18,090,43,85,57,203,48,86,53,308,47*61
###2023-11-09 13:09:22.140888$GAGSV,1,1,04,07,73,259,45,08,48,043,44,13,63,161,45,26,57,310,44*67
###2023-11-09 13:09:22.143463$GBGSV,2,1,06,11,23,180,42,14,65,008,45,24,20,132,43,26,23,081,42*66
###2023-11-09 13:09:22.145402$GBGSV,2,2,06,28,43,287,47,33,59,304,46,,,,,,,,*67
###2023-11-09 13:09:22.146831$GNVTG,65.76,T,,M,1.89,N,3.49,K,A*1F
###2023-11-09 13:09:22.229872$GNGGA,130922.40,3611.0331743,N,07544.9518097,W,1,24,0.6,0.891,M,-39.961,M,0.0,*65
###2023-11-09 13:09:22.232456$GPGSV,2,1,07,05,20,090,41,10,19,293,45,13,24,045,42,15,61,037,45*73
###2023-11-09 13:09:22.234705$GPGSV,2,2,07,18,78,277,46,23,50,316,45,24,50,134,45,,,,*4D
###2023-11-09 13:09:22.237290$GLGSV,2,1,05,70,50,017,35,71,48,290,48,80,18,090,43,85,57,203,48*61
###2023-11-09 13:09:22.238893$GLGSV,2,2,05,86,53,308,48,,,,,,,,,,,,*5F
###2023-11-09 13:09:22.241448$GAGSV,1,1,04,07,73,259,45,08,48,043,45,13,63,161,45,26,57,310,44*66
###2023-11-09 13:09:22.244013$GBGSV,2,1,06,11,23,180,40,14,65,008,45,24,20,132,43,26,23,081,42*64
###2023-11-09 13:09:22.245938$GBGSV,2,2,06,28,43,287,47,33,59,304,48,,,,,,,,*69
###2023-11-09 13:09:22.247379$GNVTG,79.30,T,,M,1.87,N,3.46,K,A*11
###2023-11-09 13:09:22.329534$GNGGA,130922.50,3611.0331752,N,07544.9517463,W,1,24,0.6,0.886,M,-39.961,M,0.0,*62
###2023-11-09 13:09:22.332142$GPGSV,2,1,07,05,20,090,41,10,19,293,45,13,24,045,43,15,61,037,46*71
###2023-11-09 13:09:22.334405$GPGSV,2,2,07,18,78,277,46,23,50,316,46,24,50,134,45,,,,*4E
###2023-11-09 13:09:22.336997$GLGSV,2,1,05,70,50,017,35,71,48,290,49,80,18,090,43,85,57,203,48*60
###2023-11-09 13:09:22.338610$GLGSV,2,2,05,86,53,308,48,,,,,,,,,,,,*5F
###2023-11-09 13:09:22.341201$GAGSV,1,1,04,07,73,259,45,08,48,043,45,13,63,161,44,26,57,310,45*66
###2023-11-09 13:09:22.343786$GBGSV,2,1,06,11,23,180,40,14,65,008,45,24,20,132,42,26,23,081,43*64
###2023-11-09 13:09:22.345731$GBGSV,2,2,06,28,43,287,47,33,59,304,48,,,,,,,,*69
###2023-11-09 13:09:22.347176$GNVTG,98.40,T,,M,1.89,N,3.49,K,A*18
###2023-11-09 13:09:22.430507$GNGGA,130922.60,3611.0331646,N,07544.9516798,W,1,24,0.6,0.890,M,-39.961,M,0.0,*64
###2023-11-09 13:09:22.433105$GPGSV,2,1,07,05,20,090,41,10,19,293,45,13,24,045,42,15,61,037,46*70
###2023-11-09 13:09:22.435363$GPGSV,2,2,07,18,78,277,47,23,50,316,46,24,50,134,45,,,,*4F
###2023-11-09 13:09:22.437965$GLGSV,2,1,05,70,50,017,35,71,48,290,48,80,18,090,43,85,57,203,48*61
###2023-11-09 13:09:22.439584$GLGSV,2,2,05,86,53,308,48,,,,,,,,,,,,*5F
###2023-11-09 13:09:22.442174$GAGSV,1,1,04,07,73,259,45,08,48,043,45,13,63,161,44,26,57,310,45*66
###2023-11-09 13:09:22.444786$GBGSV,2,1,06,11,23,180,40,14,65,008,45,24,20,132,42,26,23,081,43*64
###2023-11-09 13:09:22.446749$GBGSV,2,2,06,28,43,287,47,33,59,304,48,,,,,,,,*69
###2023-11-09 13:09:22.448238$GNVTG,103.46,T,,M,2.06,N,3.82,K,A*2E
###2023-11-09 13:09:22.529892$GNGGA,130922.70,3611.0331527,N,07544.9516107,W,1,24,0.6,0.888,M,-39.961,M,0.0,*68
###2023-11-09 13:09:22.532500$GPGSV,2,1,07,05,20,090,41,10,19,293,44,13,24,045,41,15,61,037,46*72
###2023-11-09 13:09:22.534753$GPGSV,2,2,07,18,78,277,47,23,50,316,45,24,50,134,45,,,,*4C
###2023-11-09 13:09:22.537350$GLGSV,2,1,05,70,50,017,35,71,48,290,47,80,18,090,43,85,57,203,48*6E
###2023-11-09 13:09:22.538958$GLGSV,2,2,05,86,53,308,48,,,,,,,,,,,,*5F
###2023-11-09 13:09:22.541532$GAGSV,1,1,04,07,73,259,45,08,48,043,45,13,63,161,44,26,57,310,45*66
###2023-11-09 13:09:22.544111$GBGSV,2,1,06,11,23,180,40,14,65,008,45,24,20,132,42,26,23,081,43*64
###2023-11-09 13:09:22.546047$GBGSV,2,2,06,28,43,287,47,33,59,304,47,,,,,,,,*66
###2023-11-09 13:09:22.547522$GNVTG,100.19,T,,M,2.06,N,3.82,K,A*27
###2023-11-09 13:09:22.628914$GNGGA,130922.80,3611.0331451,N,07544.9515397,W,1,24,0.6,0.867,M,-39.961,M,0.0,*6E
###2023-11-09 13:09:22.631522$GPGSV,2,1,07,05,20,090,41,10,19,293,43,13,24,045,41,15,61,037,45*76
###2023-11-09 13:09:22.633794$GPGSV,2,2,07,18,78,277,47,23,50,316,45,24,50,134,46,,,,*4F
###2023-11-09 13:09:22.636378$GLGSV,2,1,05,70,50,017,35,71,48,290,47,80,18,090,42,85,57,203,48*6F
###2023-11-09 13:09:22.638003$GLGSV,2,2,05,86,53,308,47,,,,,,,,,,,,*50
###2023-11-09 13:09:22.640580$GAGSV,1,1,04,07,73,259,45,08,48,043,44,13,63,161,44,26,57,310,45*67
###2023-11-09 13:09:22.643160$GBGSV,2,1,06,11,23,180,41,14,65,008,45,24,20,132,43,26,23,081,43*64
###2023-11-09 13:09:22.645094$GBGSV,2,2,06,28,43,287,47,33,59,304,47,,,,,,,,*66
###2023-11-09 13:09:22.646525$GNVTG,94.64,T,,M,2.12,N,3.92,K,A*15
###2023-11-09 13:09:22.731240$GNGGA,130922.90,3611.0331464,N,07544.9514683,W,1,24,0.6,0.832,M,-39.961,M,0.0,*68
###2023-11-09 13:09:22.733821$GPGSV,2,1,07,05,20,090,41,10,19,293,41,13,24,045,40,15,61,037,45*75
###2023-11-09 13:09:22.736356$GPGSV,2,2,07,18,78,277,46,23,50,316,45,24,50,134,46,,,,*4E
###2023-11-09 13:09:22.738967$GLGSV,2,1,05,70,50,017,35,71,48,290,47,80,18,090,42,85,57,203,48*6F
###2023-11-09 13:09:22.740581$GLGSV,2,2,05,86,53,308,47,,,,,,,,,,,,*50
###2023-11-09 13:09:22.743154$GAGSV,1,1,04,07,73,259,45,08,48,043,44,13,63,161,44,26,57,310,45*67
###2023-11-09 13:09:22.745731$GBGSV,2,1,06,11,23,180,42,14,65,008,45,24,20,132,43,26,23,081,43*67
###2023-11-09 13:09:22.747688$GBGSV,2,2,06,28,43,287,47,33,59,304,47,,,,,,,,*66
###2023-11-09 13:09:22.749164$GNVTG,82.67,T,,M,2.08,N,3.85,K,A*1C
###2023-11-09 13:09:22.830984$GNGGA,130923.00,3611.0331553,N,07544.9513998,W,1,24,0.6,0.792,M,-39.961,M,0.0,*62
###2023-11-09 13:09:22.833581$GPGSV,2,1,07,05,20,090,41,10,19,293,42,13,24,045,40,15,61,037,45*76
###2023-11-09 13:09:22.835823$GPGSV,2,2,07,18,78,277,46,23,50,316,45,24,50,134,46,,,,*4E
