###2023-11-09 13:07:06.938244$GLGSV,2,1,05,70,50,016,36,71,48,288,48,80,17,091,44,85,58,203,48*6C
###2023-11-09 13:07:06.939876$GLGSV,2,2,05,86,52,309,48,,,,,,,,,,,,*5F
###2023-11-09 13:07:06.942431$GAGSV,1,1,04,07,72,257,45,08,49,042,45,13,64,160,44,26,56,311,45*6F
###2023-11-09 13:07:06.944990$GBGSV,2,1,06,11,24,180,42,14,65,006,45,24,19,133,43,26,23,082,43*66
###2023-11-09 13:07:06.946933$GBGSV,2,2,06,28,43,289,47,33,58,302,47,,,,,,,,*6F
###2023-11-09 13:07:06.948391$GNVTG,341.98,T,,M,1.21,N,2.23,K,A*25
###2023-11-09 13:07:07.031243$GNGGA,130707.20,3611.0502416,N,07544.9774015,W,1,24,0.6,1.135,M,-39.961,M,0.0,*6B
###2023-11-09 13:07:07.033835$GPGSV,2,1,07,05,21,090,42,10,18,292,43,13,24,045,42,15,62,037,45*74
###2023-11-09 13:07:07.036089$GPGSV,2,2,07,18,77,281,47,23,50,315,45,24,49,136,46,,,,*40
###2023-11-09 13:07:07.038665$GLGSV,2,1,05,70,50,016,36,71,48,288,48,80,17,091,44,85,58,203,48*6C
###2023-11-09 13:07:07.040266$GLGSV,2,2,05,86,52,309,47,,,,,,,,,,,,*50
###2023-11-09 13:07:07.042813$GAGSV,1,1,04,07,72,257,45,08,49,042,44,13,64,160,44,26,56,311,45*6E
###2023-11-09 13:07:07.045375$GBGSV,2,1,06,11,24,180,41,14,65,006,45,24,19,133,43,26,23,082,43*65
###2023-11-09 13:07:07.047307$GBGSV,2,2,06,28,43,289,47,33,58,302,47,,,,,,,,*6F
###2023-11-09 13:07:07.048772$GNVTG,342.32,T,,M,1.24,N,2.30,K,A*21
###2023-11-09 13:07:07.130220$GNGGA,130707.30,3611.0502734,N,07544.9774159,W,1,24,0.6,1.139,M,-39.961,M,0.0,*6C
###2023-11-09 13:07:07.132811$GPGSV,2,1,07,05,21,090,42,10,18,292,43,13,24,045,42,15,62,037,45*74
###2023-11-09 13:07:07.135051$GPGSV,2,2,07,18,77,281,47,23,50,315,45,24,49,136,46,,,,*40
###2023-11-09 13:07:07.137646$GLGSV,2,1,05,70,50,016,36,71,48,288,48,80,17,091,44,85,58,203,48*6C
###2023-11-09 13:07:07.139256$GLGSV,2,2,05,86,52,309,47,,,,,,,,,,,,*50
###2023-11-09 13:07:07.141811$GAGSV,1,1,04,07,72,257,45,08,49,042,44,13,64,160,44,26,56,311,45*6E
###2023-11-09 13:07:07.144376$GBGSV,2,1,06,11,24,180,41,14,65,006,45,24,19,133,43,26,23,082,42*64
###2023-11-09 13:07:07.146299$GBGSV,2,2,06,28,43,289,47,33,58,302,47,,,,,,,,*6F
###2023-11-09 13:07:07.147773$GNVTG,337.21,T,,M,1.15,N,2.12,K,A*23
###2023-11-09 13:07:07.229342$GNGGA,130707.40,3611.0502997,N,07544.9774336,W,1,24,0.6,1.146,M,-39.961,M,0.0,*6F
###2023-11-09 13:07:07.231897$GPGSV,2,1,07,05,21,090,42,10,18,292,44,13,24,045,42,15,62,037,45*73
###2023-11-09 13:07:07.234128$GPGSV,2,2,07,18,77,281,47,23,50,315,45,24,49,136,46,,,,*40
###2023-11-09 13:07:07.236681$GLGSV,2,1,05,70,50,016,36,71,48,288,48,80,17,091,44,85,58,203,48*6C
###2023-11-09 13:07:07.238277$GLGSV,2,2,05,86,52,309,47,,,,,,,,,,,,*50
###2023-11-09 13:07:07.240835$GAGSV,1,1,04,07,72,257,45,08,49,042,44,13,64,160,44,26,56,311,45*6E
###2023-11-09 13:07:07.243392$GBGSV,2,1,06,11,24,180,41,14,65,006,45,24,19,133,43,26,23,082,42*64
###2023-11-09 13:07:07.245310$GBGSV,2,2,06,28,43,289,47,33,58,302,47,,,,,,,,*6F
###2023-11-09 13:07:07.246759$GNVTG,337.21,T,,M,0.97,N,1.80,K,A*20
###2023-11-09 13:07:07.329259$GNGGA,130707.50,3611.0503200,N,07544.9774549,W,1,24,0.6,1.157,M,-39.961,M,0.0,*64
###2023-11-09 13:07:07.331852$GPGSV,2,1,07,05,21,090,42,10,18,292,44,13,24,045,42,15,62,037,45*73
###2023-11-09 13:07:07.334114$GPGSV,2,2,07,18,77,281,47,23,50,315,45,24,49,136,46,,,,*40
###2023-11-09 13:07:07.336682$GLGSV,2,1,05,70,50,016,36,71,48,288,48,80,17,091,44,85,58,203,48*6C
###2023-11-09 13:07:07.338304$GLGSV,2,2,05,86,52,309,47,,,,,,,,,,,,*50
###2023-11-09 13:07:07.340867$GAGSV,1,1,04,07,72,257,45,08,49,042,44,13,64,160,44,26,56,311,45*6E
###2023-11-09 13:07:07.343444$GBGSV,2,1,06,11,24,180,41,14,65,006,45,24,19,133,43,26,23,082,42*64
###2023-11-09 13:07:07.345375$GBGSV,2,2,06,28,43,289,47,33,58,302,47,,,,,,,,*6F
###2023-11-09 13:07:07.346838$GNVTG,337.21,T,,M,0.89,N,1.66,K,A*27
###2023-11-09 13:07:07.430495$GNGGA,130707.60,3611.0503357,N,07544.9774779,W,1,24,0.6,1.173,M,-39.961,M,0.0,*63
###2023-11-09 13:07:07.433076$GPGSV,2,1,07,05,21,090,42,10,18,292,44,13,24,045,42,15,62,037,45*73
###2023-11-09 13:07:07.435322$GPGSV,2,2,07,18,77,281,47,23,50,315,45,24,49,136,46,,,,*40
###2023-11-09 13:07:07.437932$GLGSV,2,1,05,70,50,016,36,71,48,288,48,80,17,091,44,85,58,203,48*6C
###2023-11-09 13:07:07.439552$GLGSV,2,2,05,86,52,309,47,,,,,,,,,,,,*50
###2023-11-09 13:07:07.442130$GAGSV,1,1,04,07,72,257,45,08,49,042,44,13,64,160,44,26,56,311,45*6E
###2023-11-09 13:07:07.444712$GBGSV,2,1,06,11,24,180,41,14,65,006,45,24,19,133,43,26,23,082,42*64
###2023-11-09 13:07:07.446642$GBGSV,2,2,06,28,43,289,47,33,58,302,47,,,,,,,,*6F
###2023-11-09 13:07:07.448140$GNVTG,337.21,T,,M,0.82,N,1.51,K,A*28
###2023-11-09 13:07:07.533109$GNGGA,130707.70,3611.0503515,N,07544.9775016,W,1,24,0.6,1.203,M,-39.961,M,0.0,*69
###2023-11-09 13:07:07.535689$GPGSV,2,1,07,05,21,090,42,10,18,292,44,13,24,045,42,15,62,037,45*73
###2023-11-09 13:07:07.537953$GPGSV,2,2,07,18,77,281,47,23,50,315,45,24,49,136,46,,,,*40
###2023-11-09 13:07:07.540516$GLGSV,2,1,05,70,50,016,36,71,48,288,48,80,17,091,44,85,58,203,48*6C
###2023-11-09 13:07:07.542118$GLGSV,2,2,05,86,52,309,47,,,,,,,,,,,,*50
###2023-11-09 13:07:07.544689$GAGSV,1,1,04,07,72,257,45,08,49,042,44,13,64,160,44,26,56,311,45*6E
###2023-11-09 13:07:07.547276$GBGSV,2,1,06,11,24,180,41,14,65,006,45,24,19,133,43,26,23,082,42*64
###2023-11-09 13:07:07.549209$GBGSV,2,2,06,28,43,289,47,33,58,302,47,,,,,,,,*6F
###2023-11-09 13:07:07.550668$GNVTG,337.21,T,,M,0.95,N,1.76,K,A*2B
###2023-11-09 13:07:07.628256$GNGGA,130707.80,3611.0503718,N,07544.9775272,W,1,24,0.6,1.233,M,-39.961,M,0.0,*6A
###2023-11-09 13:07:07.630852$GPGSV,2,1,07,05,21,090,42,10,18,292,43,13,24,045,42,15,62,037,45*74
###2023-11-09 13:07:07.633111$GPGSV,2,2,07,18,77,281,47,23,50,315,45,24,49,136,46,,,,*40
###2023-11-09 13:07:07.635677$GLGSV,2,1,05,70,50,016,36,71,48,288,48,80,17,091,44,85,58,203,48*6C
###2023-11-09 13:07:07.637296$GLGSV,2,2,05,86,52,309,47,,,,,,,,,,,,*50
###2023-11-09 13:07:07.639860$GAGSV,1,1,04,07,72,257,45,08,49,042,44,13,64,160,44,26,56,311,45*6E
###2023-11-09 13:07:07.642438$GBGSV,2,1,06,11,24,180,42,14,65,006,45,24,19,133,43,26,23,082,42*67
###2023-11-09 13:07:07.644372$GBGSV,2,2,06,28,43,289,47,33,58,302,47,,,,,,,,*6F
###2023-11-09 13:07:07.645829$GNVTG,315.53,T,,M,1.09,N,2.02,K,A*2A
###2023-11-09 13:07:07.730232$GNGGA,130707.90,3611.0503947,N,07544.9775549,W,1,24,0.6,1.258,M,-39.961,M,0.0,*6D
###2023-11-09 13:07:07.732806$GPGSV,2,1,07,05,21,090,42,10,18,292,42,13,24,045,42,15,62,037,45*75
###2023-11-09 13:07:07.735050$GPGSV,2,2,07,18,77,281,47,23,50,315,45,24,49,136,46,,,,*40
###2023-11-09 13:07:07.737628$GLGSV,2,1,05,70,50,016,36,71,48,288,48,80,17,091,44,85,58,203,48*6C
###2023-11-09 13:07:07.739237$GLGSV,2,2,05,86,52,309,47,,,,,,,,,,,,*50
###2023-11-09 13:07:07.741805$GAGSV,1,1,04,07,72,257,45,08,49,042,44,13,64,160,44,26,56,311,45*6E
###2023-11-09 13:07:07.744388$GBGSV,2,1,06,11,24,180,42,14,65,006,45,24,19,133,43,26,23,082,42*67
###2023-11-09 13:07:07.746322$GBGSV,2,2,06,28,43,289,47,33,58,302,47,,,,,,,,*6F
###2023-11-09 13:07:07.747801$GNVTG,314.99,T,,M,1.17,N,2.16,K,A*27
###2023-11-09 13:07:07.831327$GNGGA,130708.00,3611.0504183,N,07544.9775851,W,1,24,0.6,1.279,M,-39.961,M,0.0,*6B
###2023-11-09 13:07:07.833890$GPGSV,2,1,07,05,21,090,42,10,18,292,41,13,24,045,42,15,62,037,45*76
###2023-11-09 13:07:07.836115$GPGSV,2,2,07,18,77,281,47,23,50,315,45,24,49,136,46,,,,*40
###2023-11-09 13:07:07.838677$GLGSV,2,1,05,70,50,016,35,71,48,288,49,80,17,091,44,85,58,203,48*6E
###2023-11-09 13:07:07.840277$GLGSV,2,2,05,86,52,309,48,,,,,,,,,,,,*5F
###2023-11-09 13:07:07.842832$GAGSV,1,1,04,07,72,257,45,08,49,042,44,13,64,160,44,26,56,311,45*6E
###2023-11-09 13:07:07.845395$GBGSV,2,1,06,11,24,180,42,14,65,006,45,24,19,133,43,26,23,082,42*67
###2023-11-09 13:07:07.847329$GBGSV,2,2,06,28,43,289,47,33,58,302,47,,,,,,,,*6F
###2023-11-09 13:07:07.848789$GNVTG,312.33,T,,M,1.24,N,2.30,K,A*25
###2023-11-09 13:07:07.943346$GNGGA,130708.10,3611.0504395,N,07544.9776174,W,1,24,0.6,1.293,M,-39.961,M,0.0,*66
###2023-11-09 13:07:07.945956$GPGSV,2,1,07,05,21,090,42,10,18,292,41,13,24,045,42,15,62,037,45*76
###2023-11-09 13:07:07.948245$GPGSV,2,2,07,18,77,281,47,23,50,315,45,24,49,136,46,,,,*40
###2023-11-09 13:07:07.951131$GLGSV,2,1,05,70,50,016,36,71,48,288,49,80,17,091,44,85,58,203,48*6D
###2023-11-09 13:07:07.952763$GLGSV,2,2,05,86,52,309,48,,,,,,,,,,,,*5F
###2023-11-09 13:07:07.955356$GAGSV,1,1,04,07,72,257,45,08,49,042,44,13,64,160,44,26,56,311,45*6E
###2023-11-09 13:07:07.957965$GBGSV,2,1,06,11,24,180,41,14,65,006,45,24,19,133,43,26,23,082,42*64
###2023-11-09 13:07:07.959915$GBGSV,2,2,06,28,43,289,47,33,58,302,47,,,,,,,,*6F
###2023-11-09 13:07:07.961385$GNVTG,304.65,T,,M,1.17,N,2.16,K,A*25
###2023-11-09 13:07:08.032233$GNGGA,130708.20,3611.0504567,N,07544.9776522,W,1,24,0.6,1.302,M,-39.961,M,0.0,*60
###2023-11-09 13:07:08.034822$GPGSV,2,1,07,05,21,090,42,10,18,292,41,13,24,045,42,15,62,037,45*76
###2023-11-09 13:07:08.037102$GPGSV,2,2,07,18,77,281,47,23,50,315,45,24,49,136,46,,,,*40
###2023-11-09 13:07:08.039682$GLGSV,2,1,05,70,50,016,36,71,48,288,48,80,17,091,44,85,58,203,48*6C
