###2023-11-09 13:08:59.432420$GPGSV,2,1,07,05,20,090,41,10,19,293,43,13,24,045,40,15,61,037,45*77
###2023-11-09 13:08:59.434685$GPGSV,2,2,07,18,78,277,47,23,50,316,45,24,50,135,46,,,,*4E
###2023-11-09 13:08:59.437280$GLGSV,2,1,05,70,50,017,35,71,48,290,48,80,18,090,43,85,57,203,49*60
###2023-11-09 13:08:59.438887$GLGSV,2,2,05,86,53,308,47,,,,,,,,,,,,*50
###2023-11-09 13:08:59.441448$GAGSV,1,1,04,07,72,258,45,08,48,043,44,13,64,160,45,26,57,310,44*61
###2023-11-09 13:08:59.444027$GBGSV,2,1,06,11,23,180,43,14,65,008,44,24,20,132,44,26,23,081,42*61
###2023-11-09 13:08:59.445968$GBGSV,2,2,06,28,43,287,47,33,59,304,46,,,,,,,,*67
###2023-11-09 13:08:59.447450$GNVTG,78.35,T,,M,5.52,N,10.22,K,A*29
###2023-11-09 13:08:59.529380$GNGGA,130859.70,3611.0231246,N,07544.9802385,W,1,24,0.6,0.628,M,-39.962,M,0.0,*63
###2023-11-09 13:08:59.531983$GPGSV,2,1,07,05,20,090,41,10,19,293,43,13,24,045,40,15,61,037,45*77
###2023-11-09 13:08:59.534238$GPGSV,2,2,07,18,78,277,47,23,50,316,45,24,50,135,46,,,,*4E
###2023-11-09 13:08:59.536811$GLGSV,2,1,05,70,50,017,35,71,48,290,48,80,18,090,43,85,57,203,49*60
###2023-11-09 13:08:59.538435$GLGSV,2,2,05,86,53,308,47,,,,,,,,,,,,*50
###2023-11-09 13:08:59.541008$GAGSV,1,1,04,07,72,258,45,08,48,043,44,13,64,160,45,26,57,310,44*61
###2023-11-09 13:08:59.543583$GBGSV,2,1,06,11,23,180,43,14,65,008,44,24,20,132,44,26,23,081,42*61
###2023-11-09 13:08:59.545519$GBGSV,2,2,06,28,43,287,47,33,59,304,47,,,,,,,,*66
###2023-11-09 13:08:59.546998$GNVTG,79.14,T,,M,5.48,N,10.15,K,A*24
###2023-11-09 13:08:59.630383$GNGGA,130859.80,3611.0231498,N,07544.9800542,W,1,24,0.6,0.627,M,-39.962,M,0.0,*69
###2023-11-09 13:08:59.632982$GPGSV,2,1,07,05,20,090,41,10,19,293,43,13,24,045,40,15,61,037,45*77
###2023-11-09 13:08:59.635234$GPGSV,2,2,07,18,78,277,47,23,50,316,45,24,50,135,46,,,,*4E
###2023-11-09 13:08:59.637835$GLGSV,2,1,05,70,50,017,35,71,48,290,48,80,18,090,43,85,57,203,48*61
###2023-11-09 13:08:59.639444$GLGSV,2,2,05,86,53,308,47,,,,,,,,,,,,*50
###2023-11-09 13:08:59.642017$GAGSV,1,1,04,07,72,258,45,08,48,043,44,13,64,160,45,26,57,310,44*61
###2023-11-09 13:08:59.644606$GBGSV,2,1,06,11,23,180,43,14,65,008,44,24,20,132,44,26,23,081,42*61
###2023-11-09 13:08:59.646544$GBGSV,2,2,06,28,43,287,47,33,59,304,47,,,,,,,,*66
###2023-11-09 13:08:59.648021$GNVTG,81.97,T,,M,5.40,N,10.01,K,A*25
###2023-11-09 13:08:59.729483$GNGGA,130859.90,3611.0231705,N,07544.9798722,W,1,24,0.6,0.641,M,-39.962,M,0.0,*65
###2023-11-09 13:08:59.732058$GPGSV,2,1,07,05,20,090,41,10,19,293,44,13,24,045,40,15,61,037,45*70
###2023-11-09 13:08:59.734313$GPGSV,2,2,07,18,78,277,47,23,50,316,45,24,50,135,46,,,,*4E
###2023-11-09 13:08:59.736912$GLGSV,2,1,05,70,50,017,35,71,48,290,49,80,18,090,43,85,57,203,48*60
###2023-11-09 13:08:59.738529$GLGSV,2,2,05,86,53,308,47,,,,,,,,,,,,*50
###2023-11-09 13:08:59.741094$GAGSV,1,1,04,07,72,258,45,08,48,043,44,13,64,160,45,26,57,310,44*61
###2023-11-09 13:08:59.743675$GBGSV,2,1,06,11,23,180,42,14,65,008,44,24,20,132,44,26,23,081,42*60
###2023-11-09 13:08:59.745602$GBGSV,2,2,06,28,43,287,47,33,59,304,47,,,,,,,,*66
###2023-11-09 13:08:59.747045$GNVTG,82.39,T,,M,5.31,N,9.83,K,A*16
###2023-11-09 13:08:59.831496$GNGGA,130900.00,3611.0231899,N,07544.9796919,W,1,24,0.6,0.670,M,-39.962,M,0.0,*61
###2023-11-09 13:08:59.834098$GPGSV,2,1,07,05,20,090,41,10,19,293,44,13,24,045,41,15,61,037,45*71
###2023-11-09 13:08:59.836353$GPGSV,2,2,07,18,78,277,46,23,50,316,45,24,50,135,46,,,,*4F
###2023-11-09 13:08:59.838958$GLGSV,2,1,05,70,50,017,35,71,48,290,48,80,18,090,43,85,57,203,49*60
###2023-11-09 13:08:59.840576$GLGSV,2,2,05,86,53,308,47,,,,,,,,,,,,*50
###2023-11-09 13:08:59.843148$GAGSV,1,1,04,07,72,258,45,08,48,043,44,13,64,160,45,26,57,310,44*61
###2023-11-09 13:08:59.845716$GBGSV,2,1,06,11,23,180,42,14,65,008,44,24,20,132,43,26,23,081,42*67
###2023-11-09 13:08:59.847668$GBGSV,2,2,06,28,43,287,47,33,59,304,47,,,,,,,,*66
###2023-11-09 13:08:59.849099$GNVTG,82.90,T,,M,5.29,N,9.79,K,A*19
###2023-11-09 13:08:59.935374$GNGGA,130900.10,3611.0232044,N,07544.9795119,W,1,24,0.6,0.698,M,-39.962,M,0.0,*66
###2023-11-09 13:08:59.938008$GPGSV,2,1,07,05,20,090,41,10,19,293,44,13,24,045,41,15,61,037,46*72
###2023-11-09 13:08:59.940267$GPGSV,2,2,07,18,78,277,47,23,50,316,45,24,50,135,46,,,,*4E
###2023-11-09 13:08:59.942847$GLGSV,2,1,05,70,50,017,35,71,48,290,49,80,18,090,43,85,57,203,48*60
###2023-11-09 13:08:59.944457$GLGSV,2,2,05,86,53,308,47,,,,,,,,,,,,*50
###2023-11-09 13:08:59.947053$GAGSV,1,1,04,07,72,258,45,08,48,043,44,13,64,160,45,26,57,310,44*61
###2023-11-09 13:08:59.949635$GBGSV,2,1,06,11,23,180,42,14,65,008,44,24,20,132,43,26,23,081,42*67
###2023-11-09 13:08:59.951573$GBGSV,2,2,06,28,43,287,47,33,59,304,47,,,,,,,,*66
###2023-11-09 13:08:59.953007$GNVTG,86.27,T,,M,5.27,N,9.76,K,A*10
###2023-11-09 13:09:00.034107$GNGGA,130900.20,3611.0232105,N,07544.9793322,W,1,24,0.6,0.727,M,-39.962,M,0.0,*68
###2023-11-09 13:09:00.036692$GPGSV,2,1,07,05,20,090,41,10,19,293,44,13,24,045,41,15,61,037,45*71
###2023-11-09 13:09:00.038957$GPGSV,2,2,07,18,78,277,47,23,50,316,45,24,50,135,46,,,,*4E
###2023-11-09 13:09:00.041513$GLGSV,2,1,05,70,50,017,35,71,48,290,49,80,18,090,43,85,57,203,48*60
###2023-11-09 13:09:00.043113$GLGSV,2,2,05,86,53,308,47,,,,,,,,,,,,*50
###2023-11-09 13:09:00.045671$GAGSV,1,1,04,07,72,258,45,08,48,043,44,13,64,160,44,26,57,310,44*60
###2023-11-09 13:09:00.048252$GBGSV,2,1,06,11,23,180,42,14,65,008,44,24,20,132,43,26,23,081,42*67
###2023-11-09 13:09:00.050191$GBGSV,2,2,06,28,43,287,47,33,59,304,47,,,,,,,,*66
###2023-11-09 13:09:00.051612$GNVTG,89.24,T,,M,5.21,N,9.65,K,A*18
###2023-11-09 13:09:00.129025$GNGGA,130900.30,3611.0232074,N,07544.9791577,W,1,24,0.6,0.747,M,-39.962,M,0.0,*6C
###2023-11-09 13:09:00.131627$GPGSV,2,1,07,05,20,090,41,10,19,293,43,13,24,045,41,15,61,037,45*76
###2023-11-09 13:09:00.133885$GPGSV,2,2,07,18,78,277,47,23,50,316,45,24,50,135,46,,,,*4E
###2023-11-09 13:09:00.136469$GLGSV,2,1,05,70,50,017,35,71,48,290,49,80,18,090,43,85,57,203,48*60
###2023-11-09 13:09:00.138102$GLGSV,2,2,05,86,53,308,47,,,,,,,,,,,,*50
###2023-11-09 13:09:00.140688$GAGSV,1,1,04,07,72,258,45,08,48,043,44,13,64,160,44,26,57,310,44*60
###2023-11-09 13:09:00.143265$GBGSV,2,1,06,11,23,180,42,14,65,008,44,24,20,132,43,26,23,081,42*67
###2023-11-09 13:09:00.145193$GBGSV,2,2,06,28,43,287,47,33,59,304,47,,,,,,,,*66
###2023-11-09 13:09:00.146628$GNVTG,93.51,T,,M,4.94,N,9.14,K,A*18
###2023-11-09 13:09:00.230488$GNGGA,130900.40,3611.0231988,N,07544.9789899,W,1,24,0.6,0.767,M,-39.962,M,0.0,*64
###2023-11-09 13:09:00.233079$GPGSV,2,1,07,05,20,090,41,10,19,293,43,13,24,045,40,15,61,037,45*77
###2023-11-09 13:09:00.235344$GPGSV,2,2,07,18,78,277,47,23,50,316,45,24,50,135,46,,,,*4E
###2023-11-09 13:09:00.237963$GLGSV,2,1,05,70,50,017,35,71,48,290,49,80,18,090,43,85,57,203,49*61
###2023-11-09 13:09:00.239582$GLGSV,2,2,05,86,53,308,47,,,,,,,,,,,,*50
###2023-11-09 13:09:00.242152$GAGSV,1,1,04,07,72,258,45,08,48,043,44,13,64,160,45,26,57,310,44*61
###2023-11-09 13:09:00.244734$GBGSV,2,1,06,11,23,180,42,14,65,008,44,24,20,132,43,26,23,081,42*67
###2023-11-09 13:09:00.246679$GBGSV,2,2,06,28,43,287,47,33,59,304,47,,,,,,,,*66
###2023-11-09 13:09:00.248130$GNVTG,93.83,T,,M,4.84,N,8.96,K,A*1D
###2023-11-09 13:09:00.329411$GNGGA,130900.50,3611.0231937,N,07544.9788227,W,1,23,0.6,0.801,M,-39.962,M,0.0,*67
###2023-11-09 13:09:00.332005$GPGSV,2,1,07,05,20,090,41,10,19,293,43,13,24,045,40,15,61,037,45*77
###2023-11-09 13:09:00.334261$GPGSV,2,2,07,18,78,277,47,23,50,316,46,24,50,135,46,,,,*4D
###2023-11-09 13:09:00.336838$GLGSV,1,1,04,71,48,290,49,80,18,090,43,85,57,203,49,86,53,308,47*61
###2023-11-09 13:09:00.339422$GAGSV,1,1,04,07,72,258,45,08,48,043,44,13,64,160,45,26,57,310,44*61
###2023-11-09 13:09:00.342004$GBGSV,2,1,06,11,23,180,43,14,65,008,44,24,20,132,43,26,23,081,42*66
###2023-11-09 13:09:00.343936$GBGSV,2,2,06,28,43,287,47,33,59,304,47,,,,,,,,*66
###2023-11-09 13:09:00.345359$GNVTG,90.43,T,,M,4.88,N,9.04,K,A*14
###2023-11-09 13:09:00.429524$GNGGA,130900.60,3611.0231942,N,07544.9786539,W,1,23,0.6,0.832,M,-39.962,M,0.0,*60
###2023-11-09 13:09:00.432138$GPGSV,2,1,07,05,20,090,41,10,19,293,43,13,24,045,40,15,61,037,45*77
###2023-11-09 13:09:00.434691$GPGSV,2,2,07,18,78,277,47,23,50,316,46,24,50,135,46,,,,*4D
###2023-11-09 13:09:00.437308$GLGSV,1,1,04,71,48,290,48,80,18,090,43,85,57,203,48,86,53,308,47*61
###2023-11-09 13:09:00.439901$GAGSV,1,1,04,07,72,258,45,08,48,043,44,13,64,160,44,26,57,310,44*60
###2023-11-09 13:09:00.442499$GBGSV,2,1,06,11,23,180,43,14,65,008,44,24,20,132,43,26,23,081,42*66
###2023-11-09 13:09:00.444448$GBGSV,2,2,06,28,43,287,47,33,59,304,47,,,,,,,,*66
###2023-11-09 13:09:00.445881$GNVTG,89.32,T,,M,4.92,N,9.11,K,A*15
###2023-11-09 13:09:00.529399$GNGGA,130900.70,3611.0231932,N,07544.9784854,W,1,24,0.6,0.837,M,-39.962,M,0.0,*60
###2023-11-09 13:09:00.532000$GPGSV,2,1,07,05,20,090,41,10,19,293,43,13,24,045,42,15,61,037,45*75
###2023-11-09 13:09:00.534260$GPGSV,2,2,07,18,78,277,47,23,50,316,46,24,50,135,46,,,,*4D
###2023-11-09 13:09:00.536835$GLGSV,2,1,05,70,50,017,35,71,48,290,48,80,18,090,43,85,57,203,48*61
