###2023-11-09 13:06:32.441194$GLGSV,2,2,05,86,52,309,47,,,,,,,,,,,,*50
###2023-11-09 13:06:32.443761$GAGSV,1,1,04,07,72,255,45,08,49,042,44,13,64,160,44,26,56,311,45*6C
###2023-11-09 13:06:32.446332$GBGSV,2,1,06,11,24,180,41,14,65,006,46,24,19,133,43,26,23,082,42*67
###2023-11-09 13:06:32.448288$GBGSV,2,2,06,28,43,289,47,33,58,302,47,,,,,,,,*6F
###2023-11-09 13:06:32.449715$GNVTG,36.57,T,,M,0.97,N,1.80,K,A*13
###2023-11-09 13:06:32.531375$GNGGA,130632.70,3611.0426514,N,07544.9797564,W,1,24,0.6,0.808,M,-39.961,M,0.0,*65
###2023-11-09 13:06:32.533977$GPGSV,2,1,07,05,21,090,42,10,18,292,44,13,24,045,41,15,62,037,46*73
###2023-11-09 13:06:32.536241$GPGSV,2,2,07,18,77,282,47,23,49,314,45,24,49,137,46,,,,*4B
###2023-11-09 13:06:32.538850$GLGSV,2,1,05,70,50,016,36,71,48,288,48,80,17,091,44,85,58,203,48*6C
###2023-11-09 13:06:32.540482$GLGSV,2,2,05,86,52,309,47,,,,,,,,,,,,*50
###2023-11-09 13:06:32.543069$GAGSV,1,1,04,07,72,255,45,08,49,042,44,13,64,160,44,26,56,311,45*6C
###2023-11-09 13:06:32.545656$GBGSV,2,1,06,11,24,180,41,14,65,006,46,24,19,133,43,26,23,082,42*67
###2023-11-09 13:06:32.547609$GBGSV,2,2,06,28,43,289,47,33,58,302,47,,,,,,,,*6F
###2023-11-09 13:06:32.549042$GNVTG,44.60,T,,M,1.05,N,1.94,K,A*1D
###2023-11-09 13:06:32.633221$GNGGA,130632.80,3611.0426741,N,07544.9797307,W,1,24,0.6,0.802,M,-39.961,M,0.0,*61
###2023-11-09 13:06:32.635807$GPGSV,2,1,07,05,21,090,42,10,18,292,44,13,24,045,41,15,62,037,46*73
###2023-11-09 13:06:32.638081$GPGSV,2,2,07,18,77,282,47,23,49,314,45,24,49,137,46,,,,*4B
###2023-11-09 13:06:32.640647$GLGSV,2,1,05,70,50,016,36,71,48,288,48,80,17,091,44,85,58,203,48*6C
###2023-11-09 13:06:32.642250$GLGSV,2,2,05,86,52,309,47,,,,,,,,,,,,*50
###2023-11-09 13:06:32.644810$GAGSV,1,1,04,07,72,255,45,08,49,042,44,13,64,160,44,26,56,311,45*6C
###2023-11-09 13:06:32.647402$GBGSV,2,1,06,11,24,180,41,14,65,006,46,24,19,133,43,26,23,082,42*67
###2023-11-09 13:06:32.649342$GBGSV,2,2,06,28,43,289,47,33,58,302,47,,,,,,,,*6F
###2023-11-09 13:06:32.650769$GNVTG,42.31,T,,M,1.11,N,2.05,K,A*11
###2023-11-09 13:06:32.732327$GNGGA,130632.90,3611.0426984,N,07544.9797038,W,1,24,0.6,0.804,M,-39.961,M,0.0,*6E
###2023-11-09 13:06:32.734899$GPGSV,2,1,07,05,21,090,42,10,18,292,44,13,24,045,41,15,62,037,46*73
###2023-11-09 13:06:32.737157$GPGSV,2,2,07,18,77,282,47,23,49,314,45,24,49,137,46,,,,*4B
###2023-11-09 13:06:32.739712$GLGSV,2,1,05,70,50,016,36,71,48,288,48,80,17,091,44,85,58,203,48*6C
###2023-11-09 13:06:32.741321$GLGSV,2,2,05,86,52,309,47,,,,,,,,,,,,*50
###2023-11-09 13:06:32.743882$GAGSV,1,1,04,07,72,255,45,08,49,042,44,13,64,160,44,26,56,311,45*6C
###2023-11-09 13:06:32.746465$GBGSV,2,1,06,11,24,180,41,14,65,006,46,24,19,133,43,26,23,082,41*64
###2023-11-09 13:06:32.748401$GBGSV,2,2,06,28,43,289,47,33,58,302,47,,,,,,,,*6F
###2023-11-09 13:06:32.749826$GNVTG,42.68,T,,M,1.19,N,2.20,K,A*12
###2023-11-09 13:06:32.837263$GNGGA,130633.00,3611.0427241,N,07544.9796770,W,1,24,0.6,0.805,M,-39.961,M,0.0,*6E
###2023-11-09 13:06:32.839874$GPGSV,2,1,07,05,21,090,42,10,18,292,44,13,24,045,41,15,62,037,46*73
###2023-11-09 13:06:32.842128$GPGSV,2,2,07,18,77,282,47,23,49,314,45,24,49,137,46,,,,*4B
###2023-11-09 13:06:32.844709$GLGSV,2,1,05,70,50,016,36,71,48,288,48,80,17,091,44,85,58,203,48*6C
###2023-11-09 13:06:32.846319$GLGSV,2,2,05,86,52,309,47,,,,,,,,,,,,*50
###2023-11-09 13:06:32.848903$GAGSV,1,1,04,07,72,255,45,08,49,042,44,13,64,160,44,26,56,311,45*6C
###2023-11-09 13:06:32.851487$GBGSV,2,1,06,11,24,180,41,14,65,006,46,24,19,133,43,26,23,082,41*64
###2023-11-09 13:06:32.853423$GBGSV,2,2,06,28,43,289,47,33,58,302,47,,,,,,,,*6F
###2023-11-09 13:06:32.854845$GNVTG,39.37,T,,M,1.19,N,2.20,K,A*14
###2023-11-09 13:06:32.933846$GNGGA,130633.10,3611.0427496,N,07544.9796513,W,1,24,0.6,0.810,M,-39.961,M,0.0,*60
###2023-11-09 13:06:32.936426$GPGSV,2,1,07,05,21,090,42,10,18,292,44,13,24,045,41,15,62,037,46*73
###2023-11-09 13:06:32.938694$GPGSV,2,2,07,18,77,281,47,23,49,314,45,24,49,137,46,,,,*48
###2023-11-09 13:06:32.941255$GLGSV,2,1,05,70,50,016,36,71,48,288,48,80,17,091,45,85,58,203,48*6D
###2023-11-09 13:06:32.942858$GLGSV,2,2,05,86,52,309,47,,,,,,,,,,,,*50
###2023-11-09 13:06:32.945418$GAGSV,1,1,04,07,72,255,45,08,49,042,44,13,64,160,44,26,56,311,45*6C
###2023-11-09 13:06:32.947992$GBGSV,2,1,06,11,24,180,41,14,65,006,46,24,19,133,43,26,23,082,41*64
###2023-11-09 13:06:32.949919$GBGSV,2,2,06,28,43,289,47,33,58,302,47,,,,,,,,*6F
###2023-11-09 13:06:32.951343$GNVTG,40.62,T,,M,1.13,N,2.09,K,A*1B
###2023-11-09 13:06:33.034829$GNGGA,130633.20,3611.0427717,N,07544.9796262,W,1,24,0.6,0.818,M,-39.961,M,0.0,*60
###2023-11-09 13:06:33.037412$GPGSV,2,1,07,05,21,090,42,10,18,292,44,13,24,045,41,15,62,037,46*73
###2023-11-09 13:06:33.039661$GPGSV,2,2,07,18,77,281,47,23,49,314,45,24,49,137,46,,,,*48
###2023-11-09 13:06:33.042208$GLGSV,2,1,05,70,50,016,36,71,48,288,48,80,17,091,45,85,58,203,48*6D
###2023-11-09 13:06:33.043805$GLGSV,2,2,05,86,52,309,47,,,,,,,,,,,,*50
###2023-11-09 13:06:33.046348$GAGSV,1,1,04,07,72,255,45,08,49,042,44,13,64,160,44,26,56,311,45*6C
###2023-11-09 13:06:33.048925$GBGSV,2,1,06,11,24,180,41,14,65,006,46,24,19,133,43,26,23,082,42*67
###2023-11-09 13:06:33.050863$GBGSV,2,2,06,28,43,289,47,33,58,302,47,,,,,,,,*6F
###2023-11-09 13:06:33.052306$GNVTG,47.01,T,,M,0.99,N,1.84,K,A*1C
###2023-11-09 13:06:33.132230$GNGGA,130633.30,3611.0427886,N,07544.9796025,W,1,24,0.6,0.827,M,-39.961,M,0.0,*6B
###2023-11-09 13:06:33.134818$GPGSV,2,1,07,05,21,090,42,10,18,292,44,13,24,045,41,15,62,037,46*73
###2023-11-09 13:06:33.137080$GPGSV,2,2,07,18,77,281,47,23,49,314,45,24,49,137,46,,,,*48
###2023-11-09 13:06:33.139660$GLGSV,2,1,05,70,50,016,36,71,48,288,48,80,17,091,45,85,58,203,48*6D
###2023-11-09 13:06:33.141259$GLGSV,2,2,05,86,52,309,47,,,,,,,,,,,,*50
###2023-11-09 13:06:33.143822$GAGSV,1,1,04,07,72,255,45,08,49,042,44,13,64,160,44,26,56,311,45*6C
###2023-11-09 13:06:33.146396$GBGSV,2,1,06,11,24,180,41,14,65,006,46,24,19,133,43,26,23,082,42*67
###2023-11-09 13:06:33.148348$GBGSV,2,2,06,28,43,289,47,33,58,302,47,,,,,,,,*6F
###2023-11-09 13:06:33.149773$GNVTG,47.01,T,,M,0.82,N,1.51,K,A*1E
###2023-11-09 13:06:33.234100$GNGGA,130633.40,3611.0428021,N,07544.9795807,W,1,24,0.6,0.839,M,-39.961,M,0.0,*62
###2023-11-09 13:06:33.236682$GPGSV,2,1,07,05,21,090,42,10,18,292,44,13,24,045,41,15,62,037,46*73
###2023-11-09 13:06:33.238940$GPGSV,2,2,07,18,77,281,47,23,49,314,45,24,49,137,46,,,,*48
###2023-11-09 13:06:33.241505$GLGSV,2,1,05,70,50,016,36,71,48,288,48,80,17,091,45,85,58,203,48*6D
###2023-11-09 13:06:33.243117$GLGSV,2,2,05,86,52,309,47,,,,,,,,,,,,*50
###2023-11-09 13:06:33.245684$GAGSV,1,1,04,07,72,255,45,08,49,042,44,13,64,160,44,26,56,311,45*6C
###2023-11-09 13:06:33.248283$GBGSV,2,1,06,11,24,180,41,14,65,006,46,24,19,133,43,26,23,082,42*67
###2023-11-09 13:06:33.250218$GBGSV,2,2,06,28,43,289,47,33,58,302,47,,,,,,,,*6F
###2023-11-09 13:06:33.251650$GNVTG,47.01,T,,M,0.74,N,1.37,K,A*17
###2023-11-09 13:06:33.331350$GNGGA,130633.50,3611.0428172,N,07544.9795597,W,1,24,0.6,0.851,M,-39.961,M,0.0,*6E
###2023-11-09 13:06:33.333923$GPGSV,2,1,07,05,21,090,42,10,18,292,43,13,24,045,41,15,62,037,46*74
###2023-11-09 13:06:33.336164$GPGSV,2,2,07,18,77,281,47,23,49,314,45,24,49,137,46,,,,*48
###2023-11-09 13:06:33.338736$GLGSV,2,1,05,70,50,016,36,71,48,288,48,80,17,091,44,85,58,203,48*6C
###2023-11-09 13:06:33.340331$GLGSV,2,2,05,86,52,309,47,,,,,,,,,,,,*50
###2023-11-09 13:06:33.342878$GAGSV,1,1,04,07,72,255,45,08,49,042,44,13,64,160,44,26,56,311,45*6C
###2023-11-09 13:06:33.345444$GBGSV,2,1,06,11,24,180,41,14,65,006,46,24,19,133,43,26,23,082,42*67
###2023-11-09 13:06:33.347384$GBGSV,2,2,06,28,43,289,47,33,58,302,47,,,,,,,,*6F
###2023-11-09 13:06:33.348805$GNVTG,47.01,T,,M,0.86,N,1.58,K,A*13
###2023-11-09 13:06:33.431345$GNGGA,130633.60,3611.0428378,N,07544.9795387,W,1,24,0.6,0.857,M,-39.961,M,0.0,*64
###2023-11-09 13:06:33.433941$GPGSV,2,1,07,05,21,090,42,10,18,292,43,13,24,045,41,15,62,037,46*74
###2023-11-09 13:06:33.436185$GPGSV,2,2,07,18,77,281,47,23,49,314,45,24,49,137,46,,,,*48
###2023-11-09 13:06:33.438768$GLGSV,2,1,05,70,50,016,36,71,48,288,48,80,17,091,44,85,58,203,48*6C
###2023-11-09 13:06:33.440372$GLGSV,2,2,05,86,52,309,47,,,,,,,,,,,,*50
###2023-11-09 13:06:33.443266$GAGSV,1,1,04,07,72,255,45,08,49,042,44,13,64,160,44,26,56,311,45*6C
###2023-11-09 13:06:33.445851$GBGSV,2,1,06,11,24,180,41,14,65,006,46,24,19,133,43,26,23,082,42*67
###2023-11-09 13:06:33.447813$GBGSV,2,2,06,28,43,289,47,33,58,302,47,,,,,,,,*6F
###2023-11-09 13:06:33.449248$GNVTG,36.89,T,,M,1.03,N,1.91,K,A*1C
###2023-11-09 13:06:33.533377$GNGGA,130633.70,3611.0428630,N,07544.9795181,W,1,24,0.6,0.863,M,-39.961,M,0.0,*6F
###2023-11-09 13:06:33.535969$GPGSV,2,1,07,05,21,090,42,10,18,292,43,13,24,045,41,15,62,037,46*74
###2023-11-09 13:06:33.538251$GPGSV,2,2,07,18,77,281,47,23,49,314,45,24,49,137,46,,,,*48
###2023-11-09 13:06:33.540838$GLGSV,2,1,05,70,50,016,35,71,48,288,48,80,17,091,44,85,58,203,48*6F
###2023-11-09 13:06:33.542452$GLGSV,2,2,05,86,52,309,47,,,,,,,,,,,,*50
