###2023-11-09 13:07:39.233921$GPGSV,2,1,07,05,21,090,41,10,18,292,43,13,24,045,42,15,62,037,46*74
###2023-11-09 13:07:39.236187$GPGSV,2,2,07,18,77,281,47,23,50,315,45,24,49,136,45,,,,*43
###2023-11-09 13:07:39.238808$GLGSV,2,1,05,70,50,016,35,71,48,288,48,80,17,091,44,85,58,203,48*6F
###2023-11-09 13:07:39.240428$GLGSV,2,2,05,86,52,309,47,,,,,,,,,,,,*50
###2023-11-09 13:07:39.242996$GAGSV,1,1,04,07,72,257,45,08,49,042,44,13,64,160,44,26,56,310,45*6F
###2023-11-09 13:07:39.245579$GBGSV,2,1,06,11,23,180,39,14,65,008,45,24,19,133,42,26,23,082,43*62
###2023-11-09 13:07:39.247534$GBGSV,2,2,06,28,43,289,47,33,58,302,47,,,,,,,,*6F
###2023-11-09 13:07:39.249007$GNVTG,108.36,T,,M,3.29,N,6.08,K,A*29
###2023-11-09 13:07:39.329484$GNGGA,130739.50,3611.0568045,N,07544.9753335,W,1,24,0.6,0.713,M,-39.961,M,0.0,*68
###2023-11-09 13:07:39.332076$GPGSV,2,1,07,05,21,090,41,10,18,292,43,13,24,045,42,15,62,037,46*74
###2023-11-09 13:07:39.334316$GPGSV,2,2,07,18,77,281,47,23,50,315,45,24,49,136,45,,,,*43
###2023-11-09 13:07:39.336872$GLGSV,2,1,05,70,50,016,35,71,48,288,48,80,17,091,44,85,58,203,48*6F
###2023-11-09 13:07:39.338484$GLGSV,2,2,05,86,52,309,47,,,,,,,,,,,,*50
###2023-11-09 13:07:39.341022$GAGSV,1,1,04,07,72,257,45,08,49,042,44,13,64,160,44,26,56,310,45*6F
###2023-11-09 13:07:39.343587$GBGSV,2,1,06,11,23,180,39,14,65,008,45,24,19,133,42,26,23,082,43*62
###2023-11-09 13:07:39.345509$GBGSV,2,2,06,28,43,289,47,33,58,302,47,,,,,,,,*6F
###2023-11-09 13:07:39.346979$GNVTG,110.39,T,,M,3.50,N,6.48,K,A*25
###2023-11-09 13:07:39.429991$GNGGA,130739.60,3611.0567673,N,07544.9752168,W,1,24,0.6,0.721,M,-39.961,M,0.0,*6D
###2023-11-09 13:07:39.432602$GPGSV,2,1,07,05,21,090,41,10,18,292,43,13,24,045,40,15,62,037,46*76
###2023-11-09 13:07:39.434872$GPGSV,2,2,07,18,77,281,46,23,50,315,45,24,49,136,45,,,,*42
###2023-11-09 13:07:39.437475$GLGSV,2,1,05,70,50,016,35,71,48,288,49,80,17,091,44,85,58,203,48*6E
###2023-11-09 13:07:39.439092$GLGSV,2,2,05,86,52,309,47,,,,,,,,,,,,*50
###2023-11-09 13:07:39.441664$GAGSV,1,1,04,07,72,257,45,08,49,042,44,13,64,160,44,26,56,310,45*6F
###2023-11-09 13:07:39.444247$GBGSV,2,1,06,11,23,180,39,14,65,008,45,24,19,133,42,26,23,082,43*62
###2023-11-09 13:07:39.446185$GBGSV,2,2,06,28,43,289,47,33,58,302,47,,,,,,,,*6F
###2023-11-09 13:07:39.447661$GNVTG,111.93,T,,M,3.79,N,7.02,K,A*20
###2023-11-09 13:07:39.530463$GNGGA,130739.70,3611.0567263,N,07544.9750929,W,1,24,0.6,0.734,M,-39.961,M,0.0,*62
###2023-11-09 13:07:39.533039$GPGSV,2,1,07,05,21,090,41,10,18,292,44,13,24,045,40,15,62,037,46*71
###2023-11-09 13:07:39.535294$GPGSV,2,2,07,18,77,281,46,23,50,315,45,24,49,136,45,,,,*42
###2023-11-09 13:07:39.537903$GLGSV,2,1,05,70,50,016,35,71,48,288,49,80,17,091,44,85,58,203,48*6E
###2023-11-09 13:07:39.539516$GLGSV,2,2,05,86,52,309,48,,,,,,,,,,,,*5F
###2023-11-09 13:07:39.542088$GAGSV,1,1,04,07,72,257,45,08,49,042,44,13,64,160,44,26,56,310,45*6F
###2023-11-09 13:07:39.544671$GBGSV,2,1,06,11,23,180,40,14,65,008,45,24,19,133,42,26,23,082,43*6C
###2023-11-09 13:07:39.546608$GBGSV,2,2,06,28,43,289,47,33,58,302,47,,,,,,,,*6F
###2023-11-09 13:07:39.548088$GNVTG,112.09,T,,M,4.00,N,7.42,K,A*2D
###2023-11-09 13:07:39.629513$GNGGA,130739.80,3611.0566822,N,07544.9749639,W,1,24,0.6,0.749,M,-39.961,M,0.0,*6F
###2023-11-09 13:07:39.632100$GPGSV,2,1,07,05,21,090,41,10,18,292,44,13,24,045,41,15,62,037,46*70
###2023-11-09 13:07:39.634341$GPGSV,2,2,07,18,77,281,46,23,50,315,45,24,49,136,45,,,,*42
###2023-11-09 13:07:39.636897$GLGSV,2,1,05,70,50,016,35,71,48,288,50,80,17,091,44,85,58,203,48*66
###2023-11-09 13:07:39.638506$GLGSV,2,2,05,86,52,309,48,,,,,,,,,,,,*5F
###2023-11-09 13:07:39.641068$GAGSV,1,1,04,07,72,257,45,08,49,042,44,13,64,160,44,26,56,310,45*6F
###2023-11-09 13:07:39.643633$GBGSV,2,1,06,11,23,180,40,14,65,008,45,24,19,133,42,26,23,082,43*6C
###2023-11-09 13:07:39.645552$GBGSV,2,2,06,28,43,289,47,33,58,302,47,,,,,,,,*6F
###2023-11-09 13:07:39.647019$GNVTG,113.34,T,,M,4.14,N,7.67,K,A*20
###2023-11-09 13:07:39.729522$GNGGA,130739.90,3611.0566332,N,07544.9748335,W,1,24,0.6,0.769,M,-39.961,M,0.0,*6E
###2023-11-09 13:07:39.732144$GPGSV,2,1,07,05,21,090,41,10,18,292,44,13,24,045,41,15,62,037,46*70
###2023-11-09 13:07:39.734416$GPGSV,2,2,07,18,77,281,46,23,50,315,45,24,49,136,45,,,,*42
###2023-11-09 13:07:39.737013$GLGSV,2,1,05,70,50,016,35,71,48,288,49,80,17,091,44,85,58,203,48*6E
###2023-11-09 13:07:39.738621$GLGSV,2,2,05,86,52,309,48,,,,,,,,,,,,*5F
###2023-11-09 13:07:39.741192$GAGSV,1,1,04,07,72,257,45,08,49,042,44,13,64,160,44,26,56,310,45*6F
###2023-11-09 13:07:39.743766$GBGSV,2,1,06,11,23,180,40,14,65,008,45,24,19,133,42,26,23,082,43*6C
###2023-11-09 13:07:39.745705$GBGSV,2,2,06,28,43,289,47,33,58,302,47,,,,,,,,*6F
###2023-11-09 13:07:39.747193$GNVTG,115.98,T,,M,4.22,N,7.81,K,A*2D
###2023-11-09 13:07:39.832504$GNGGA,130740.00,3611.0565761,N,07544.9747037,W,1,24,0.6,0.795,M,-39.961,M,0.0,*65
###2023-11-09 13:07:39.835103$GPGSV,2,1,07,05,21,090,42,10,18,292,44,13,24,045,42,15,62,037,46*70
###2023-11-09 13:07:39.837379$GPGSV,2,2,07,18,77,281,47,23,50,315,45,24,49,136,45,,,,*43
###2023-11-09 13:07:39.839955$GLGSV,2,1,05,70,50,016,35,71,48,288,49,80,17,091,44,85,58,203,48*6E
###2023-11-09 13:07:39.841563$GLGSV,2,2,05,86,52,309,48,,,,,,,,,,,,*5F
###2023-11-09 13:07:39.844130$GAGSV,1,1,04,07,72,257,45,08,49,042,44,13,64,160,44,26,56,310,45*6F
###2023-11-09 13:07:39.846718$GBGSV,2,1,06,11,23,180,40,14,65,008,45,24,19,133,42,26,23,082,43*6C
###2023-11-09 13:07:39.848674$GBGSV,2,2,06,28,43,289,47,33,58,302,47,,,,,,,,*6F
###2023-11-09 13:07:39.850142$GNVTG,120.40,T,,M,4.37,N,8.10,K,A*2D
###2023-11-09 13:07:39.934344$GNGGA,130740.10,3611.0565122,N,07544.9745758,W,1,24,0.6,0.819,M,-39.961,M,0.0,*62
###2023-11-09 13:07:39.936929$GPGSV,2,1,07,05,21,090,42,10,18,292,43,13,24,045,42,15,62,037,46*77
###2023-11-09 13:07:39.939164$GPGSV,2,2,07,18,77,281,46,23,50,315,45,24,49,136,45,,,,*42
###2023-11-09 13:07:39.941716$GLGSV,2,1,05,70,50,016,35,71,48,288,49,80,17,091,44,85,58,203,48*6E
###2023-11-09 13:07:39.943308$GLGSV,2,2,05,86,52,309,48,,,,,,,,,,,,*5F
###2023-11-09 13:07:39.945860$GAGSV,1,1,04,07,72,257,45,08,49,042,44,13,64,160,44,26,56,310,45*6F
###2023-11-09 13:07:39.948430$GBGSV,2,1,06,11,23,180,40,14,65,008,45,24,19,133,42,26,23,082,44*6B
###2023-11-09 13:07:39.950355$GBGSV,2,2,06,28,43,289,47,33,58,302,47,,,,,,,,*6F
###2023-11-09 13:07:39.951822$GNVTG,122.58,T,,M,4.37,N,8.10,K,A*26
###2023-11-09 13:07:40.030613$GNGGA,130740.20,3611.0564433,N,07544.9744517,W,1,24,0.6,0.843,M,-39.961,M,0.0,*62
###2023-11-09 13:07:40.033212$GPGSV,2,1,07,05,21,090,42,10,18,292,43,13,24,045,42,15,62,037,46*77
###2023-11-09 13:07:40.035472$GPGSV,2,2,07,18,77,281,47,23,50,315,45,24,49,136,45,,,,*43
###2023-11-09 13:07:40.038068$GLGSV,2,1,05,70,50,016,35,71,48,288,49,80,17,091,44,85,58,203,48*6E
###2023-11-09 13:07:40.039676$GLGSV,2,2,05,86,52,309,48,,,,,,,,,,,,*5F
###2023-11-09 13:07:40.042242$GAGSV,1,1,04,07,72,257,45,08,49,042,45,13,64,160,45,26,56,310,45*6F
###2023-11-09 13:07:40.044807$GBGSV,2,1,06,11,23,180,39,14,65,008,45,24,19,133,42,26,23,082,44*65
###2023-11-09 13:07:40.046738$GBGSV,2,2,06,28,43,289,47,33,58,302,47,,,,,,,,*6F
###2023-11-09 13:07:40.048213$GNVTG,125.83,T,,M,4.37,N,8.10,K,A*27
###2023-11-09 13:07:40.130488$GNGGA,130740.30,3611.0563677,N,07544.9743313,W,1,24,0.6,0.857,M,-39.961,M,0.0,*66
###2023-11-09 13:07:40.133086$GPGSV,2,1,07,05,21,090,42,10,18,292,43,13,24,045,42,15,62,037,46*77
###2023-11-09 13:07:40.135347$GPGSV,2,2,07,18,77,281,47,23,50,315,45,24,49,136,45,,,,*43
###2023-11-09 13:07:40.137926$GLGSV,2,1,05,70,50,016,35,71,48,288,49,80,17,091,44,85,58,203,48*6E
###2023-11-09 13:07:40.139541$GLGSV,2,2,05,86,52,309,48,,,,,,,,,,,,*5F
###2023-11-09 13:07:40.142104$GAGSV,1,1,04,07,72,257,45,08,49,042,44,13,64,160,45,26,56,310,45*6E
###2023-11-09 13:07:40.144681$GBGSV,2,1,06,11,23,180,39,14,65,008,45,24,19,133,42,26,23,082,43*62
###2023-11-09 13:07:40.146618$GBGSV,2,2,06,28,43,289,47,33,58,302,47,,,,,,,,*6F
###2023-11-09 13:07:40.148099$GNVTG,129.02,T,,M,4.49,N,8.32,K,A*2B
###2023-11-09 13:07:40.230104$GNGGA,130740.40,3611.0562874,N,07544.9742142,W,1,24,0.6,0.861,M,-39.961,M,0.0,*6F
###2023-11-09 13:07:40.233001$GPGSV,2,1,07,05,21,090,41,10,18,292,43,13,24,045,41,15,62,037,46*77
###2023-11-09 13:07:40.235264$GPGSV,2,2,07,18,77,281,47,23,50,315,45,24,49,136,45,,,,*43
###2023-11-09 13:07:40.237867$GLGSV,2,1,05,70,50,016,35,71,48,288,49,80,17,091,44,85,58,203,48*6E
###2023-11-09 13:07:40.239481$GLGSV,2,2,05,86,52,309,48,,,,,,,,,,,,*5F
###2023-11-09 13:07:40.242050$GAGSV,1,1,04,07,72,257,45,08,49,042,44,13,64,160,45,26,56,310,45*6E
###2023-11-09 13:07:40.244618$GBGSV,2,1,06,11,23,180,39,14,65,008,45,24,19,133,42,26,23,082,43*62
###2023-11-09 13:07:40.246548$GBGSV,2,2,06,28,43,289,47,33,58,302,47,,,,,,,,*6F
###2023-11-09 13:07:40.248027$GNVTG,130.81,T,,M,4.45,N,8.24,K,A*23
###2023-11-09 13:07:40.328527$GNGGA,130740.50,3611.0562071,N,07544.9741012,W,1,24,0.6,0.866,M,-39.961,M,0.0,*63
###2023-11-09 13:07:40.331145$GPGSV,2,1,07,05,21,090,41,10,18,292,44,13,24,045,41,15,62,037,46*70
