###2023-11-09 13:09:29.540633$GLGSV,2,2,05,86,53,308,48,,,,,,,,,,,,*5F
###2023-11-09 13:09:29.543221$GAGSV,1,1,04,07,73,259,45,08,48,043,44,13,63,161,44,26,57,310,45*67
###2023-11-09 13:09:29.545797$GBGSV,2,1,06,11,23,180,40,14,65,008,45,24,20,132,43,26,23,081,42*64
###2023-11-09 13:09:29.547787$GBGSV,2,2,06,28,43,287,47,33,59,304,48,,,,,,,,*69
###2023-11-09 13:09:29.549226$GNVTG,84.97,T,,M,2.33,N,4.32,K,A*16
###2023-11-09 13:09:29.629770$GNGGA,130929.80,3611.0337568,N,07544.9448577,W,1,24,0.6,0.760,M,-39.961,M,0.0,*61
###2023-11-09 13:09:29.632374$GPGSV,2,1,07,05,20,090,41,10,19,293,43,13,24,045,41,15,61,037,45*76
###2023-11-09 13:09:29.634634$GPGSV,2,2,07,18,78,277,47,23,50,316,45,24,50,134,46,,,,*4F
###2023-11-09 13:09:29.637230$GLGSV,2,1,05,70,50,017,35,71,48,290,48,80,18,090,43,85,57,203,48*61
###2023-11-09 13:09:29.638842$GLGSV,2,2,05,86,53,308,48,,,,,,,,,,,,*5F
###2023-11-09 13:09:29.641422$GAGSV,1,1,04,07,73,259,45,08,48,043,44,13,63,161,44,26,57,310,45*67
###2023-11-09 13:09:29.644004$GBGSV,2,1,06,11,23,180,40,14,65,008,45,24,20,132,43,26,23,081,42*64
###2023-11-09 13:09:29.645943$GBGSV,2,2,06,28,43,287,47,33,59,304,48,,,,,,,,*69
###2023-11-09 13:09:29.647390$GNVTG,85.81,T,,M,2.29,N,4.25,K,A*1D
###2023-11-09 13:09:29.729743$GNGGA,130929.90,3611.0337629,N,07544.9447793,W,1,24,0.6,0.764,M,-39.961,M,0.0,*65
###2023-11-09 13:09:29.732319$GPGSV,2,1,07,05,20,090,41,10,19,293,43,13,24,045,39,15,61,037,45*79
###2023-11-09 13:09:29.734558$GPGSV,2,2,07,18,78,277,47,23,50,316,45,24,50,134,46,,,,*4F
###2023-11-09 13:09:29.737129$GLGSV,2,1,05,70,50,017,35,71,48,290,48,80,18,090,43,85,57,203,48*61
###2023-11-09 13:09:29.738727$GLGSV,2,2,05,86,53,308,48,,,,,,,,,,,,*5F
###2023-11-09 13:09:29.741275$GAGSV,1,1,04,07,73,259,45,08,48,043,44,13,63,161,45,26,57,310,44*67
###2023-11-09 13:09:29.743841$GBGSV,2,1,06,11,23,180,40,14,65,008,45,24,20,132,43,26,23,081,42*64
###2023-11-09 13:09:29.745764$GBGSV,2,2,06,28,43,287,47,33,59,304,47,,,,,,,,*66
###2023-11-09 13:09:29.747190$GNVTG,82.48,T,,M,2.31,N,4.28,K,A*1B
###2023-11-09 13:09:29.837492$GNGGA,130930.00,3611.0337731,N,07544.9446990,W,1,24,0.6,0.758,M,-39.961,M,0.0,*6F
###2023-11-09 13:09:29.840077$GPGSV,2,1,07,05,20,090,41,10,19,293,44,13,24,045,39,15,61,037,45*7E
###2023-11-09 13:09:29.842327$GPGSV,2,2,07,18,78,277,47,23,50,316,45,24,50,134,46,,,,*4F
###2023-11-09 13:09:29.844889$GLGSV,2,1,05,70,50,017,35,71,48,290,48,80,18,090,42,85,57,203,48*60
###2023-11-09 13:09:29.846488$GLGSV,2,2,05,86,53,308,47,,,,,,,,,,,,*50
###2023-11-09 13:09:29.849057$GAGSV,1,1,04,07,73,259,45,08,48,043,44,13,63,161,45,26,57,310,44*67
###2023-11-09 13:09:29.851630$GBGSV,2,1,06,11,23,180,42,14,65,008,45,24,20,132,43,26,23,081,42*66
###2023-11-09 13:09:29.853567$GBGSV,2,2,06,28,43,287,47,33,59,304,47,,,,,,,,*66
###2023-11-09 13:09:29.854991$GNVTG,79.17,T,,M,2.43,N,4.50,K,A*1F
###2023-11-09 13:09:29.938382$GNGGA,130930.10,3611.0337867,N,07544.9446148,W,1,24,0.6,0.748,M,-39.961,M,0.0,*6E
###2023-11-09 13:09:29.940983$GPGSV,2,1,07,05,20,090,41,10,19,293,44,13,24,045,39,15,61,037,45*7E
###2023-11-09 13:09:29.943233$GPGSV,2,2,07,18,78,277,47,23,50,316,45,24,50,134,46,,,,*4F
###2023-11-09 13:09:29.945796$GLGSV,2,1,05,70,50,017,35,71,48,290,48,80,18,090,42,85,57,203,49*61
###2023-11-09 13:09:29.947444$GLGSV,2,2,05,86,53,308,46,,,,,,,,,,,,*51
###2023-11-09 13:09:29.950016$GAGSV,1,1,04,07,73,259,45,08,48,043,44,13,63,161,45,26,57,310,44*67
###2023-11-09 13:09:29.952592$GBGSV,2,1,06,11,22,180,42,14,65,008,45,24,20,132,43,26,23,081,42*67
###2023-11-09 13:09:29.954529$GBGSV,2,2,06,28,43,287,47,33,59,304,47,,,,,,,,*66
###2023-11-09 13:09:29.955956$GNVTG,77.60,T,,M,2.57,N,4.75,K,A*13
###2023-11-09 13:09:30.032712$GNGGA,130930.20,3611.0338032,N,07544.9445282,W,1,24,0.6,0.741,M,-39.961,M,0.0,*65
###2023-11-09 13:09:30.035283$GPGSV,2,1,07,05,20,090,41,10,19,293,43,13,24,045,41,15,61,037,45*76
###2023-11-09 13:09:30.037535$GPGSV,2,2,07,18,78,277,47,23,50,316,44,24,50,134,46,,,,*4E
###2023-11-09 13:09:30.040088$GLGSV,2,1,05,70,50,017,35,71,48,290,48,80,18,090,42,85,57,203,49*61
###2023-11-09 13:09:30.041679$GLGSV,2,2,05,86,53,308,46,,,,,,,,,,,,*51
###2023-11-09 13:09:30.044220$GAGSV,1,1,04,07,73,259,45,08,48,043,44,13,63,161,45,26,57,310,44*67
###2023-11-09 13:09:30.046777$GBGSV,2,1,06,11,22,180,42,14,65,008,44,24,20,132,43,26,23,081,42*66
###2023-11-09 13:09:30.048707$GBGSV,2,2,06,28,43,287,47,33,59,304,47,,,,,,,,*66
###2023-11-09 13:09:30.050124$GNVTG,74.59,T,,M,2.64,N,4.90,K,A*11
###2023-11-09 13:09:30.129752$GNGGA,130930.30,3611.0338202,N,07544.9444384,W,1,24,0.6,0.720,M,-39.961,M,0.0,*64
###2023-11-09 13:09:30.132334$GPGSV,2,1,07,05,20,090,40,10,19,293,43,13,24,045,41,15,61,037,45*77
###2023-11-09 13:09:30.134586$GPGSV,2,2,07,18,78,277,47,23,50,316,45,24,50,134,46,,,,*4F
###2023-11-09 13:09:30.137174$GLGSV,2,1,05,70,50,017,35,71,48,290,48,80,18,090,42,85,57,203,49*61
###2023-11-09 13:09:30.138783$GLGSV,2,2,05,86,53,308,47,,,,,,,,,,,,*50
###2023-11-09 13:09:30.141356$GAGSV,1,1,04,07,73,259,45,08,48,043,44,13,63,161,45,26,57,310,44*67
###2023-11-09 13:09:30.143925$GBGSV,2,1,06,11,22,180,41,14,65,008,44,24,20,132,42,26,23,081,42*64
###2023-11-09 13:09:30.145847$GBGSV,2,2,06,28,43,287,47,33,59,304,47,,,,,,,,*66
###2023-11-09 13:09:30.147283$GNVTG,78.27,T,,M,2.76,N,5.11,K,A*1F
###2023-11-09 13:09:30.230966$GNGGA,130930.40,3611.0338312,N,07544.9443460,W,1,24,0.6,0.697,M,-39.961,M,0.0,*64
###2023-11-09 13:09:30.233545$GPGSV,2,1,07,05,20,090,40,10,19,293,43,13,24,045,41,15,61,037,45*77
###2023-11-09 13:09:30.235786$GPGSV,2,2,07,18,78,277,47,23,50,316,45,24,50,134,46,,,,*4F
###2023-11-09 13:09:30.238371$GLGSV,2,1,05,70,50,017,35,71,48,290,48,80,18,090,42,85,57,203,49*61
###2023-11-09 13:09:30.239971$GLGSV,2,2,05,86,53,308,47,,,,,,,,,,,,*50
###2023-11-09 13:09:30.242527$GAGSV,1,1,04,07,73,259,45,08,48,043,44,13,63,161,45,26,57,310,44*67
###2023-11-09 13:09:30.245099$GBGSV,2,1,06,11,22,180,41,14,65,008,44,24,20,132,42,26,23,081,42*64
###2023-11-09 13:09:30.247052$GBGSV,2,2,06,28,43,287,47,33,59,304,47,,,,,,,,*66
###2023-11-09 13:09:30.248480$GNVTG,84.08,T,,M,2.72,N,5.04,K,A*11
###2023-11-09 13:09:30.330712$GNGGA,130930.50,3611.0338358,N,07544.9442544,W,1,24,0.6,0.678,M,-39.961,M,0.0,*6C
###2023-11-09 13:09:30.333284$GPGSV,2,1,07,05,20,090,41,10,19,293,43,13,24,045,41,15,61,037,45*76
###2023-11-09 13:09:30.335528$GPGSV,2,2,07,18,78,277,47,23,50,316,45,24,50,134,46,,,,*4F
###2023-11-09 13:09:30.338103$GLGSV,2,1,05,70,50,017,35,71,48,290,48,80,18,090,43,85,57,203,48*61
###2023-11-09 13:09:30.339702$GLGSV,2,2,05,86,53,308,47,,,,,,,,,,,,*50
###2023-11-09 13:09:30.342259$GAGSV,1,1,04,07,73,259,45,08,48,043,44,13,63,161,45,26,57,310,44*67
###2023-11-09 13:09:30.344825$GBGSV,2,1,06,11,22,180,41,14,65,008,44,24,20,132,42,26,23,081,42*64
###2023-11-09 13:09:30.346746$GBGSV,2,2,06,28,43,287,47,33,59,304,47,,,,,,,,*66
###2023-11-09 13:09:30.348175$GNVTG,87.67,T,,M,2.66,N,4.93,K,A*11
###2023-11-09 13:09:30.429768$GNGGA,130930.60,3611.0338380,N,07544.9441638,W,1,24,0.6,0.666,M,-39.961,M,0.0,*6E
###2023-11-09 13:09:30.432377$GPGSV,2,1,07,05,20,090,41,10,19,293,43,13,24,045,41,15,61,037,45*76
###2023-11-09 13:09:30.434631$GPGSV,2,2,07,18,78,277,47,23,50,316,45,24,50,134,46,,,,*4F
###2023-11-09 13:09:30.437209$GLGSV,2,1,05,70,50,017,35,71,48,290,48,80,18,090,43,85,57,203,48*61
###2023-11-09 13:09:30.438826$GLGSV,2,2,05,86,53,308,47,,,,,,,,,,,,*50
###2023-11-09 13:09:30.441401$GAGSV,1,1,04,07,73,259,45,08,48,043,44,13,63,161,45,26,57,310,44*67
###2023-11-09 13:09:30.443983$GBGSV,2,1,06,11,22,180,41,14,65,008,45,24,20,132,43,26,23,081,42*64
###2023-11-09 13:09:30.445922$GBGSV,2,2,06,28,43,287,47,33,59,304,47,,,,,,,,*66
###2023-11-09 13:09:30.447394$GNVTG,87.95,T,,M,2.64,N,4.90,K,A*1D
###2023-11-09 13:09:30.530858$GNGGA,130930.70,3611.0338421,N,07544.9440723,W,1,24,0.6,0.667,M,-39.961,M,0.0,*68
###2023-11-09 13:09:30.533442$GPGSV,2,1,07,05,20,090,41,10,19,293,44,13,24,045,41,15,61,037,45*71
###2023-11-09 13:09:30.535690$GPGSV,2,2,07,18,78,277,47,23,50,316,45,24,50,134,46,,,,*4F
###2023-11-09 13:09:30.538295$GLGSV,2,1,05,70,50,017,35,71,48,290,48,80,18,090,43,85,57,203,48*61
###2023-11-09 13:09:30.539930$GLGSV,2,2,05,86,53,308,47,,,,,,,,,,,,*50
###2023-11-09 13:09:30.542806$GAGSV,1,1,04,07,73,259,45,08,48,043,44,13,63,161,45,26,57,310,44*67
###2023-11-09 13:09:30.545392$GBGSV,2,1,06,11,22,180,41,14,65,008,45,24,20,132,43,26,23,081,42*64
###2023-11-09 13:09:30.547344$GBGSV,2,2,06,28,43,287,47,33,59,304,47,,,,,,,,*66
###2023-11-09 13:09:30.548776$GNVTG,84.61,T,,M,2.72,N,5.04,K,A*1E
###2023-11-09 13:09:30.629776$GNGGA,130930.80,3611.0338486,N,07544.9439776,W,1,24,0.6,0.679,M,-39.961,M,0.0,*6B
###2023-11-09 13:09:30.632385$GPGSV,2,1,07,05,20,090,41,10,19,293,44,13,24,045,41,15,61,037,45*71
###2023-11-09 13:09:30.634626$GPGSV,2,2,07,18,78,277,47,23,50,316,45,24,50,134,46,,,,*4F
###2023-11-09 13:09:30.637194$GLGSV,2,1,05,70,50,017,35,71,48,290,48,80,18,090,42,85,57,203,48*60
###2023-11-09 13:09:30.638786$GLGSV,2,2,05,86,53,308,47,,,,,,,,,,,,*50
