###2023-11-09 13:06:18.942080$GAGSV,1,1,04,07,72,255,45,08,49,042,44,13,64,160,45,26,56,311,45*6D
###2023-11-09 13:06:18.944676$GBGSV,2,1,06,11,24,180,40,14,65,006,46,24,19,133,42,26,23,082,42*67
###2023-11-09 13:06:18.946610$GBGSV,2,2,06,28,43,289,47,33,58,302,48,,,,,,,,*60
###2023-11-09 13:06:18.948064$GNVTG,49.09,T,,M,1.17,N,2.16,K,A*15
###2023-11-09 13:06:19.030602$GNGGA,130619.20,3611.0403307,N,07544.9810849,W,1,23,0.6,1.011,M,-39.961,M,0.0,*6E
###2023-11-09 13:06:19.033192$GPGSV,2,1,07,05,21,089,41,10,17,292,43,13,25,045,42,15,62,036,46*73
###2023-11-09 13:06:19.035437$GPGSV,2,2,07,18,77,282,47,23,49,314,45,24,49,137,45,,,,*48
###2023-11-09 13:06:19.038019$GLGSV,1,1,04,71,48,288,49,80,17,091,43,85,58,203,48,86,52,309,48*67
###2023-11-09 13:06:19.040605$GAGSV,1,1,04,07,72,255,45,08,49,042,44,13,64,160,45,26,56,311,45*6D
###2023-11-09 13:06:19.043205$GBGSV,2,1,06,11,24,180,40,14,65,006,46,24,19,133,42,26,23,082,42*67
###2023-11-09 13:06:19.045153$GBGSV,2,2,06,28,43,289,47,33,58,302,47,,,,,,,,*6F
###2023-11-09 13:06:19.046591$GNVTG,50.76,T,,M,1.05,N,1.94,K,A*1F
###2023-11-09 13:06:19.131862$GNGGA,130619.30,3611.0403477,N,07544.9810583,W,1,24,0.6,1.012,M,-39.961,M,0.0,*60
###2023-11-09 13:06:19.134457$GPGSV,2,1,07,05,21,089,41,10,17,292,43,13,25,045,42,15,62,036,46*73
###2023-11-09 13:06:19.136712$GPGSV,2,2,07,18,77,282,47,23,49,314,45,24,49,137,46,,,,*4B
###2023-11-09 13:06:19.139298$GLGSV,2,1,05,70,50,016,35,71,48,288,49,80,17,091,43,85,58,203,48*69
###2023-11-09 13:06:19.140917$GLGSV,2,2,05,86,52,309,48,,,,,,,,,,,,*5F
###2023-11-09 13:06:19.143479$GAGSV,1,1,04,07,72,255,45,08,49,042,44,13,64,160,44,26,56,311,45*6C
###2023-11-09 13:06:19.146066$GBGSV,2,1,06,11,24,180,40,14,65,006,46,24,19,133,41,26,23,082,43*65
###2023-11-09 13:06:19.148023$GBGSV,2,2,06,28,43,289,47,33,58,302,47,,,,,,,,*6F
###2023-11-09 13:06:19.149466$GNVTG,50.76,T,,M,0.95,N,1.76,K,A*1B
###2023-11-09 13:06:19.230853$GNGGA,130619.40,3611.0403628,N,07544.9810310,W,1,24,0.6,1.009,M,-39.961,M,0.0,*69
###2023-11-09 13:06:19.233424$GPGSV,2,1,07,05,21,089,41,10,17,292,43,13,25,045,42,15,62,036,46*73
###2023-11-09 13:06:19.235672$GPGSV,2,2,07,18,77,282,47,23,49,314,45,24,49,137,46,,,,*4B
###2023-11-09 13:06:19.238256$GLGSV,2,1,05,70,50,016,35,71,48,288,49,80,17,091,44,85,58,203,48*6E
###2023-11-09 13:06:19.239862$GLGSV,2,2,05,86,52,309,48,,,,,,,,,,,,*5F
###2023-11-09 13:06:19.242401$GAGSV,1,1,04,07,72,255,45,08,49,042,44,13,64,160,44,26,56,311,45*6C
###2023-11-09 13:06:19.244950$GBGSV,2,1,06,11,24,180,40,14,65,006,45,24,19,133,41,26,23,082,43*66
###2023-11-09 13:06:19.246874$GBGSV,2,2,06,28,43,289,47,33,58,302,47,,,,,,,,*6F
###2023-11-09 13:06:19.248300$GNVTG,59.33,T,,M,0.99,N,1.84,K,A*12
###2023-11-09 13:06:19.329640$GNGGA,130619.50,3611.0403781,N,07544.9810011,W,1,24,0.6,1.004,M,-39.961,M,0.0,*65
###2023-11-09 13:06:19.332226$GPGSV,2,1,07,05,21,089,41,10,17,292,43,13,25,045,42,15,62,036,46*73
###2023-11-09 13:06:19.334479$GPGSV,2,2,07,18,77,282,47,23,49,314,45,24,49,137,46,,,,*4B
###2023-11-09 13:06:19.337189$GLGSV,2,1,05,70,50,016,35,71,48,288,49,80,17,091,44,85,58,203,48*6E
###2023-11-09 13:06:19.338798$GLGSV,2,2,05,86,52,309,47,,,,,,,,,,,,*50
###2023-11-09 13:06:19.341364$GAGSV,1,1,04,07,72,255,45,08,49,042,44,13,64,160,44,26,56,311,45*6C
###2023-11-09 13:06:19.343935$GBGSV,2,1,06,11,24,180,40,14,65,006,45,24,19,133,41,26,23,082,42*67
###2023-11-09 13:06:19.345876$GBGSV,2,2,06,28,43,289,47,33,58,302,47,,,,,,,,*6F
###2023-11-09 13:06:19.347321$GNVTG,58.71,T,,M,1.11,N,2.05,K,A*1E
###2023-11-09 13:06:19.431754$GNGGA,130619.60,3611.0403952,N,07544.9809678,W,1,23,0.6,0.998,M,-39.961,M,0.0,*6D
###2023-11-09 13:06:19.434368$GPGSV,2,1,07,05,21,089,40,10,17,292,43,13,25,045,42,15,62,036,46*72
###2023-11-09 13:06:19.436640$GPGSV,2,2,07,18,77,282,47,23,49,314,45,24,49,137,46,,,,*4B
###2023-11-09 13:06:19.439258$GLGSV,1,1,04,71,48,288,49,80,17,091,44,85,58,203,48,86,52,309,47*6F
###2023-11-09 13:06:19.441846$GAGSV,1,1,04,07,72,255,45,08,49,042,44,13,64,160,45,26,56,311,45*6D
###2023-11-09 13:06:19.444430$GBGSV,2,1,06,11,24,180,40,14,65,006,45,24,19,133,41,26,23,082,41*64
###2023-11-09 13:06:19.446368$GBGSV,2,2,06,28,43,289,47,33,58,302,47,,,,,,,,*6F
###2023-11-09 13:06:19.447820$GNVTG,58.99,T,,M,1.21,N,2.23,K,A*1F
###2023-11-09 13:06:19.530491$GNGGA,130619.70,3611.0404130,N,07544.9809328,W,1,23,0.6,0.986,M,-39.961,M,0.0,*68
###2023-11-09 13:06:19.533080$GPGSV,2,1,07,05,21,089,40,10,17,292,43,13,25,045,42,15,62,036,46*72
###2023-11-09 13:06:19.535325$GPGSV,2,2,07,18,77,282,47,23,49,314,45,24,49,137,46,,,,*4B
###2023-11-09 13:06:19.537904$GLGSV,1,1,04,71,48,288,49,80,17,091,44,85,58,203,48,86,52,309,47*6F
###2023-11-09 13:06:19.540474$GAGSV,1,1,04,07,72,255,45,08,49,042,45,13,64,160,45,26,56,311,45*6C
###2023-11-09 13:06:19.543044$GBGSV,2,1,06,11,24,180,40,14,65,006,45,24,19,133,42,26,23,082,41*67
###2023-11-09 13:06:19.544977$GBGSV,2,2,06,28,43,289,47,33,58,302,47,,,,,,,,*6F
###2023-11-09 13:06:19.546404$GNVTG,58.62,T,,M,1.21,N,2.23,K,A*1B
###2023-11-09 13:06:19.630488$GNGGA,130619.80,3611.0404309,N,07544.9808974,W,1,23,0.6,0.977,M,-39.961,M,0.0,*63
###2023-11-09 13:06:19.633085$GPGSV,2,1,07,05,21,089,40,10,17,292,43,13,25,045,42,15,62,036,46*72
###2023-11-09 13:06:19.635345$GPGSV,2,2,07,18,77,282,47,23,49,314,45,24,49,137,46,,,,*4B
###2023-11-09 13:06:19.637941$GLGSV,1,1,04,71,48,288,49,80,17,091,44,85,58,203,48,86,52,309,47*6F
###2023-11-09 13:06:19.640518$GAGSV,1,1,04,07,72,255,45,08,49,042,45,13,64,160,45,26,56,311,45*6C
###2023-11-09 13:06:19.643099$GBGSV,2,1,06,11,24,180,40,14,65,006,45,24,19,133,42,26,23,082,41*67
###2023-11-09 13:06:19.645034$GBGSV,2,2,06,28,43,289,47,33,58,302,47,,,,,,,,*6F
###2023-11-09 13:06:19.646463$GNVTG,59.06,T,,M,1.22,N,2.27,K,A*1F
###2023-11-09 13:06:19.734126$GNGGA,130619.90,3611.0404469,N,07544.9808628,W,1,23,0.6,0.970,M,-39.961,M,0.0,*62
###2023-11-09 13:06:19.736736$GPGSV,2,1,07,05,21,089,41,10,17,292,43,13,25,045,42,15,62,036,46*73
###2023-11-09 13:06:19.739023$GPGSV,2,2,07,18,77,282,47,23,49,314,45,24,49,137,46,,,,*4B
###2023-11-09 13:06:19.741602$GLGSV,1,1,04,71,48,288,49,80,17,091,44,85,58,203,48,86,52,309,47*6F
###2023-11-09 13:06:19.744179$GAGSV,1,1,04,07,72,255,45,08,49,042,45,13,64,160,45,26,56,311,45*6C
###2023-11-09 13:06:19.746762$GBGSV,2,1,06,11,24,180,40,14,65,006,45,24,19,133,41,26,23,082,42*67
###2023-11-09 13:06:19.748714$GBGSV,2,2,06,28,43,289,47,33,58,302,47,,,,,,,,*6F
###2023-11-09 13:06:19.750144$GNVTG,63.90,T,,M,1.11,N,2.05,K,A*19
###2023-11-09 13:06:19.831475$GNGGA,130620.00,3611.0404597,N,07544.9808290,W,1,23,0.6,0.971,M,-39.961,M,0.0,*67
###2023-11-09 13:06:19.834051$GPGSV,2,1,07,05,21,089,41,10,17,292,43,13,25,045,42,15,62,036,46*73
###2023-11-09 13:06:19.836306$GPGSV,2,2,07,18,77,282,47,23,49,314,45,24,49,137,46,,,,*4B
###2023-11-09 13:06:19.838901$GLGSV,1,1,04,71,48,288,49,80,17,091,43,85,58,203,48,86,52,309,47*68
###2023-11-09 13:06:19.841477$GAGSV,1,1,04,07,72,255,45,08,49,042,45,13,64,160,45,26,56,311,45*6C
###2023-11-09 13:06:19.844048$GBGSV,2,1,06,11,24,180,40,14,65,006,46,24,19,133,41,26,23,082,43*65
###2023-11-09 13:06:19.845985$GBGSV,2,2,06,28,43,289,47,33,58,302,47,,,,,,,,*6F
###2023-11-09 13:06:19.847426$GNVTG,67.00,T,,M,1.07,N,1.98,K,A*14
###2023-11-09 13:06:19.944498$GNGGA,130620.10,3611.0404715,N,07544.9807956,W,1,23,0.6,0.975,M,-39.961,M,0.0,*64
###2023-11-09 13:06:19.947114$GPGSV,2,1,07,05,21,090,41,10,17,292,43,13,25,045,42,15,62,036,46*7B
###2023-11-09 13:06:19.949375$GPGSV,2,2,07,18,77,282,47,23,49,314,45,24,49,137,45,,,,*48
###2023-11-09 13:06:19.951958$GLGSV,1,1,04,71,48,288,49,80,17,091,43,85,58,203,48,86,52,309,47*68
###2023-11-09 13:06:19.954549$GAGSV,1,1,04,07,72,255,45,08,49,042,45,13,64,160,44,26,56,311,45*6D
###2023-11-09 13:06:19.957164$GBGSV,2,1,06,11,24,180,40,14,65,006,46,24,19,133,41,26,23,082,43*65
###2023-11-09 13:06:19.959104$GBGSV,2,2,06,28,43,289,47,33,58,302,47,,,,,,,,*6F
###2023-11-09 13:06:19.960534$GNVTG,67.75,T,,M,1.05,N,1.94,K,A*18
###2023-11-09 13:06:20.032511$GNGGA,130620.20,3611.0404817,N,07544.9807644,W,1,23,0.6,0.982,M,-39.961,M,0.0,*6E
###2023-11-09 13:06:20.035122$GPGSV,2,1,07,05,21,090,41,10,17,292,43,13,25,045,42,15,62,036,46*7B
###2023-11-09 13:06:20.037713$GPGSV,2,2,07,18,77,282,47,23,49,314,45,24,49,137,45,,,,*48
###2023-11-09 13:06:20.040303$GLGSV,1,1,04,71,48,288,49,80,17,091,43,85,58,203,48,86,52,309,48*67
###2023-11-09 13:06:20.042896$GAGSV,1,1,04,07,72,255,45,08,49,042,44,13,64,160,45,26,56,311,45*6D
###2023-11-09 13:06:20.045473$GBGSV,2,1,06,11,24,180,40,14,65,006,46,24,19,133,41,26,23,082,43*65
###2023-11-09 13:06:20.047439$GBGSV,2,2,06,28,43,289,47,33,58,302,48,,,,,,,,*60
###2023-11-09 13:06:20.048873$GNVTG,67.75,T,,M,0.91,N,1.69,K,A*16
###2023-11-09 13:06:20.134736$GNGGA,130620.30,3611.0404905,N,07544.9807358,W,1,24,0.6,0.993,M,-39.961,M,0.0,*62
###2023-11-09 13:06:20.137342$GPGSV,2,1,07,05,21,090,41,10,17,292,43,13,25,045,42,15,62,036,46*7B
###2023-11-09 13:06:20.139591$GPGSV,2,2,07,18,77,282,47,23,49,314,45,24,49,137,45,,,,*48
###2023-11-09 13:06:20.142154$GLGSV,2,1,05,70,50,016,35,71,48,288,49,80,17,091,43,85,58,203,48*69
###2023-11-09 13:06:20.143772$GLGSV,2,2,05,86,52,309,48,,,,,,,,,,,,*5F
