###2023-11-09 13:10:50.939394$GLGSV,2,1,05,70,49,019,36,71,48,291,48,80,19,089,46,85,56,202,48*69
###2023-11-09 13:10:50.941028$GLGSV,2,2,05,86,54,306,48,,,,,,,,,,,,*56
###2023-11-09 13:10:50.943602$GAGSV,1,1,04,07,73,261,44,08,47,043,46,13,62,161,44,26,57,310,45*61
###2023-11-09 13:10:50.946191$GBGSV,2,1,06,11,22,180,39,14,65,009,45,24,21,132,44,26,23,080,45*6A
###2023-11-09 13:10:50.948142$GBGSV,2,2,06,28,43,286,46,33,59,305,47,,,,,,,,*67
###2023-11-09 13:10:50.949610$GNVTG,311.60,T,,M,3.71,N,6.88,K,A*25
###2023-11-09 13:10:51.033611$GNGGA,131051.20,3611.0755552,N,07544.8944839,W,1,24,0.6,0.230,M,-39.960,M,0.0,*63
###2023-11-09 13:10:51.036200$GPGSV,2,1,07,05,20,091,44,10,19,294,42,13,23,045,44,15,60,038,47*7A
###2023-11-09 13:10:51.038474$GPGSV,2,2,07,18,78,272,46,23,51,317,46,24,51,133,46,,,,*4E
###2023-11-09 13:10:51.041031$GLGSV,2,1,05,70,49,019,36,71,48,291,48,80,19,089,46,85,56,202,48*69
###2023-11-09 13:10:51.042633$GLGSV,2,2,05,86,54,306,48,,,,,,,,,,,,*56
###2023-11-09 13:10:51.045188$GAGSV,1,1,04,07,73,261,44,08,47,043,46,13,62,161,44,26,57,310,45*61
###2023-11-09 13:10:51.047767$GBGSV,2,1,06,11,22,180,39,14,65,009,45,24,21,132,44,26,23,080,45*6A
###2023-11-09 13:10:51.049698$GBGSV,2,2,06,28,43,286,46,33,59,305,47,,,,,,,,*67
###2023-11-09 13:10:51.051158$GNVTG,306.04,T,,M,3.62,N,6.70,K,A*24
###2023-11-09 13:10:51.131613$GNGGA,131051.30,3611.0756122,N,07544.8945848,W,1,24,0.6,0.244,M,-39.960,M,0.0,*66
###2023-11-09 13:10:51.134210$GPGSV,2,1,07,05,20,091,44,10,19,294,42,13,23,045,44,15,60,038,47*7A
###2023-11-09 13:10:51.136469$GPGSV,2,2,07,18,78,272,46,23,51,317,46,24,51,133,46,,,,*4E
###2023-11-09 13:10:51.139059$GLGSV,2,1,05,70,49,019,36,71,48,291,48,80,19,089,46,85,56,202,48*69
###2023-11-09 13:10:51.140666$GLGSV,2,2,05,86,54,306,48,,,,,,,,,,,,*56
###2023-11-09 13:10:51.143229$GAGSV,1,1,04,07,73,261,45,08,47,043,45,13,62,161,44,26,57,310,45*63
###2023-11-09 13:10:51.145803$GBGSV,2,1,06,11,22,180,40,14,65,009,45,24,21,132,44,26,23,080,45*64
###2023-11-09 13:10:51.147757$GBGSV,2,2,06,28,43,286,47,33,59,305,47,,,,,,,,*66
###2023-11-09 13:10:51.149223$GNVTG,304.14,T,,M,3.56,N,6.59,K,A*2B
###2023-11-09 13:10:51.231600$GNGGA,131051.40,3611.0756690,N,07544.8946868,W,1,24,0.6,0.259,M,-39.960,M,0.0,*62
###2023-11-09 13:10:51.234193$GPGSV,2,1,07,05,20,091,43,10,19,294,42,13,23,045,43,15,60,038,46*7B
###2023-11-09 13:10:51.236445$GPGSV,2,2,07,18,78,272,46,23,51,317,46,24,51,133,46,,,,*4E
###2023-11-09 13:10:51.239036$GLGSV,2,1,05,70,49,019,36,71,48,291,48,80,19,089,45,85,56,202,48*6A
###2023-11-09 13:10:51.240646$GLGSV,2,2,05,86,54,306,48,,,,,,,,,,,,*56
###2023-11-09 13:10:51.243205$GAGSV,1,1,04,07,73,261,45,08,47,043,45,13,62,161,45,26,57,310,45*62
###2023-11-09 13:10:51.245784$GBGSV,2,1,06,11,22,180,42,14,65,009,45,24,21,132,44,26,23,080,44*67
###2023-11-09 13:10:51.247732$GBGSV,2,2,06,28,43,286,47,33,59,305,47,,,,,,,,*66
###2023-11-09 13:10:51.249187$GNVTG,305.33,T,,M,3.67,N,6.80,K,A*29
###2023-11-09 13:10:51.331708$GNGGA,131051.50,3611.0757289,N,07544.8947916,W,1,24,0.6,0.274,M,-39.960,M,0.0,*68
###2023-11-09 13:10:51.334276$GPGSV,2,1,07,05,20,091,43,10,19,294,42,13,23,045,42,15,60,038,46*7A
###2023-11-09 13:10:51.336511$GPGSV,2,2,07,18,78,272,46,23,51,317,45,24,51,133,46,,,,*4D
###2023-11-09 13:10:51.339085$GLGSV,2,1,05,70,49,019,36,71,48,291,48,80,19,089,45,85,56,202,48*6A
###2023-11-09 13:10:51.340682$GLGSV,2,2,05,86,54,306,48,,,,,,,,,,,,*56
###2023-11-09 13:10:51.343222$GAGSV,1,1,04,07,73,261,45,08,47,043,45,13,62,161,46,26,57,310,44*60
###2023-11-09 13:10:51.345775$GBGSV,2,1,06,11,22,180,42,14,65,009,45,24,21,132,45,26,23,080,44*66
###2023-11-09 13:10:51.347706$GBGSV,2,2,06,28,43,286,47,33,59,305,47,,,,,,,,*66
###2023-11-09 13:10:51.349164$GNVTG,305.51,T,,M,3.81,N,7.06,K,A*2A
###2023-11-09 13:10:51.431626$GNGGA,131051.60,3611.0757921,N,07544.8949012,W,1,24,0.6,0.291,M,-39.960,M,0.0,*6A
###2023-11-09 13:10:51.434233$GPGSV,2,1,07,05,20,091,43,10,19,294,42,13,23,045,42,15,60,038,46*7A
###2023-11-09 13:10:51.436484$GPGSV,2,2,07,18,78,272,46,23,51,317,45,24,51,133,46,,,,*4D
###2023-11-09 13:10:51.439076$GLGSV,2,1,05,70,49,019,36,71,48,291,48,80,19,089,45,85,56,202,48*6A
###2023-11-09 13:10:51.440679$GLGSV,2,2,05,86,54,306,48,,,,,,,,,,,,*56
###2023-11-09 13:10:51.443235$GAGSV,1,1,04,07,73,261,45,08,47,043,44,13,62,161,46,26,57,310,44*61
###2023-11-09 13:10:51.445801$GBGSV,2,1,06,11,22,180,43,14,65,009,45,24,21,132,45,26,23,080,43*60
###2023-11-09 13:10:51.447734$GBGSV,2,2,06,28,43,286,46,33,59,305,47,,,,,,,,*67
###2023-11-09 13:10:51.449196$GNVTG,305.76,T,,M,4.04,N,7.49,K,A*2E
###2023-11-09 13:10:51.531748$GNGGA,131051.70,3611.0758573,N,07544.8950152,W,1,24,0.6,0.305,M,-39.960,M,0.0,*6E
###2023-11-09 13:10:51.534358$GPGSV,2,1,07,05,20,091,43,10,19,294,42,13,23,045,42,15,60,038,46*7A
###2023-11-09 13:10:51.536606$GPGSV,2,2,07,18,78,272,46,23,51,317,45,24,51,133,46,,,,*4D
###2023-11-09 13:10:51.539218$GLGSV,2,1,05,70,49,019,36,71,48,291,48,80,19,089,45,85,56,202,48*6A
###2023-11-09 13:10:51.540830$GLGSV,2,2,05,86,54,306,48,,,,,,,,,,,,*56
###2023-11-09 13:10:51.543409$GAGSV,1,1,04,07,73,261,45,08,47,043,44,13,62,161,46,26,57,310,44*61
###2023-11-09 13:10:51.545986$GBGSV,2,1,06,11,22,180,43,14,65,009,45,24,21,132,45,26,23,080,43*60
###2023-11-09 13:10:51.547936$GBGSV,2,2,06,28,43,286,46,33,59,305,47,,,,,,,,*67
###2023-11-09 13:10:51.549404$GNVTG,305.11,T,,M,4.10,N,7.60,K,A*21
###2023-11-09 13:10:51.631720$GNGGA,131051.80,3611.0759213,N,07544.8951327,W,1,24,0.6,0.323,M,-39.960,M,0.0,*64
###2023-11-09 13:10:51.634299$GPGSV,2,1,07,05,20,091,44,10,19,294,42,13,23,045,43,15,60,038,46*7C
###2023-11-09 13:10:51.636543$GPGSV,2,2,07,18,78,272,46,23,51,317,45,24,51,133,46,,,,*4D
###2023-11-09 13:10:51.639113$GLGSV,2,1,05,70,49,019,36,71,48,291,48,80,19,089,46,85,56,202,48*69
###2023-11-09 13:10:51.640714$GLGSV,2,2,05,86,54,306,48,,,,,,,,,,,,*56
###2023-11-09 13:10:51.643264$GAGSV,1,1,04,07,73,261,45,08,47,043,44,13,62,161,46,26,57,310,44*61
###2023-11-09 13:10:51.645820$GBGSV,2,1,06,11,22,180,42,14,65,009,45,24,21,132,45,26,23,080,44*66
###2023-11-09 13:10:51.647758$GBGSV,2,2,06,28,43,286,46,33,59,305,47,,,,,,,,*67
###2023-11-09 13:10:51.649208$GNVTG,303.11,T,,M,4.18,N,7.74,K,A*2A
###2023-11-09 13:10:51.730744$GNGGA,131051.90,3611.0759837,N,07544.8952573,W,1,24,0.6,0.343,M,-39.960,M,0.0,*6B
###2023-11-09 13:10:51.733366$GPGSV,2,1,07,05,20,091,44,10,19,294,42,13,23,045,43,15,60,038,46*7C
###2023-11-09 13:10:51.735643$GPGSV,2,2,07,18,78,272,46,23,51,317,46,24,51,133,46,,,,*4E
###2023-11-09 13:10:51.738275$GLGSV,2,1,05,70,49,019,36,71,48,291,49,80,19,089,46,85,56,202,48*68
###2023-11-09 13:10:51.739894$GLGSV,2,2,05,86,54,306,48,,,,,,,,,,,,*56
###2023-11-09 13:10:51.742472$GAGSV,1,1,04,07,73,261,45,08,47,043,44,13,62,161,45,26,57,310,45*63
###2023-11-09 13:10:51.745046$GBGSV,2,1,06,11,22,180,40,14,65,009,45,24,21,132,44,26,23,080,45*64
###2023-11-09 13:10:51.747008$GBGSV,2,2,06,28,43,286,46,33,59,305,47,,,,,,,,*67
###2023-11-09 13:10:51.748478$GNVTG,300.85,T,,M,4.37,N,8.10,K,A*24
###2023-11-09 13:10:51.833607$GNGGA,131052.00,3611.0760437,N,07544.8953888,W,1,24,0.6,0.366,M,-39.960,M,0.0,*68
###2023-11-09 13:10:51.836192$GPGSV,2,1,07,05,20,091,43,10,19,294,42,13,23,045,44,15,60,038,47*7D
###2023-11-09 13:10:51.838471$GPGSV,2,2,07,18,78,272,46,23,51,317,46,24,51,133,46,,,,*4E
###2023-11-09 13:10:51.841046$GLGSV,2,1,05,70,49,019,36,71,48,291,49,80,19,089,46,85,56,202,48*68
###2023-11-09 13:10:51.842657$GLGSV,2,2,05,86,54,306,48,,,,,,,,,,,,*56
###2023-11-09 13:10:51.845238$GAGSV,1,1,04,07,73,261,45,08,47,043,45,13,62,161,44,26,57,310,45*63
###2023-11-09 13:10:51.847833$GBGSV,2,1,06,11,22,180,40,14,65,009,45,24,21,132,44,26,23,080,45*64
###2023-11-09 13:10:51.849780$GBGSV,2,2,06,28,43,286,46,33,59,305,47,,,,,,,,*67
###2023-11-09 13:10:51.851248$GNVTG,298.32,T,,M,4.45,N,8.24,K,A*2A
###2023-11-09 13:10:51.933730$GNGGA,131052.10,3611.0760973,N,07544.8955261,W,1,24,0.6,0.382,M,-39.960,M,0.0,*65
###2023-11-09 13:10:51.936311$GPGSV,2,1,07,05,20,091,43,10,19,294,43,13,23,045,44,15,60,038,47*7C
###2023-11-09 13:10:51.938579$GPGSV,2,2,07,18,78,272,46,23,51,317,46,24,51,133,45,,,,*4D
###2023-11-09 13:10:51.941445$GLGSV,2,1,05,70,49,019,36,71,48,291,49,80,19,089,46,85,56,202,47*67
###2023-11-09 13:10:51.943055$GLGSV,2,2,05,86,54,306,48,,,,,,,,,,,,*56
###2023-11-09 13:10:51.945616$GAGSV,1,1,04,07,73,261,45,08,47,043,45,13,62,161,44,26,57,310,45*63
###2023-11-09 13:10:51.948199$GBGSV,2,1,06,11,22,180,40,14,65,009,45,24,21,132,43,26,23,080,45*63
###2023-11-09 13:10:51.950145$GBGSV,2,2,06,28,43,286,46,33,59,305,47,,,,,,,,*67
###2023-11-09 13:10:51.951602$GNVTG,293.57,T,,M,4.43,N,8.21,K,A*21
###2023-11-09 13:10:52.033629$GNGGA,131052.20,3611.0761400,N,07544.8956686,W,1,24,0.6,0.393,M,-39.960,M,0.0,*60
###2023-11-09 13:10:52.036242$GPGSV,2,1,07,05,20,091,43,10,19,294,43,13,23,045,44,15,60,038,47*7C
###2023-11-09 13:10:52.038514$GPGSV,2,2,07,18,78,272,46,23,51,317,46,24,51,133,45,,,,*4D
###2023-11-09 13:10:52.041091$GLGSV,2,1,05,70,49,019,36,71,48,291,49,80,19,089,46,85,56,202,47*67
