###2023-11-09 13:07:47.147434$GBGSV,2,2,06,28,43,287,47,33,58,302,48,,,,,,,,*6E
###2023-11-09 13:07:47.148920$GNVTG,172.58,T,,M,3.89,N,7.20,K,A*2D
###2023-11-09 13:07:47.231684$GNGGA,130747.40,3611.0502784,N,07544.9678552,W,1,24,0.6,0.779,M,-39.961,M,0.0,*65
###2023-11-09 13:07:47.234292$GPGSV,2,1,07,05,21,090,41,10,18,292,45,13,24,045,42,15,62,037,46*72
###2023-11-09 13:07:47.236566$GPGSV,2,2,07,18,77,281,46,23,50,315,46,24,49,136,45,,,,*41
###2023-11-09 13:07:47.239200$GLGSV,2,1,05,70,50,016,36,71,48,288,49,80,17,091,43,85,58,203,48*6A
###2023-11-09 13:07:47.240823$GLGSV,2,2,05,86,52,309,48,,,,,,,,,,,,*5F
###2023-11-09 13:07:47.243398$GAGSV,1,1,04,07,72,257,45,08,49,042,44,13,64,160,44,26,56,310,45*6F
###2023-11-09 13:07:47.245981$GBGSV,2,1,06,11,23,180,38,14,65,008,46,24,20,132,42,26,23,081,42*69
###2023-11-09 13:07:47.247937$GBGSV,2,2,06,28,43,287,47,33,58,302,48,,,,,,,,*6E
###2023-11-09 13:07:47.249411$GNVTG,174.11,T,,M,3.81,N,7.06,K,A*2A
###2023-11-09 13:07:47.331277$GNGGA,130747.50,3611.0501762,N,07544.9678460,W,1,24,0.6,0.756,M,-39.961,M,0.0,*62
###2023-11-09 13:07:47.333870$GPGSV,2,1,07,05,21,090,40,10,18,292,45,13,24,045,41,15,62,037,45*73
###2023-11-09 13:07:47.336131$GPGSV,2,2,07,18,77,281,46,23,50,315,46,24,49,136,45,,,,*41
###2023-11-09 13:07:47.338714$GLGSV,2,1,05,70,50,016,36,71,48,288,49,80,17,091,41,85,58,203,48*68
###2023-11-09 13:07:47.340325$GLGSV,2,2,05,86,52,309,49,,,,,,,,,,,,*5E
###2023-11-09 13:07:47.342893$GAGSV,1,1,04,07,72,257,45,08,49,042,44,13,64,160,44,26,56,310,45*6F
###2023-11-09 13:07:47.345477$GBGSV,2,1,06,11,23,180,38,14,65,008,46,24,20,132,41,26,23,081,42*6A
###2023-11-09 13:07:47.347426$GBGSV,2,2,06,28,43,287,48,33,58,302,48,,,,,,,,*61
###2023-11-09 13:07:47.348883$GNVTG,177.06,T,,M,3.58,N,6.62,K,A*28
###2023-11-09 13:07:47.430842$GNGGA,130747.60,3611.0500793,N,07544.9678377,W,1,24,0.6,0.744,M,-39.961,M,0.0,*6C
###2023-11-09 13:07:47.433416$GPGSV,2,1,07,05,21,090,40,10,18,292,46,13,24,045,41,15,62,037,45*70
###2023-11-09 13:07:47.435666$GPGSV,2,2,07,18,77,281,46,23,50,315,47,24,49,136,45,,,,*40
###2023-11-09 13:07:47.438263$GLGSV,2,1,05,70,50,016,36,71,48,288,50,80,17,091,41,85,58,203,48*60
###2023-11-09 13:07:47.439862$GLGSV,2,2,05,86,52,309,49,,,,,,,,,,,,*5E
###2023-11-09 13:07:47.442406$GAGSV,1,1,04,07,72,257,45,08,49,042,44,13,64,160,44,26,56,310,46*6C
###2023-11-09 13:07:47.444967$GBGSV,2,1,06,11,23,180,38,14,65,008,46,24,20,132,41,26,23,081,42*6A
###2023-11-09 13:07:47.446898$GBGSV,2,2,06,28,43,287,48,33,58,302,48,,,,,,,,*61
###2023-11-09 13:07:47.448364$GNVTG,174.42,T,,M,3.42,N,6.34,K,A*23
###2023-11-09 13:07:47.529857$GNGGA,130747.70,3611.0499859,N,07544.9678231,W,1,24,0.6,0.744,M,-39.961,M,0.0,*66
###2023-11-09 13:07:47.532455$GPGSV,2,1,07,05,21,090,40,10,18,292,46,13,24,045,41,15,62,037,45*70
###2023-11-09 13:07:47.534724$GPGSV,2,2,07,18,77,281,46,23,50,315,47,24,49,136,45,,,,*40
###2023-11-09 13:07:47.537330$GLGSV,2,1,05,70,50,016,36,71,48,288,49,80,17,091,41,85,58,203,48*68
###2023-11-09 13:07:47.538947$GLGSV,2,2,05,86,52,309,49,,,,,,,,,,,,*5E
###2023-11-09 13:07:47.541521$GAGSV,1,1,04,07,72,257,45,08,49,042,44,13,64,160,44,26,56,310,46*6C
###2023-11-09 13:07:47.544106$GBGSV,2,1,06,11,23,180,38,14,65,008,46,24,20,132,41,26,23,081,42*6A
###2023-11-09 13:07:47.546047$GBGSV,2,2,06,28,43,287,48,33,58,302,48,,,,,,,,*61
###2023-11-09 13:07:47.547539$GNVTG,170.73,T,,M,3.36,N,6.23,K,A*20
###2023-11-09 13:07:47.631364$GNGGA,130747.80,3611.0498941,N,07544.9678032,W,1,24,0.6,0.755,M,-39.961,M,0.0,*61
###2023-11-09 13:07:47.633963$GPGSV,2,1,07,05,21,090,40,10,18,292,45,13,24,045,41,15,62,037,45*73
###2023-11-09 13:07:47.636227$GPGSV,2,2,07,18,77,281,46,23,50,315,47,24,49,136,45,,,,*40
###2023-11-09 13:07:47.638818$GLGSV,2,1,05,70,50,016,36,71,48,288,49,80,17,091,42,85,58,203,48*6B
###2023-11-09 13:07:47.640423$GLGSV,2,2,05,86,52,309,49,,,,,,,,,,,,*5E
###2023-11-09 13:07:47.643000$GAGSV,1,1,04,07,72,257,45,08,49,042,44,13,64,160,44,26,56,310,46*6C
###2023-11-09 13:07:47.645590$GBGSV,2,1,06,11,23,180,38,14,65,008,46,24,20,132,41,26,23,081,42*6A
###2023-11-09 13:07:47.647550$GBGSV,2,2,06,28,43,287,47,33,58,302,48,,,,,,,,*6E
###2023-11-09 13:07:47.649030$GNVTG,168.85,T,,M,3.36,N,6.23,K,A*20
###2023-11-09 13:07:47.731334$GNGGA,130747.90,3611.0497996,N,07544.9677816,W,1,24,0.6,0.766,M,-39.961,M,0.0,*64
###2023-11-09 13:07:47.733912$GPGSV,2,1,07,05,21,090,42,10,18,292,45,13,24,045,43,15,62,037,46*70
###2023-11-09 13:07:47.736162$GPGSV,2,2,07,18,77,281,46,23,50,315,47,24,49,136,45,,,,*40
###2023-11-09 13:07:47.738873$GLGSV,2,1,05,70,50,016,36,71,48,288,49,80,17,091,44,85,58,203,48*6D
###2023-11-09 13:07:47.740499$GLGSV,2,2,05,86,52,309,48,,,,,,,,,,,,*5F
###2023-11-09 13:07:47.743070$GAGSV,1,1,04,07,72,257,45,08,49,042,44,13,64,160,44,26,56,310,46*6C
###2023-11-09 13:07:47.745647$GBGSV,2,1,06,11,23,180,38,14,65,008,46,24,20,132,43,26,23,081,44*6E
###2023-11-09 13:07:47.747595$GBGSV,2,2,06,28,43,287,47,33,58,302,48,,,,,,,,*6E
###2023-11-09 13:07:47.749053$GNVTG,169.63,T,,M,3.58,N,6.62,K,A*24
###2023-11-09 13:07:47.831248$GNGGA,130748.00,3611.0497034,N,07544.9677672,W,1,24,0.6,0.757,M,-39.961,M,0.0,*6D
###2023-11-09 13:07:47.833843$GPGSV,2,1,07,05,21,090,43,10,18,292,44,13,24,045,43,15,62,037,46*70
###2023-11-09 13:07:47.836100$GPGSV,2,2,07,18,77,281,46,23,50,315,46,24,49,136,46,,,,*42
###2023-11-09 13:07:47.838712$GLGSV,2,1,05,70,50,016,36,71,48,288,48,80,17,091,45,85,58,203,48*6D
###2023-11-09 13:07:47.840316$GLGSV,2,2,05,86,52,309,48,,,,,,,,,,,,*5F
###2023-11-09 13:07:47.842886$GAGSV,1,1,04,07,72,257,45,08,49,042,44,13,64,160,44,26,56,310,45*6F
###2023-11-09 13:07:47.845477$GBGSV,2,1,06,11,23,180,40,14,65,008,46,24,20,132,44,26,23,081,44*66
###2023-11-09 13:07:47.847439$GBGSV,2,2,06,28,43,287,47,33,58,302,48,,,,,,,,*6E
###2023-11-09 13:07:47.848898$GNVTG,175.90,T,,M,3.42,N,6.34,K,A*2D
###2023-11-09 13:07:47.939008$GNGGA,130748.10,3611.0496130,N,07544.9677720,W,1,24,0.6,0.735,M,-39.961,M,0.0,*6A
###2023-11-09 13:07:47.941601$GPGSV,2,1,07,05,21,090,43,10,18,292,43,13,24,045,44,15,62,037,46*70
###2023-11-09 13:07:47.943854$GPGSV,2,2,07,18,77,281,46,23,50,315,46,24,49,136,46,,,,*42
###2023-11-09 13:07:47.946420$GLGSV,2,1,05,70,50,016,36,71,48,288,48,80,17,091,45,85,58,203,48*6D
###2023-11-09 13:07:47.948046$GLGSV,2,2,05,86,52,309,47,,,,,,,,,,,,*50
###2023-11-09 13:07:47.950617$GAGSV,1,1,04,07,72,257,45,08,49,042,45,13,64,160,44,26,56,310,45*6E
###2023-11-09 13:07:47.953205$GBGSV,2,1,06,11,23,180,40,14,65,008,46,24,20,132,44,26,23,081,44*66
###2023-11-09 13:07:47.955137$GBGSV,2,2,06,28,43,287,47,33,59,304,48,,,,,,,,*69
###2023-11-09 13:07:47.956593$GNVTG,188.61,T,,M,3.15,N,5.83,K,A*2C
###2023-11-09 13:07:48.032356$GNGGA,130748.20,3611.0495305,N,07544.9677979,W,1,24,0.6,0.711,M,-39.961,M,0.0,*6A
###2023-11-09 13:07:48.034927$GPGSV,2,1,07,05,21,090,43,10,18,292,43,13,24,045,43,15,62,037,46*77
###2023-11-09 13:07:48.037192$GPGSV,2,2,07,18,77,281,46,23,50,315,46,24,49,136,46,,,,*42
###2023-11-09 13:07:48.039742$GLGSV,2,1,05,70,50,016,36,71,48,288,49,80,17,091,45,85,58,203,48*6C
###2023-11-09 13:07:48.041340$GLGSV,2,2,05,86,52,309,48,,,,,,,,,,,,*5F
###2023-11-09 13:07:48.043896$GAGSV,1,1,04,07,72,257,45,08,49,042,45,13,64,160,44,26,56,310,45*6E
###2023-11-09 13:07:48.046460$GBGSV,2,1,06,11,23,180,40,14,65,008,46,24,20,132,44,26,23,081,44*66
###2023-11-09 13:07:48.048394$GBGSV,2,2,06,28,43,287,47,33,59,304,47,,,,,,,,*66
###2023-11-09 13:07:48.049846$GNVTG,198.97,T,,M,3.01,N,5.58,K,A*27
###2023-11-09 13:07:48.130500$GNGGA,130748.30,3611.0494511,N,07544.9678313,W,1,24,0.6,0.694,M,-39.961,M,0.0,*6C
###2023-11-09 13:07:48.133100$GPGSV,2,1,07,05,21,090,42,10,18,292,45,13,24,045,42,15,62,037,46*71
###2023-11-09 13:07:48.135360$GPGSV,2,2,07,18,77,281,46,23,50,315,46,24,49,136,46,,,,*42
###2023-11-09 13:07:48.137946$GLGSV,2,1,05,70,50,016,36,71,48,288,49,80,17,091,43,85,58,203,48*6A
###2023-11-09 13:07:48.139548$GLGSV,2,2,05,86,52,309,49,,,,,,,,,,,,*5E
###2023-11-09 13:07:48.142117$GAGSV,1,1,04,07,72,257,45,08,49,042,44,13,64,160,44,26,56,310,46*6C
###2023-11-09 13:07:48.144699$GBGSV,2,1,06,11,23,180,38,14,65,008,46,24,20,132,42,26,23,081,42*69
###2023-11-09 13:07:48.146950$GBGSV,2,2,06,28,43,287,47,33,59,304,48,,,,,,,,*69
###2023-11-09 13:07:48.148430$GNVTG,198.48,T,,M,2.99,N,5.54,K,A*29
###2023-11-09 13:07:48.231601$GNGGA,130748.40,3611.0493708,N,07544.9678530,W,1,24,0.6,0.691,M,-39.961,M,0.0,*64
###2023-11-09 13:07:48.234187$GPGSV,2,1,07,05,21,090,41,10,18,292,46,13,24,045,41,15,62,037,45*71
###2023-11-09 13:07:48.236443$GPGSV,2,2,07,18,77,281,46,23,50,315,46,24,49,136,44,,,,*40
###2023-11-09 13:07:48.239043$GLGSV,2,1,05,70,50,016,36,71,48,288,49,80,17,091,42,85,58,203,48*6B
###2023-11-09 13:07:48.240666$GLGSV,2,2,05,86,52,309,49,,,,,,,,,,,,*5E
###2023-11-09 13:07:48.243248$GAGSV,1,1,04,07,72,257,45,08,49,042,44,13,64,160,44,26,56,310,46*6C
###2023-11-09 13:07:48.245817$GBGSV,2,1,06,11,23,180,38,14,65,008,46,24,20,132,41,26,23,081,42*6A
###2023-11-09 13:07:48.247767$GBGSV,2,2,06,28,43,287,47,33,59,304,48,,,,,,,,*69
