###2023-11-09 13:10:45.344832$GBGSV,2,2,06,28,43,286,47,33,59,305,47,,,,,,,,*66
###2023-11-09 13:10:45.346310$GNVTG,329.11,T,,M,3.21,N,5.94,K,A*23
###2023-11-09 13:10:45.428545$GNGGA,131045.60,3611.0703886,N,07544.8896328,W,1,24,0.6,0.461,M,-39.960,M,0.0,*62
###2023-11-09 13:10:45.431156$GPGSV,2,1,07,05,20,091,44,10,19,294,42,13,23,045,42,15,60,038,46*7D
###2023-11-09 13:10:45.433417$GPGSV,2,2,07,18,78,272,46,23,51,317,45,24,51,133,46,,,,*4D
###2023-11-09 13:10:45.435992$GLGSV,2,1,05,70,49,019,35,71,48,291,49,80,19,089,46,85,56,202,48*6B
###2023-11-09 13:10:45.437621$GLGSV,2,2,05,86,54,306,48,,,,,,,,,,,,*56
###2023-11-09 13:10:45.440204$GAGSV,1,1,04,07,73,259,45,08,48,043,45,13,63,161,45,26,57,310,45*67
###2023-11-09 13:10:45.442787$GBGSV,2,1,06,11,22,180,42,14,65,009,45,24,21,132,44,26,23,080,44*67
###2023-11-09 13:10:45.444732$GBGSV,2,2,06,28,43,286,47,33,59,305,47,,,,,,,,*66
###2023-11-09 13:10:45.446208$GNVTG,334.75,T,,M,3.38,N,6.26,K,A*2F
###2023-11-09 13:10:45.529627$GNGGA,131045.70,3611.0704735,N,07544.8896838,W,1,24,0.6,0.461,M,-39.960,M,0.0,*69
###2023-11-09 13:10:45.532225$GPGSV,2,1,07,05,20,091,44,10,19,294,42,13,23,045,42,15,60,038,46*7D
###2023-11-09 13:10:45.534470$GPGSV,2,2,07,18,78,272,46,23,51,317,45,24,51,133,46,,,,*4D
###2023-11-09 13:10:45.537053$GLGSV,2,1,05,70,49,019,35,71,48,291,48,80,19,089,46,85,56,202,48*6A
###2023-11-09 13:10:45.538656$GLGSV,2,2,05,86,54,306,48,,,,,,,,,,,,*56
###2023-11-09 13:10:45.541226$GAGSV,1,1,04,07,73,259,45,08,48,043,45,13,63,161,44,26,57,310,45*66
###2023-11-09 13:10:45.543808$GBGSV,2,1,06,11,22,180,42,14,65,009,45,24,21,132,44,26,23,080,45*66
###2023-11-09 13:10:45.545742$GBGSV,2,2,06,28,43,286,47,33,59,305,47,,,,,,,,*66
###2023-11-09 13:10:45.547217$GNVTG,333.35,T,,M,3.40,N,6.30,K,A*24
###2023-11-09 13:10:45.628483$GNGGA,131045.80,3611.0705557,N,07544.8897415,W,1,24,0.6,0.460,M,-39.960,M,0.0,*62
###2023-11-09 13:10:45.631061$GPGSV,2,1,07,05,20,091,45,10,19,294,42,13,23,045,43,15,60,038,46*7D
###2023-11-09 13:10:45.633285$GPGSV,2,2,07,18,78,272,46,23,51,317,45,24,51,133,46,,,,*4D
###2023-11-09 13:10:45.635846$GLGSV,2,1,05,70,49,019,35,71,48,291,48,80,19,089,46,85,56,202,48*6A
###2023-11-09 13:10:45.637462$GLGSV,2,2,05,86,54,306,48,,,,,,,,,,,,*56
###2023-11-09 13:10:45.640024$GAGSV,1,1,04,07,73,259,45,08,48,043,45,13,63,161,44,26,57,310,45*66
###2023-11-09 13:10:45.642579$GBGSV,2,1,06,11,22,180,41,14,65,009,45,24,21,132,44,26,23,080,45*65
###2023-11-09 13:10:45.644511$GBGSV,2,2,06,28,43,286,47,33,59,305,47,,,,,,,,*66
###2023-11-09 13:10:45.645969$GNVTG,327.15,T,,M,3.42,N,6.34,K,A*25
###2023-11-09 13:10:45.728509$GNGGA,131045.90,3611.0706343,N,07544.8898080,W,1,24,0.6,0.460,M,-39.960,M,0.0,*64
###2023-11-09 13:10:45.731111$GPGSV,2,1,07,05,20,091,45,10,19,294,41,13,23,045,43,15,60,038,46*7E
###2023-11-09 13:10:45.733375$GPGSV,2,2,07,18,78,272,46,23,51,317,45,24,51,133,46,,,,*4D
###2023-11-09 13:10:45.735963$GLGSV,2,1,05,70,49,019,35,71,48,291,48,80,19,089,46,85,56,202,47*65
###2023-11-09 13:10:45.737595$GLGSV,2,2,05,86,54,306,48,,,,,,,,,,,,*56
###2023-11-09 13:10:45.740181$GAGSV,1,1,04,07,73,259,45,08,48,043,45,13,63,161,44,26,57,310,45*66
###2023-11-09 13:10:45.742775$GBGSV,2,1,06,11,22,180,41,14,65,009,45,24,21,132,44,26,23,080,45*65
###2023-11-09 13:10:45.744709$GBGSV,2,2,06,28,43,286,47,33,59,305,48,,,,,,,,*69
###2023-11-09 13:10:45.746174$GNVTG,323.73,T,,M,3.44,N,6.37,K,A*24
###2023-11-09 13:10:45.833626$GNGGA,131046.00,3611.0707119,N,07544.8898789,W,1,24,0.6,0.468,M,-39.960,M,0.0,*64
###2023-11-09 13:10:45.836220$GPGSV,2,1,07,05,20,091,45,10,19,294,41,13,23,045,43,15,60,038,46*7E
###2023-11-09 13:10:45.838505$GPGSV,2,2,07,18,78,272,46,23,51,317,45,24,51,133,46,,,,*4D
###2023-11-09 13:10:45.841085$GLGSV,2,1,05,70,49,019,35,71,48,291,49,80,19,089,46,85,56,202,48*6B
###2023-11-09 13:10:45.842697$GLGSV,2,2,05,86,54,306,48,,,,,,,,,,,,*56
###2023-11-09 13:10:45.845276$GAGSV,1,1,04,07,73,259,45,08,48,043,45,13,63,161,44,26,57,310,45*66
###2023-11-09 13:10:45.847879$GBGSV,2,1,06,11,22,180,41,14,65,009,45,24,21,132,44,26,23,080,45*65
###2023-11-09 13:10:45.849823$GBGSV,2,2,06,28,43,286,47,33,59,305,48,,,,,,,,*69
###2023-11-09 13:10:45.851291$GNVTG,322.97,T,,M,3.52,N,6.52,K,A*2B
###2023-11-09 13:10:45.933114$GNGGA,131046.10,3611.0707916,N,07544.8899520,W,1,24,0.6,0.480,M,-39.960,M,0.0,*64
###2023-11-09 13:10:45.935690$GPGSV,2,1,07,05,20,091,44,10,19,294,41,13,23,045,43,15,60,038,46*7F
###2023-11-09 13:10:45.937957$GPGSV,2,2,07,18,78,272,46,23,51,317,45,24,51,133,46,,,,*4D
###2023-11-09 13:10:45.940519$GLGSV,2,1,05,70,49,019,35,71,48,291,49,80,19,089,46,85,56,202,48*6B
###2023-11-09 13:10:45.942120$GLGSV,2,2,05,86,54,306,48,,,,,,,,,,,,*56
###2023-11-09 13:10:45.944690$GAGSV,1,1,04,07,73,259,45,08,48,043,45,13,63,161,44,26,57,310,45*66
###2023-11-09 13:10:45.947276$GBGSV,2,1,06,11,22,180,42,14,65,009,45,24,21,132,44,26,23,080,45*66
###2023-11-09 13:10:45.949224$GBGSV,2,2,06,28,43,286,47,33,59,305,47,,,,,,,,*66
###2023-11-09 13:10:45.950686$GNVTG,323.69,T,,M,3.63,N,6.73,K,A*2A
###2023-11-09 13:10:46.032483$GNGGA,131046.20,3611.0708773,N,07544.8900221,W,1,24,0.6,0.498,M,-39.960,M,0.0,*6B
###2023-11-09 13:10:46.035079$GPGSV,2,1,07,05,20,091,44,10,19,294,43,13,23,045,42,15,60,038,46*7C
###2023-11-09 13:10:46.037369$GPGSV,2,2,07,18,78,272,46,23,51,317,46,24,51,133,46,,,,*4E
###2023-11-09 13:10:46.039949$GLGSV,2,1,05,70,49,019,35,71,48,291,49,80,19,089,45,85,56,202,48*68
###2023-11-09 13:10:46.041556$GLGSV,2,2,05,86,54,306,48,,,,,,,,,,,,*56
###2023-11-09 13:10:46.044114$GAGSV,1,1,04,07,73,259,45,08,48,043,45,13,63,161,44,26,57,310,45*66
###2023-11-09 13:10:46.046699$GBGSV,2,1,06,11,22,180,42,14,65,009,45,24,21,132,44,26,23,080,45*66
###2023-11-09 13:10:46.048643$GBGSV,2,2,06,28,43,286,47,33,59,305,47,,,,,,,,*66
###2023-11-09 13:10:46.050111$GNVTG,328.62,T,,M,3.79,N,7.02,K,A*26
###2023-11-09 13:10:46.129996$GNGGA,131046.30,3611.0709703,N,07544.8900918,W,1,24,0.6,0.510,M,-39.960,M,0.0,*6C
###2023-11-09 13:10:46.132601$GPGSV,2,1,07,05,20,091,43,10,19,294,43,13,23,045,42,15,60,038,46*7B
###2023-11-09 13:10:46.134843$GPGSV,2,2,07,18,78,272,46,23,51,317,46,24,51,133,46,,,,*4E
###2023-11-09 13:10:46.137438$GLGSV,2,1,05,70,49,019,35,71,48,291,48,80,19,089,45,85,56,202,48*69
###2023-11-09 13:10:46.139051$GLGSV,2,2,05,86,54,306,48,,,,,,,,,,,,*56
###2023-11-09 13:10:46.141616$GAGSV,1,1,04,07,73,259,45,08,48,043,45,13,63,161,44,26,57,310,45*66
###2023-11-09 13:10:46.144199$GBGSV,2,1,06,11,22,180,42,14,65,009,45,24,21,132,44,26,23,080,45*66
###2023-11-09 13:10:46.146131$GBGSV,2,2,06,28,43,286,47,33,59,305,47,,,,,,,,*66
###2023-11-09 13:10:46.147610$GNVTG,329.09,T,,M,4.00,N,7.42,K,A*27
###2023-11-09 13:10:46.229958$GNGGA,131046.40,3611.0710655,N,07544.8901641,W,1,24,0.6,0.520,M,-39.960,M,0.0,*60
###2023-11-09 13:10:46.232524$GPGSV,2,1,07,05,20,091,43,10,19,294,42,13,23,045,42,15,60,038,46*7A
###2023-11-09 13:10:46.234764$GPGSV,2,2,07,18,78,272,46,23,51,317,46,24,51,133,46,,,,*4E
###2023-11-09 13:10:46.237341$GLGSV,2,1,05,70,49,019,35,71,48,291,48,80,19,089,46,85,56,202,48*6A
###2023-11-09 13:10:46.238938$GLGSV,2,2,05,86,54,306,48,,,,,,,,,,,,*56
###2023-11-09 13:10:46.241486$GAGSV,1,1,04,07,73,259,45,08,48,043,45,13,63,161,44,26,57,310,45*66
###2023-11-09 13:10:46.244034$GBGSV,2,1,06,11,22,180,42,14,65,009,45,24,21,132,44,26,23,080,45*66
###2023-11-09 13:10:46.245951$GBGSV,2,2,06,28,43,286,47,33,59,305,48,,,,,,,,*69
###2023-11-09 13:10:46.247413$GNVTG,328.05,T,,M,4.00,N,7.42,K,A*2A
###2023-11-09 13:10:46.329020$GNGGA,131046.50,3611.0711603,N,07544.8902398,W,1,24,0.6,0.530,M,-39.960,M,0.0,*60
###2023-11-09 13:10:46.331629$GPGSV,2,1,07,05,20,091,43,10,19,294,42,13,23,045,42,15,60,038,46*7A
###2023-11-09 13:10:46.333877$GPGSV,2,2,07,18,78,272,46,23,51,317,46,24,51,133,46,,,,*4E
###2023-11-09 13:10:46.336445$GLGSV,2,1,05,70,49,019,35,71,48,291,48,80,19,089,46,85,56,202,48*6A
###2023-11-09 13:10:46.338064$GLGSV,2,2,05,86,54,306,48,,,,,,,,,,,,*56
###2023-11-09 13:10:46.340618$GAGSV,1,1,04,07,73,259,45,08,48,043,45,13,63,161,44,26,57,310,45*66
###2023-11-09 13:10:46.343182$GBGSV,2,1,06,11,22,180,42,14,65,009,46,24,21,132,44,26,23,080,45*65
###2023-11-09 13:10:46.345410$GBGSV,2,2,06,28,43,286,47,33,59,305,48,,,,,,,,*69
###2023-11-09 13:10:46.346888$GNVTG,326.61,T,,M,4.08,N,7.56,K,A*2B
###2023-11-09 13:10:46.429527$GNGGA,131046.60,3611.0712550,N,07544.8903213,W,1,24,0.6,0.546,M,-39.960,M,0.0,*67
###2023-11-09 13:10:46.432126$GPGSV,2,1,07,05,20,091,43,10,19,294,42,13,23,045,43,15,60,038,46*7B
###2023-11-09 13:10:46.434383$GPGSV,2,2,07,18,78,272,46,23,51,317,46,24,51,133,46,,,,*4E
###2023-11-09 13:10:46.436986$GLGSV,2,1,05,70,49,019,35,71,48,291,48,80,19,089,46,85,56,202,48*6A
###2023-11-09 13:10:46.438601$GLGSV,2,2,05,86,54,306,48,,,,,,,,,,,,*56
###2023-11-09 13:10:46.441186$GAGSV,1,1,04,07,73,259,45,08,48,043,45,13,63,161,44,26,57,310,45*66
###2023-11-09 13:10:46.443777$GBGSV,2,1,06,11,22,180,42,14,65,009,46,24,21,132,44,26,23,080,45*65
###2023-11-09 13:10:46.445725$GBGSV,2,2,06,28,43,286,47,33,59,305,48,,,,,,,,*69
