###2023-11-09 13:10:01.850798$GNVTG,71.80,T,,M,4.28,N,7.92,K,A*1F
###2023-11-09 13:10:01.933136$GNGGA,131002.10,3611.0497335,N,07544.8983571,W,1,24,0.6,0.518,M,-39.961,M,0.0,*6A
###2023-11-09 13:10:01.935755$GPGSV,2,1,07,05,20,090,42,10,19,293,44,13,24,045,42,15,61,037,45*71
###2023-11-09 13:10:01.938051$GPGSV,2,2,07,18,78,277,47,23,50,316,45,24,50,134,45,,,,*4C
###2023-11-09 13:10:01.940634$GLGSV,2,1,05,70,49,019,35,71,48,291,48,80,18,090,44,85,57,203,49*60
###2023-11-09 13:10:01.942249$GLGSV,2,2,05,86,53,308,47,,,,,,,,,,,,*50
###2023-11-09 13:10:01.944819$GAGSV,1,1,04,07,73,259,46,08,48,043,44,13,63,161,45,26,57,310,46*66
###2023-11-09 13:10:01.947427$GBGSV,2,1,06,11,22,180,42,14,65,009,45,24,21,132,44,26,23,080,43*60
###2023-11-09 13:10:01.949379$GBGSV,2,2,06,28,43,286,47,33,59,305,47,,,,,,,,*66
###2023-11-09 13:10:01.950834$GNVTG,70.85,T,,M,4.12,N,7.63,K,A*1C
###2023-11-09 13:10:02.033003$GNGGA,131002.20,3611.0497751,N,07544.8982283,W,1,24,0.6,0.565,M,-39.961,M,0.0,*6E
###2023-11-09 13:10:02.035603$GPGSV,2,1,07,05,20,090,42,10,19,293,43,13,24,045,40,15,61,037,45*74
###2023-11-09 13:10:02.037892$GPGSV,2,2,07,18,78,277,47,23,50,316,44,24,50,134,46,,,,*4E
###2023-11-09 13:10:02.040475$GLGSV,2,1,05,70,49,019,35,71,48,291,48,80,18,090,44,85,57,203,49*60
###2023-11-09 13:10:02.042085$GLGSV,2,2,05,86,53,308,47,,,,,,,,,,,,*50
###2023-11-09 13:10:02.044651$GAGSV,1,1,04,07,73,259,46,08,48,043,43,13,63,161,45,26,57,310,45*62
###2023-11-09 13:10:02.047252$GBGSV,2,1,06,11,22,180,43,14,65,009,45,24,21,132,44,26,23,080,43*61
###2023-11-09 13:10:02.049197$GBGSV,2,2,06,28,43,286,47,33,59,305,47,,,,,,,,*66
###2023-11-09 13:10:02.050636$GNVTG,65.48,T,,M,3.91,N,7.24,K,A*16
###2023-11-09 13:10:02.133613$GNGGA,131002.30,3611.0498275,N,07544.8981133,W,1,24,0.6,0.624,M,-39.961,M,0.0,*6E
###2023-11-09 13:10:02.136208$GPGSV,2,1,07,05,20,090,42,10,19,293,43,13,24,045,40,15,61,037,45*74
###2023-11-09 13:10:02.138470$GPGSV,2,2,07,18,78,277,47,23,50,316,44,24,50,134,46,,,,*4E
###2023-11-09 13:10:02.141043$GLGSV,2,1,05,70,49,019,35,71,48,291,47,80,18,090,44,85,57,203,49*6F
###2023-11-09 13:10:02.142643$GLGSV,2,2,05,86,53,308,46,,,,,,,,,,,,*51
###2023-11-09 13:10:02.145206$GAGSV,1,1,04,07,73,259,46,08,48,043,43,13,63,161,45,26,57,310,44*63
###2023-11-09 13:10:02.147788$GBGSV,2,1,06,11,22,180,43,14,65,009,44,24,21,132,44,26,23,080,43*60
###2023-11-09 13:10:02.149719$GBGSV,2,2,06,28,43,286,47,33,59,305,46,,,,,,,,*67
###2023-11-09 13:10:02.151157$GNVTG,55.56,T,,M,3.77,N,6.98,K,A*14
###2023-11-09 13:10:02.230000$GNGGA,131002.40,3611.0498935,N,07544.8980092,W,1,24,0.6,0.701,M,-39.961,M,0.0,*6B
###2023-11-09 13:10:02.232612$GPGSV,2,1,07,05,20,090,41,10,19,293,43,13,24,045,40,15,61,037,45*77
###2023-11-09 13:10:02.234875$GPGSV,2,2,07,18,78,277,47,23,50,316,44,24,50,134,46,,,,*4E
###2023-11-09 13:10:02.237472$GLGSV,2,1,05,70,49,019,35,71,48,291,48,80,18,090,43,85,57,203,49*67
###2023-11-09 13:10:02.239090$GLGSV,2,2,05,86,53,308,47,,,,,,,,,,,,*50
###2023-11-09 13:10:02.241661$GAGSV,1,1,04,07,73,259,46,08,48,043,43,13,63,161,45,26,57,310,44*63
###2023-11-09 13:10:02.244239$GBGSV,2,1,06,11,22,180,42,14,65,009,44,24,21,132,44,26,23,080,41*63
###2023-11-09 13:10:02.246176$GBGSV,2,2,06,28,43,286,47,33,59,305,47,,,,,,,,*66
###2023-11-09 13:10:02.247625$GNVTG,48.30,T,,M,3.91,N,7.24,K,A*16
###2023-11-09 13:10:02.331379$GNGGA,131002.50,3611.0499650,N,07544.8979104,W,1,24,0.6,0.781,M,-39.961,M,0.0,*67
###2023-11-09 13:10:02.333974$GPGSV,2,1,07,05,20,090,41,10,19,293,44,13,24,045,41,15,61,037,46*72
###2023-11-09 13:10:02.336236$GPGSV,2,2,07,18,78,277,47,23,50,316,45,24,50,134,45,,,,*4C
###2023-11-09 13:10:02.338823$GLGSV,2,1,05,70,49,019,35,71,48,291,48,80,18,090,43,85,57,203,48*66
###2023-11-09 13:10:02.340432$GLGSV,2,2,05,86,53,308,48,,,,,,,,,,,,*5F
###2023-11-09 13:10:02.343007$GAGSV,1,1,04,07,73,259,46,08,48,043,43,13,63,161,45,26,57,310,45*62
###2023-11-09 13:10:02.345597$GBGSV,2,1,06,11,22,180,41,14,65,009,44,24,21,132,42,26,23,080,41*66
###2023-11-09 13:10:02.347542$GBGSV,2,2,06,28,43,286,47,33,59,305,47,,,,,,,,*66
###2023-11-09 13:10:02.348971$GNVTG,47.83,T,,M,3.77,N,6.98,K,A*1F
###2023-11-09 13:10:02.433987$GNGGA,131002.60,3611.0500304,N,07544.8978109,W,1,24,0.6,0.838,M,-39.961,M,0.0,*60
###2023-11-09 13:10:02.436568$GPGSV,2,1,07,05,20,090,41,10,19,293,45,13,24,045,41,15,61,037,46*73
###2023-11-09 13:10:02.438865$GPGSV,2,2,07,18,78,277,47,23,50,316,46,24,50,134,45,,,,*4F
###2023-11-09 13:10:02.441428$GLGSV,2,1,05,70,49,019,35,71,48,291,48,80,18,090,43,85,57,203,48*66
###2023-11-09 13:10:02.443023$GLGSV,2,2,05,86,53,308,48,,,,,,,,,,,,*5F
###2023-11-09 13:10:02.445580$GAGSV,1,1,04,07,73,259,45,08,48,043,44,13,63,161,45,26,57,310,45*66
###2023-11-09 13:10:02.448152$GBGSV,2,1,06,11,22,180,38,14,65,009,45,24,21,132,41,26,23,080,41*6A
###2023-11-09 13:10:02.450077$GBGSV,2,2,06,28,43,286,47,33,59,305,47,,,,,,,,*66
###2023-11-09 13:10:02.451499$GNVTG,53.78,T,,M,3.67,N,6.80,K,A*16
###2023-11-09 13:10:02.530874$GNGGA,131002.70,3611.0500789,N,07544.8977022,W,1,24,0.6,0.867,M,-39.961,M,0.0,*6D
###2023-11-09 13:10:02.533481$GPGSV,2,1,07,05,20,090,41,10,19,293,45,13,24,045,41,15,61,037,46*73
###2023-11-09 13:10:02.535738$GPGSV,2,2,07,18,78,277,47,23,50,316,46,24,50,134,45,,,,*4F
###2023-11-09 13:10:02.538339$GLGSV,2,1,05,70,49,019,35,71,48,291,48,80,18,090,41,85,57,203,48*64
###2023-11-09 13:10:02.539957$GLGSV,2,2,05,86,53,308,48,,,,,,,,,,,,*5F
###2023-11-09 13:10:02.542533$GAGSV,1,1,04,07,73,259,46,08,48,043,44,13,63,161,45,26,57,310,45*65
###2023-11-09 13:10:02.545123$GBGSV,2,1,06,11,22,180,38,14,65,009,45,24,21,132,41,26,23,080,41*6A
###2023-11-09 13:10:02.547068$GBGSV,2,2,06,28,43,286,47,33,59,305,47,,,,,,,,*66
###2023-11-09 13:10:02.548507$GNVTG,68.54,T,,M,3.58,N,6.62,K,A*10
###2023-11-09 13:10:02.630485$GNGGA,131002.80,3611.0501050,N,07544.8975862,W,1,24,0.6,0.868,M,-39.961,M,0.0,*61
###2023-11-09 13:10:02.633079$GPGSV,2,1,07,05,20,090,41,10,19,293,45,13,24,045,41,15,61,037,46*73
###2023-11-09 13:10:02.635338$GPGSV,2,2,07,18,78,277,47,23,50,316,45,24,50,134,45,,,,*4C
###2023-11-09 13:10:02.637939$GLGSV,2,1,05,70,49,019,35,71,48,291,48,80,18,090,43,85,57,203,49*67
###2023-11-09 13:10:02.639553$GLGSV,2,2,05,86,53,308,47,,,,,,,,,,,,*50
###2023-11-09 13:10:02.642134$GAGSV,1,1,04,07,73,259,46,08,48,043,44,13,63,161,45,26,57,310,45*65
###2023-11-09 13:10:02.644726$GBGSV,2,1,06,11,22,180,40,14,65,009,45,24,21,132,42,26,23,080,41*66
###2023-11-09 13:10:02.646658$GBGSV,2,2,06,28,43,286,47,33,59,305,46,,,,,,,,*67
###2023-11-09 13:10:02.648105$GNVTG,80.37,T,,M,3.44,N,6.37,K,A*1E
###2023-11-09 13:10:02.730489$GNGGA,131002.90,3611.0501180,N,07544.8974708,W,1,24,0.6,0.845,M,-39.961,M,0.0,*61
###2023-11-09 13:10:02.733081$GPGSV,2,1,07,05,20,090,41,10,19,293,44,13,24,045,40,15,61,037,45*70
###2023-11-09 13:10:02.735322$GPGSV,2,2,07,18,78,277,47,23,50,316,45,24,50,134,46,,,,*4F
###2023-11-09 13:10:02.737894$GLGSV,2,1,05,70,49,019,35,71,48,291,48,80,18,090,44,85,57,203,49*60
###2023-11-09 13:10:02.739492$GLGSV,2,2,05,86,53,308,47,,,,,,,,,,,,*50
###2023-11-09 13:10:02.742044$GAGSV,1,1,04,07,73,259,46,08,48,043,43,13,63,161,45,26,57,310,44*63
###2023-11-09 13:10:02.744600$GBGSV,2,1,06,11,22,180,42,14,65,009,45,24,21,132,44,26,23,080,41*62
###2023-11-09 13:10:02.746518$GBGSV,2,2,06,28,43,286,45,33,59,305,46,,,,,,,,*65
###2023-11-09 13:10:02.747948$GNVTG,83.93,T,,M,3.32,N,6.16,K,A*11
###2023-11-09 13:10:02.832748$GNGGA,131003.00,3611.0501296,N,07544.8973609,W,1,24,0.6,0.818,M,-39.961,M,0.0,*62
###2023-11-09 13:10:02.835346$GPGSV,2,1,07,05,20,090,41,10,19,293,42,13,24,045,37,15,61,037,44*77
###2023-11-09 13:10:02.837617$GPGSV,2,2,07,18,78,277,46,23,50,316,44,24,50,134,46,,,,*4F
###2023-11-09 13:10:02.840218$GLGSV,2,1,05,70,49,019,35,71,48,291,47,80,18,090,44,85,57,203,50*67
###2023-11-09 13:10:02.841834$GLGSV,2,2,05,86,53,308,46,,,,,,,,,,,,*51
###2023-11-09 13:10:02.844402$GAGSV,1,1,04,07,73,259,45,08,48,043,42,13,63,161,45,26,57,310,44*61
###2023-11-09 13:10:02.847004$GBGSV,2,1,06,11,22,180,44,14,65,009,44,24,21,132,46,26,23,080,41*67
###2023-11-09 13:10:02.848951$GBGSV,2,2,06,28,43,286,45,33,59,305,46,,,,,,,,*65
###2023-11-09 13:10:02.850380$GNVTG,81.27,T,,M,3.11,N,5.76,K,A*18
###2023-11-09 13:10:02.931151$GNGGA,131003.10,3611.0501531,N,07544.8972614,W,1,23,0.6,0.832,M,-39.961,M,0.0,*6B
###2023-11-09 13:10:02.933754$GPGSV,2,1,07,05,20,090,42,10,19,293,42,13,24,045,37,15,61,037,44*74
###2023-11-09 13:10:02.936014$GPGSV,2,2,07,18,78,277,46,23,50,316,44,24,50,134,45,,,,*4C
###2023-11-09 13:10:02.938738$GLGSV,1,1,04,71,48,291,47,80,19,089,44,85,57,203,50,86,53,308,46*69
###2023-11-09 13:10:02.941328$GAGSV,1,1,04,07,73,259,44,08,48,043,42,13,63,161,46,26,57,310,44*63
###2023-11-09 13:10:02.943900$GBGSV,2,1,06,11,22,180,44,14,65,009,43,24,21,132,46,26,23,080,42*63
###2023-11-09 13:10:02.945839$GBGSV,2,2,06,28,43,286,45,33,59,305,46,,,,,,,,*65
###2023-11-09 13:10:02.947285$GNVTG,65.36,T,,M,2.94,N,5.44,K,A*1F
###2023-11-09 13:10:03.032755$GNGGA,131003.20,3611.0501966,N,07544.8971713,W,1,23,0.6,0.886,M,-39.961,M,0.0,*6C
