###2023-11-09 13:09:17.244258$GBGSV,2,1,06,11,23,180,43,14,65,008,45,24,20,132,45,26,23,081,43*60
###2023-11-09 13:09:17.246223$GBGSV,2,2,06,28,43,287,47,33,59,304,47,,,,,,,,*66
###2023-11-09 13:09:17.247692$GNVTG,46.28,T,,M,3.81,N,7.06,K,A*10
###2023-11-09 13:09:17.330613$GNGGA,130917.50,3611.0317775,N,07544.9553368,W,1,24,0.6,0.480,M,-39.962,M,0.0,*60
###2023-11-09 13:09:17.333221$GPGSV,2,1,07,05,20,090,42,10,19,293,44,13,24,045,42,15,61,037,45*71
###2023-11-09 13:09:17.335486$GPGSV,2,2,07,18,78,277,47,23,50,316,46,24,50,134,45,,,,*4F
###2023-11-09 13:09:17.338082$GLGSV,2,1,05,70,50,017,35,71,48,290,48,80,18,090,44,85,57,203,49*67
###2023-11-09 13:09:17.339708$GLGSV,2,2,05,86,53,308,49,,,,,,,,,,,,*5E
###2023-11-09 13:09:17.342302$GAGSV,1,1,04,07,73,259,45,08,48,043,44,13,63,161,45,26,57,310,45*66
###2023-11-09 13:09:17.344904$GBGSV,2,1,06,11,23,180,42,14,65,008,45,24,20,132,44,26,23,081,42*61
###2023-11-09 13:09:17.346849$GBGSV,2,2,06,28,43,287,48,33,59,304,48,,,,,,,,*66
###2023-11-09 13:09:17.348303$GNVTG,52.55,T,,M,3.85,N,7.13,K,A*1F
###2023-11-09 13:09:17.429756$GNGGA,130917.60,3611.0318357,N,07544.9552261,W,1,24,0.6,0.486,M,-39.962,M,0.0,*67
###2023-11-09 13:09:17.432346$GPGSV,2,1,07,05,20,090,42,10,19,293,44,13,24,045,42,15,61,037,45*71
###2023-11-09 13:09:17.434593$GPGSV,2,2,07,18,78,277,47,23,50,316,46,24,50,134,45,,,,*4F
###2023-11-09 13:09:17.437189$GLGSV,2,1,05,70,50,017,36,71,48,290,48,80,18,090,44,85,57,203,49*64
###2023-11-09 13:09:17.438794$GLGSV,2,2,05,86,53,308,49,,,,,,,,,,,,*5E
###2023-11-09 13:09:17.441360$GAGSV,1,1,04,07,73,259,46,08,48,043,44,13,63,161,45,26,57,310,46*66
###2023-11-09 13:09:17.443923$GBGSV,2,1,06,11,23,180,42,14,65,008,45,24,20,132,43,26,23,081,42*66
###2023-11-09 13:09:17.445857$GBGSV,2,2,06,28,43,287,48,33,59,304,48,,,,,,,,*66
###2023-11-09 13:09:17.447291$GNVTG,60.34,T,,M,3.89,N,7.20,K,A*15
###2023-11-09 13:09:17.530016$GNGGA,130917.70,3611.0318842,N,07544.9551080,W,1,24,0.6,0.488,M,-39.962,M,0.0,*69
###2023-11-09 13:09:17.532631$GPGSV,2,1,07,05,20,090,42,10,19,293,43,13,24,045,42,15,61,037,45*76
###2023-11-09 13:09:17.534898$GPGSV,2,2,07,18,78,277,47,23,50,316,46,24,50,134,45,,,,*4F
###2023-11-09 13:09:17.537500$GLGSV,2,1,05,70,50,017,36,71,48,290,48,80,18,090,44,85,57,203,49*64
###2023-11-09 13:09:17.539118$GLGSV,2,2,05,86,53,308,48,,,,,,,,,,,,*5F
###2023-11-09 13:09:17.541694$GAGSV,1,1,04,07,73,259,46,08,48,043,44,13,63,161,45,26,57,310,45*65
###2023-11-09 13:09:17.544290$GBGSV,2,1,06,11,23,180,42,14,65,008,45,24,20,132,43,26,23,081,42*66
###2023-11-09 13:09:17.546230$GBGSV,2,2,06,28,43,287,48,33,59,304,48,,,,,,,,*66
###2023-11-09 13:09:17.547693$GNVTG,64.90,T,,M,3.87,N,7.16,K,A*14
###2023-11-09 13:09:17.630255$GNGGA,130917.80,3611.0319269,N,07544.9549887,W,1,24,0.6,0.489,M,-39.962,M,0.0,*63
###2023-11-09 13:09:17.632849$GPGSV,2,1,07,05,20,090,43,10,19,293,42,13,24,045,41,15,61,037,45*75
###2023-11-09 13:09:17.635110$GPGSV,2,2,07,18,78,277,47,23,50,316,46,24,50,134,45,,,,*4F
###2023-11-09 13:09:17.637712$GLGSV,2,1,05,70,50,017,36,71,48,290,48,80,18,090,45,85,57,203,49*65
###2023-11-09 13:09:17.639324$GLGSV,2,2,05,86,53,308,48,,,,,,,,,,,,*5F
###2023-11-09 13:09:17.641898$GAGSV,1,1,04,07,73,259,46,08,48,043,44,13,63,161,45,26,57,310,45*65
###2023-11-09 13:09:17.644481$GBGSV,2,1,06,11,23,180,42,14,65,008,45,24,20,132,45,26,23,081,43*61
###2023-11-09 13:09:17.646425$GBGSV,2,2,06,28,43,287,47,33,59,304,47,,,,,,,,*66
###2023-11-09 13:09:17.647872$GNVTG,66.38,T,,M,3.75,N,6.95,K,A*13
###2023-11-09 13:09:17.729629$GNGGA,130917.90,3611.0319713,N,07544.9548763,W,1,24,0.6,0.498,M,-39.962,M,0.0,*6E
###2023-11-09 13:09:17.732218$GPGSV,2,1,07,05,20,090,43,10,19,293,41,13,24,045,40,15,61,037,45*77
###2023-11-09 13:09:17.734457$GPGSV,2,2,07,18,78,277,47,23,50,316,45,24,50,134,45,,,,*4C
###2023-11-09 13:09:17.737039$GLGSV,2,1,05,70,50,017,36,71,48,290,47,80,18,090,45,85,57,203,49*6A
###2023-11-09 13:09:17.738644$GLGSV,2,2,05,86,53,308,47,,,,,,,,,,,,*50
###2023-11-09 13:09:17.741204$GAGSV,1,1,04,07,73,259,45,08,48,043,44,13,63,161,45,26,57,310,45*66
###2023-11-09 13:09:17.743770$GBGSV,2,1,06,11,23,180,43,14,65,008,44,24,20,132,45,26,23,081,43*61
###2023-11-09 13:09:17.745707$GBGSV,2,2,06,28,43,287,46,33,59,304,47,,,,,,,,*67
###2023-11-09 13:09:17.747148$GNVTG,60.42,T,,M,3.56,N,6.59,K,A*19
###2023-11-09 13:09:17.837766$GNGGA,130918.00,3611.0320274,N,07544.9547773,W,1,24,0.6,0.519,M,-39.962,M,0.0,*60
###2023-11-09 13:09:17.840384$GPGSV,2,1,07,05,20,090,43,10,19,293,41,13,24,045,40,15,61,037,45*77
###2023-11-09 13:09:17.842657$GPGSV,2,2,07,18,78,277,47,23,50,316,45,24,50,134,45,,,,*4C
###2023-11-09 13:09:17.845235$GLGSV,2,1,05,70,50,017,35,71,48,290,47,80,18,090,45,85,57,203,49*69
###2023-11-09 13:09:17.846844$GLGSV,2,2,05,86,53,308,47,,,,,,,,,,,,*50
###2023-11-09 13:09:17.849450$GAGSV,1,1,04,07,73,259,45,08,48,043,43,13,63,161,45,26,57,310,45*61
###2023-11-09 13:09:17.852045$GBGSV,2,1,06,11,23,180,43,14,65,008,44,24,20,132,45,26,23,081,43*61
###2023-11-09 13:09:17.853986$GBGSV,2,2,06,28,43,287,46,33,59,304,47,,,,,,,,*67
###2023-11-09 13:09:17.855420$GNVTG,48.68,T,,M,3.54,N,6.55,K,A*15
###2023-11-09 13:09:17.938779$GNGGA,130918.10,3611.0320926,N,07544.9546898,W,1,24,0.6,0.552,M,-39.962,M,0.0,*69
###2023-11-09 13:09:17.941380$GPGSV,2,1,07,05,20,090,43,10,19,293,41,13,24,045,40,15,61,037,45*77
###2023-11-09 13:09:17.943647$GPGSV,2,2,07,18,78,277,47,23,50,316,46,24,50,134,45,,,,*4F
###2023-11-09 13:09:17.946221$GLGSV,2,1,05,70,50,017,35,71,48,290,46,80,18,090,45,85,57,203,49*68
###2023-11-09 13:09:17.947849$GLGSV,2,2,05,86,53,308,47,,,,,,,,,,,,*50
###2023-11-09 13:09:17.950422$GAGSV,1,1,04,07,73,259,45,08,48,043,43,13,63,161,45,26,57,310,45*61
###2023-11-09 13:09:17.953012$GBGSV,2,1,06,11,23,180,43,14,65,008,44,24,20,132,45,26,23,081,43*61
###2023-11-09 13:09:17.954944$GBGSV,2,2,06,28,43,287,46,33,59,304,47,,,,,,,,*67
###2023-11-09 13:09:17.956376$GNVTG,45.30,T,,M,3.42,N,6.34,K,A*15
###2023-11-09 13:09:18.032358$GNGGA,130918.20,3611.0321563,N,07544.9546065,W,1,24,0.6,0.590,M,-39.962,M,0.0,*62
###2023-11-09 13:09:18.034934$GPGSV,2,1,07,05,20,090,43,10,19,293,43,13,24,045,42,15,61,037,45*77
###2023-11-09 13:09:18.037196$GPGSV,2,2,07,18,78,277,47,23,50,316,46,24,50,134,44,,,,*4E
###2023-11-09 13:09:18.039757$GLGSV,2,1,05,70,50,017,35,71,48,290,48,80,18,090,45,85,57,203,47*68
###2023-11-09 13:09:18.041350$GLGSV,2,2,05,86,53,308,48,,,,,,,,,,,,*5F
###2023-11-09 13:09:18.043908$GAGSV,1,1,04,07,73,259,45,08,48,043,43,13,63,161,45,26,57,310,45*61
###2023-11-09 13:09:18.046477$GBGSV,2,1,06,11,23,180,42,14,65,008,44,24,20,132,44,26,23,081,43*61
###2023-11-09 13:09:18.048412$GBGSV,2,2,06,28,43,287,47,33,59,304,48,,,,,,,,*69
###2023-11-09 13:09:18.049832$GNVTG,47.12,T,,M,3.29,N,6.08,K,A*15
###2023-11-09 13:09:18.129136$GNGGA,130918.30,3611.0322125,N,07544.9545226,W,1,24,0.6,0.627,M,-39.962,M,0.0,*6F
###2023-11-09 13:09:18.131736$GPGSV,2,1,07,05,20,090,42,10,19,293,44,13,24,045,42,15,61,037,46*72
###2023-11-09 13:09:18.133998$GPGSV,2,2,07,18,78,277,47,23,50,316,46,24,50,134,44,,,,*4E
###2023-11-09 13:09:18.136568$GLGSV,2,1,05,70,50,017,35,71,48,290,48,80,18,090,45,85,57,203,47*68
###2023-11-09 13:09:18.138192$GLGSV,2,2,05,86,53,308,49,,,,,,,,,,,,*5E
###2023-11-09 13:09:18.140766$GAGSV,1,1,04,07,73,259,45,08,48,043,43,13,63,161,44,26,57,310,45*60
###2023-11-09 13:09:18.143363$GBGSV,2,1,06,11,23,180,41,14,65,008,45,24,20,132,42,26,23,081,43*65
###2023-11-09 13:09:18.145301$GBGSV,2,2,06,28,43,287,48,33,59,304,48,,,,,,,,*66
###2023-11-09 13:09:18.146727$GNVTG,53.23,T,,M,3.09,N,5.72,K,A*1E
###2023-11-09 13:09:18.229980$GNGGA,130918.40,3611.0322552,N,07544.9544379,W,1,24,0.6,0.670,M,-39.961,M,0.0,*67
###2023-11-09 13:09:18.232573$GPGSV,2,1,07,05,20,090,42,10,19,293,44,13,24,045,42,15,61,037,46*72
###2023-11-09 13:09:18.234829$GPGSV,2,2,07,18,78,277,46,23,50,316,46,24,50,134,44,,,,*4F
###2023-11-09 13:09:18.237421$GLGSV,2,1,05,70,50,017,36,71,48,290,48,80,18,090,44,85,57,203,47*6A
###2023-11-09 13:09:18.239033$GLGSV,2,2,05,86,53,308,49,,,,,,,,,,,,*5E
###2023-11-09 13:09:18.241602$GAGSV,1,1,04,07,73,259,45,08,48,043,43,13,63,161,44,26,57,310,45*60
###2023-11-09 13:09:18.244177$GBGSV,2,1,06,11,23,180,41,14,65,008,45,24,20,132,43,26,23,081,43*64
###2023-11-09 13:09:18.246403$GBGSV,2,2,06,28,43,287,48,33,59,304,48,,,,,,,,*66
###2023-11-09 13:09:18.247851$GNVTG,62.93,T,,M,2.78,N,5.15,K,A*11
###2023-11-09 13:09:18.329618$GNGGA,130918.50,3611.0322853,N,07544.9543534,W,1,24,0.6,0.726,M,-39.961,M,0.0,*60
###2023-11-09 13:09:18.332198$GPGSV,2,1,07,05,20,090,42,10,19,293,44,13,24,045,42,15,61,037,46*72
###2023-11-09 13:09:18.334444$GPGSV,2,2,07,18,78,277,46,23,50,316,46,24,50,134,45,,,,*4E
###2023-11-09 13:09:18.337023$GLGSV,2,1,05,70,50,017,36,71,48,290,48,80,18,090,44,85,57,203,47*6A
###2023-11-09 13:09:18.338623$GLGSV,2,2,05,86,53,308,49,,,,,,,,,,,,*5E
###2023-11-09 13:09:18.341171$GAGSV,1,1,04,07,73,259,45,08,48,043,43,13,63,161,44,26,57,310,45*60
###2023-11-09 13:09:18.343733$GBGSV,2,1,06,11,23,180,41,14,65,008,45,24,20,132,44,26,23,081,43*63
