###2023-11-09 13:07:14.731378$GPGSV,2,1,07,05,21,090,41,10,18,292,43,13,24,045,43,15,62,037,45*76
###2023-11-09 13:07:14.733643$GPGSV,2,2,07,18,77,281,47,23,50,315,45,24,49,136,45,,,,*43
###2023-11-09 13:07:14.736196$GLGSV,2,1,05,70,50,016,35,71,48,288,48,80,17,091,44,85,58,203,48*6F
###2023-11-09 13:07:14.737822$GLGSV,2,2,05,86,52,309,47,,,,,,,,,,,,*50
###2023-11-09 13:07:14.740391$GAGSV,1,1,04,07,72,257,45,08,49,042,45,13,64,160,44,26,56,311,45*6F
###2023-11-09 13:07:14.742961$GBGSV,2,1,06,11,24,180,41,14,65,006,45,24,19,133,42,26,23,082,43*64
###2023-11-09 13:07:14.744882$GBGSV,2,2,06,28,43,289,47,33,58,302,47,,,,,,,,*6F
###2023-11-09 13:07:14.746294$GNVTG,15.79,T,,M,0.86,N,1.58,K,A*1B
###2023-11-09 13:07:14.830256$GNGGA,130715.00,3611.0518843,N,07544.9769058,W,1,24,0.6,0.992,M,-39.961,M,0.0,*6C
###2023-11-09 13:07:14.832854$GPGSV,2,1,07,05,21,090,41,10,18,292,44,13,24,045,43,15,62,037,45*71
###2023-11-09 13:07:14.835105$GPGSV,2,2,07,18,77,281,47,23,50,315,45,24,49,136,45,,,,*43
###2023-11-09 13:07:14.837695$GLGSV,2,1,05,70,50,016,35,71,48,288,48,80,17,091,44,85,58,203,48*6F
###2023-11-09 13:07:14.839310$GLGSV,2,2,05,86,52,309,48,,,,,,,,,,,,*5F
###2023-11-09 13:07:14.841878$GAGSV,1,1,04,07,72,257,45,08,49,042,45,13,64,160,44,26,56,311,45*6F
###2023-11-09 13:07:14.844459$GBGSV,2,1,06,11,24,180,41,14,65,006,45,24,19,133,42,26,23,082,43*64
###2023-11-09 13:07:14.846390$GBGSV,2,2,06,28,43,289,47,33,58,302,47,,,,,,,,*6F
###2023-11-09 13:07:14.847828$GNVTG,15.79,T,,M,0.39,N,0.72,K,A*16
###2023-11-09 13:07:14.930121$GNGGA,130715.10,3611.0518911,N,07544.9768990,W,1,24,0.6,0.998,M,-39.961,M,0.0,*6D
###2023-11-09 13:07:14.932714$GPGSV,2,1,07,05,21,090,42,10,18,292,44,13,24,045,43,15,62,037,45*72
###2023-11-09 13:07:14.934978$GPGSV,2,2,07,18,77,281,47,23,50,315,45,24,49,136,45,,,,*43
###2023-11-09 13:07:14.937576$GLGSV,2,1,05,70,50,016,35,71,48,288,48,80,17,091,44,85,58,203,48*6F
###2023-11-09 13:07:14.939184$GLGSV,2,2,05,86,52,309,48,,,,,,,,,,,,*5F
###2023-11-09 13:07:14.941750$GAGSV,1,1,04,07,72,257,45,08,49,042,45,13,64,160,44,26,56,310,45*6E
###2023-11-09 13:07:14.944331$GBGSV,2,1,06,11,24,180,41,14,65,006,45,24,19,133,42,26,23,082,43*64
###2023-11-09 13:07:14.946264$GBGSV,2,2,06,28,43,289,47,33,58,302,47,,,,,,,,*6F
###2023-11-09 13:07:14.947708$GNVTG,15.79,T,,M,0.25,N,0.47,K,A*1D
###2023-11-09 13:07:15.031480$GNGGA,130715.20,3611.0518973,N,07544.9768953,W,1,24,0.6,1.005,M,-39.961,M,0.0,*69
###2023-11-09 13:07:15.034077$GPGSV,2,1,07,05,21,090,42,10,18,292,44,13,24,045,42,15,62,037,45*73
###2023-11-09 13:07:15.036319$GPGSV,2,2,07,18,77,281,47,23,50,315,45,24,49,136,46,,,,*40
###2023-11-09 13:07:15.038906$GLGSV,2,1,05,70,50,016,35,71,48,288,48,80,17,091,44,85,58,203,48*6F
###2023-11-09 13:07:15.040510$GLGSV,2,2,05,86,52,309,47,,,,,,,,,,,,*50
###2023-11-09 13:07:15.043054$GAGSV,1,1,04,07,72,257,45,08,49,042,45,13,64,160,44,26,56,310,44*6F
###2023-11-09 13:07:15.045613$GBGSV,2,1,06,11,24,180,41,14,65,006,45,24,19,133,44,26,23,082,43*62
###2023-11-09 13:07:15.047546$GBGSV,2,2,06,28,43,289,47,33,58,302,47,,,,,,,,*6F
###2023-11-09 13:07:15.048970$GNVTG,15.79,T,,M,0.27,N,0.50,K,A*19
###2023-11-09 13:07:15.129144$GNGGA,130715.30,3611.0519108,N,07544.9768959,W,1,24,0.6,1.011,M,-39.961,M,0.0,*62
###2023-11-09 13:07:15.131731$GPGSV,2,1,07,05,21,090,42,10,18,292,44,13,24,045,41,15,62,037,45*70
###2023-11-09 13:07:15.133975$GPGSV,2,2,07,18,77,281,47,23,50,315,45,24,49,136,46,,,,*40
###2023-11-09 13:07:15.136539$GLGSV,2,1,05,70,50,016,35,71,48,288,48,80,17,091,44,85,58,203,49*6E
###2023-11-09 13:07:15.138160$GLGSV,2,2,05,86,52,309,47,,,,,,,,,,,,*50
###2023-11-09 13:07:15.140721$GAGSV,1,1,04,07,72,257,45,08,49,042,44,13,64,160,44,26,56,310,44*6E
###2023-11-09 13:07:15.143290$GBGSV,2,1,06,11,24,180,42,14,65,006,45,24,19,133,44,26,23,082,42*60
###2023-11-09 13:07:15.145211$GBGSV,2,2,06,28,43,289,47,33,58,302,47,,,,,,,,*6F
###2023-11-09 13:07:15.146631$GNVTG,15.79,T,,M,0.70,N,1.30,K,A*1C
###2023-11-09 13:07:15.229240$GNGGA,130715.40,3611.0519377,N,07544.9768995,W,1,24,0.6,1.030,M,-39.961,M,0.0,*6C
###2023-11-09 13:07:15.231826$GPGSV,2,1,07,05,21,090,42,10,18,292,43,13,24,045,41,15,62,037,45*77
###2023-11-09 13:07:15.234073$GPGSV,2,2,07,18,77,281,47,23,50,315,45,24,49,136,46,,,,*40
###2023-11-09 13:07:15.236634$GLGSV,2,1,05,70,50,016,35,71,48,288,48,80,17,091,44,85,58,203,49*6E
###2023-11-09 13:07:15.238252$GLGSV,2,2,05,86,52,309,47,,,,,,,,,,,,*50
###2023-11-09 13:07:15.240822$GAGSV,1,1,04,07,72,257,45,08,49,042,44,13,64,160,44,26,56,310,44*6E
###2023-11-09 13:07:15.243386$GBGSV,2,1,06,11,24,180,42,14,65,006,45,24,19,133,44,26,23,082,42*60
###2023-11-09 13:07:15.245311$GBGSV,2,2,06,28,43,289,47,33,58,302,47,,,,,,,,*6F
###2023-11-09 13:07:15.246775$GNVTG,352.96,T,,M,1.26,N,2.34,K,A*28
###2023-11-09 13:07:15.329214$GNGGA,130715.50,3611.0519747,N,07544.9769077,W,1,24,0.6,1.061,M,-39.961,M,0.0,*6A
###2023-11-09 13:07:15.331774$GPGSV,2,1,07,05,21,090,42,10,18,292,43,13,24,045,41,15,62,037,45*77
###2023-11-09 13:07:15.334001$GPGSV,2,2,07,18,77,281,47,23,50,315,45,24,49,136,46,,,,*40
###2023-11-09 13:07:15.336550$GLGSV,2,1,05,70,50,016,35,71,48,288,48,80,17,091,44,85,58,203,49*6E
###2023-11-09 13:07:15.338160$GLGSV,2,2,05,86,52,309,47,,,,,,,,,,,,*50
###2023-11-09 13:07:15.340720$GAGSV,1,1,04,07,72,257,45,08,49,042,44,13,64,160,44,26,56,310,44*6E
###2023-11-09 13:07:15.343297$GBGSV,2,1,06,11,24,180,42,14,65,006,45,24,19,133,44,26,23,082,42*60
###2023-11-09 13:07:15.345226$GBGSV,2,2,06,28,43,289,47,33,58,302,47,,,,,,,,*6F
###2023-11-09 13:07:15.346683$GNVTG,346.65,T,,M,1.48,N,2.74,K,A*2D
###2023-11-09 13:07:15.429284$GNGGA,130715.60,3611.0520132,N,07544.9769215,W,1,24,0.6,1.092,M,-39.961,M,0.0,*6D
###2023-11-09 13:07:15.431884$GPGSV,2,1,07,05,21,090,42,10,18,292,43,13,24,045,41,15,62,037,45*77
###2023-11-09 13:07:15.434146$GPGSV,2,2,07,18,77,281,47,23,50,315,45,24,49,136,46,,,,*40
###2023-11-09 13:07:15.436716$GLGSV,2,1,05,70,50,016,35,71,48,288,48,80,17,091,44,85,58,203,48*6F
###2023-11-09 13:07:15.438334$GLGSV,2,2,05,86,52,309,47,,,,,,,,,,,,*50
###2023-11-09 13:07:15.440913$GAGSV,1,1,04,07,72,257,45,08,49,042,45,13,64,160,44,26,56,310,44*6F
###2023-11-09 13:07:15.443486$GBGSV,2,1,06,11,24,180,42,14,65,006,45,24,19,133,44,26,23,082,42*60
###2023-11-09 13:07:15.445421$GBGSV,2,2,06,28,43,289,47,33,58,302,47,,,,,,,,*6F
###2023-11-09 13:07:15.446885$GNVTG,340.65,T,,M,1.44,N,2.66,K,A*24
###2023-11-09 13:07:15.530253$GNGGA,130715.70,3611.0520450,N,07544.9769396,W,1,24,0.6,1.123,M,-39.961,M,0.0,*6C
###2023-11-09 13:07:15.532854$GPGSV,2,1,07,05,21,090,42,10,18,292,43,13,24,045,43,15,62,037,45*75
###2023-11-09 13:07:15.535094$GPGSV,2,2,07,18,77,281,47,23,50,315,45,24,49,136,46,,,,*40
###2023-11-09 13:07:15.537686$GLGSV,2,1,05,70,50,016,35,71,48,288,48,80,17,091,44,85,58,203,48*6F
###2023-11-09 13:07:15.539300$GLGSV,2,2,05,86,52,309,47,,,,,,,,,,,,*50
###2023-11-09 13:07:15.541863$GAGSV,1,1,04,07,72,257,45,08,49,042,45,13,64,160,43,26,56,310,44*68
###2023-11-09 13:07:15.544437$GBGSV,2,1,06,11,24,180,41,14,65,006,45,24,19,133,44,26,23,082,43*62
###2023-11-09 13:07:15.546366$GBGSV,2,2,06,28,43,289,47,33,58,302,47,,,,,,,,*6F
###2023-11-09 13:07:15.547847$GNVTG,328.46,T,,M,1.13,N,2.09,K,A*20
###2023-11-09 13:07:15.628739$GNGGA,130715.80,3611.0520624,N,07544.9769630,W,1,24,0.6,1.156,M,-39.961,M,0.0,*69
###2023-11-09 13:07:15.631313$GPGSV,2,1,07,05,21,090,42,10,18,292,44,13,24,045,44,15,62,037,45*75
###2023-11-09 13:07:15.633545$GPGSV,2,2,07,18,77,281,47,23,50,315,46,24,49,136,45,,,,*40
###2023-11-09 13:07:15.636094$GLGSV,2,1,05,70,50,016,35,71,48,288,49,80,17,091,44,85,58,203,48*6E
###2023-11-09 13:07:15.637709$GLGSV,2,2,05,86,52,309,47,,,,,,,,,,,,*50
###2023-11-09 13:07:15.640272$GAGSV,1,1,04,07,72,257,46,08,49,042,45,13,64,160,43,26,56,310,44*6B
###2023-11-09 13:07:15.642837$GBGSV,2,1,06,11,24,180,40,14,65,006,45,24,19,133,44,26,23,082,43*63
###2023-11-09 13:07:15.644755$GBGSV,2,2,06,28,43,289,46,33,58,302,47,,,,,,,,*6E
###2023-11-09 13:07:15.646209$GNVTG,328.46,T,,M,0.84,N,1.55,K,A*25
###2023-11-09 13:07:15.730758$GNGGA,130715.90,3611.0520673,N,07544.9769906,W,1,24,0.6,1.203,M,-39.961,M,0.0,*63
###2023-11-09 13:07:15.733645$GPGSV,2,1,07,05,21,090,42,10,18,292,44,13,24,045,44,15,62,037,45*75
###2023-11-09 13:07:15.735909$GPGSV,2,2,07,18,77,281,47,23,50,315,46,24,49,136,45,,,,*40
###2023-11-09 13:07:15.738522$GLGSV,2,1,05,70,50,016,35,71,48,288,49,80,17,091,44,85,58,203,48*6E
###2023-11-09 13:07:15.740144$GLGSV,2,2,05,86,52,309,47,,,,,,,,,,,,*50
###2023-11-09 13:07:15.742716$GAGSV,1,1,04,07,72,257,46,08,49,042,45,13,64,160,43,26,56,310,45*6A
###2023-11-09 13:07:15.745314$GBGSV,2,1,06,11,24,180,41,14,65,006,44,24,19,133,44,26,23,082,43*63
###2023-11-09 13:07:15.747281$GBGSV,2,2,06,28,43,289,47,33,58,302,47,,,,,,,,*6F
###2023-11-09 13:07:15.748757$GNVTG,328.46,T,,M,0.87,N,1.62,K,A*22
###2023-11-09 13:07:15.832134$GNGGA,130716.00,3611.0520703,N,07544.9770217,W,1,24,0.6,1.249,M,-39.961,M,0.0,*62
###2023-11-09 13:07:15.834720$GPGSV,2,1,07,05,21,090,42,10,18,292,44,13,24,045,42,15,62,037,45*73
