###2023-11-09 13:10:13.133570$GPGSV,2,2,07,18,78,277,47,23,50,316,45,24,50,134,46,,,,*4F
###2023-11-09 13:10:13.136154$GLGSV,2,1,05,70,49,019,35,71,48,291,48,80,19,089,43,85,56,202,49*6E
###2023-11-09 13:10:13.137826$GLGSV,2,2,05,86,54,306,48,,,,,,,,,,,,*56
###2023-11-09 13:10:13.140395$GAGSV,1,1,04,07,73,259,45,08,48,043,45,13,63,161,44,26,57,310,45*66
###2023-11-09 13:10:13.142973$GBGSV,2,1,06,11,22,180,41,14,65,009,45,24,21,132,44,26,23,080,44*64
###2023-11-09 13:10:13.144895$GBGSV,2,2,06,28,43,286,46,33,59,305,47,,,,,,,,*67
###2023-11-09 13:10:13.146351$GNVTG,106.31,T,,M,4.20,N,7.78,K,A*28
###2023-11-09 13:10:13.232885$GNGGA,131013.40,3611.0496608,N,07544.8840622,W,1,24,0.6,0.433,M,-39.961,M,0.0,*66
###2023-11-09 13:10:13.235482$GPGSV,2,1,07,05,20,090,41,10,19,293,44,13,24,045,41,15,61,037,45*71
###2023-11-09 13:10:13.237759$GPGSV,2,2,07,18,78,277,46,23,50,316,45,24,50,134,47,,,,*4F
###2023-11-09 13:10:13.240332$GLGSV,2,1,05,70,49,019,35,71,48,291,48,80,19,089,43,85,56,202,49*6E
###2023-11-09 13:10:13.241930$GLGSV,2,2,05,86,54,306,47,,,,,,,,,,,,*59
###2023-11-09 13:10:13.244484$GAGSV,1,1,04,07,73,259,45,08,48,043,45,13,63,161,45,26,57,310,44*66
###2023-11-09 13:10:13.247098$GBGSV,2,1,06,11,22,180,43,14,65,009,44,24,21,132,45,26,23,080,42*60
###2023-11-09 13:10:13.249036$GBGSV,2,2,06,28,43,286,46,33,59,305,47,,,,,,,,*67
###2023-11-09 13:10:13.250493$GNVTG,100.45,T,,M,4.08,N,7.56,K,A*2B
###2023-11-09 13:10:13.328380$GNGGA,131013.50,3611.0496548,N,07544.8839230,W,1,24,0.6,0.431,M,-39.961,M,0.0,*6B
###2023-11-09 13:10:13.330975$GPGSV,2,1,07,05,20,090,40,10,19,293,44,13,24,045,41,15,61,037,44*71
###2023-11-09 13:10:13.333240$GPGSV,2,2,07,18,78,277,46,23,50,316,45,24,50,134,47,,,,*4F
###2023-11-09 13:10:13.335829$GLGSV,2,1,05,70,49,019,35,71,48,291,48,80,19,089,42,85,56,202,50*67
###2023-11-09 13:10:13.337576$GLGSV,2,2,05,86,54,306,47,,,,,,,,,,,,*59
###2023-11-09 13:10:13.340154$GAGSV,1,1,04,07,73,259,45,08,48,043,44,13,63,161,45,26,57,310,43*60
###2023-11-09 13:10:13.342731$GBGSV,2,1,06,11,22,180,44,14,65,009,44,24,21,132,45,26,23,080,41*64
###2023-11-09 13:10:13.344672$GBGSV,2,2,06,28,43,286,46,33,59,305,47,,,,,,,,*67
###2023-11-09 13:10:13.346092$GNVTG,85.31,T,,M,4.12,N,7.63,K,A*19
###2023-11-09 13:10:13.429013$GNGGA,131013.60,3611.0496740,N,07544.8837802,W,1,24,0.6,0.454,M,-39.961,M,0.0,*64
###2023-11-09 13:10:13.431597$GPGSV,2,1,07,05,20,090,40,10,19,293,44,13,24,045,40,15,61,037,44*70
###2023-11-09 13:10:13.433843$GPGSV,2,2,07,18,78,277,46,23,50,316,44,24,50,134,46,,,,*4F
###2023-11-09 13:10:13.436415$GLGSV,2,1,05,70,49,019,35,71,48,291,48,80,19,089,42,85,56,202,50*67
###2023-11-09 13:10:13.438042$GLGSV,2,2,05,86,54,306,47,,,,,,,,,,,,*59
###2023-11-09 13:10:13.440609$GAGSV,1,1,04,07,73,259,45,08,48,043,44,13,63,161,45,26,57,310,43*60
###2023-11-09 13:10:13.443187$GBGSV,2,1,06,11,22,180,44,14,65,009,44,24,21,132,45,26,23,080,40*65
###2023-11-09 13:10:13.445126$GBGSV,2,2,06,28,43,286,47,33,59,305,47,,,,,,,,*66
###2023-11-09 13:10:13.446554$GNVTG,75.99,T,,M,4.37,N,8.10,K,A*18
###2023-11-09 13:10:13.529248$GNGGA,131013.70,3611.0497005,N,07544.8836320,W,1,24,0.6,0.471,M,-39.961,M,0.0,*6F
###2023-11-09 13:10:13.531834$GPGSV,2,1,07,05,20,090,40,10,19,293,45,13,24,045,41,15,61,037,45*71
###2023-11-09 13:10:13.534091$GPGSV,2,2,07,18,78,277,47,23,50,316,45,24,50,134,46,,,,*4F
###2023-11-09 13:10:13.536646$GLGSV,2,1,05,70,49,019,35,71,48,291,48,80,19,089,42,85,56,202,48*6E
###2023-11-09 13:10:13.538255$GLGSV,2,2,05,86,54,306,47,,,,,,,,,,,,*59
###2023-11-09 13:10:13.540814$GAGSV,1,1,04,07,73,259,45,08,48,043,44,13,63,161,45,26,57,310,44*67
###2023-11-09 13:10:13.543369$GBGSV,2,1,06,11,22,180,42,14,65,009,45,24,21,132,44,26,23,080,41*62
###2023-11-09 13:10:13.545293$GBGSV,2,2,06,28,43,286,47,33,59,305,48,,,,,,,,*69
###2023-11-09 13:10:13.546706$GNVTG,78.62,T,,M,4.51,N,8.35,K,A*16
###2023-11-09 13:10:13.627295$GNGGA,131013.80,3611.0497182,N,07544.8834830,W,1,24,0.6,0.460,M,-39.961,M,0.0,*66
###2023-11-09 13:10:13.629883$GPGSV,2,1,07,05,20,090,41,10,19,293,45,13,24,045,42,15,61,037,45*73
###2023-11-09 13:10:13.632132$GPGSV,2,2,07,18,78,277,47,23,50,316,45,24,50,134,46,,,,*4F
###2023-11-09 13:10:13.634701$GLGSV,2,1,05,70,49,019,35,71,48,291,48,80,19,089,43,85,56,202,48*6F
###2023-11-09 13:10:13.636303$GLGSV,2,2,05,86,54,306,48,,,,,,,,,,,,*56
###2023-11-09 13:10:13.638887$GAGSV,1,1,04,07,73,259,45,08,48,043,44,13,63,161,44,26,57,310,45*67
###2023-11-09 13:10:13.641460$GBGSV,2,1,06,11,22,180,40,14,65,009,45,24,21,132,43,26,23,080,42*64
###2023-11-09 13:10:13.643394$GBGSV,2,2,06,28,43,286,47,33,59,305,48,,,,,,,,*69
###2023-11-09 13:10:13.644827$GNVTG,84.38,T,,M,4.32,N,7.99,K,A*16
###2023-11-09 13:10:13.728363$GNGGA,131013.90,3611.0497231,N,07544.8833370,W,1,24,0.6,0.447,M,-39.961,M,0.0,*61
###2023-11-09 13:10:13.730947$GPGSV,2,1,07,05,20,090,41,10,19,293,45,13,24,045,43,15,61,037,45*72
###2023-11-09 13:10:13.733196$GPGSV,2,2,07,18,78,277,47,23,50,316,46,24,50,134,45,,,,*4F
###2023-11-09 13:10:13.735768$GLGSV,2,1,05,70,49,019,35,71,48,291,48,80,19,089,43,85,56,202,47*60
###2023-11-09 13:10:13.737388$GLGSV,2,2,05,86,54,306,49,,,,,,,,,,,,*57
###2023-11-09 13:10:13.739949$GAGSV,1,1,04,07,73,259,45,08,48,043,45,13,63,161,44,26,57,310,45*66
###2023-11-09 13:10:13.742515$GBGSV,2,1,06,11,22,180,39,14,65,009,45,24,21,132,43,26,23,080,43*6B
###2023-11-09 13:10:13.744446$GBGSV,2,2,06,28,43,286,47,33,59,305,48,,,,,,,,*69
###2023-11-09 13:10:13.745868$GNVTG,90.38,T,,M,4.24,N,7.85,K,A*19
###2023-11-09 13:10:13.831239$GNGGA,131014.00,3611.0497194,N,07544.8831888,W,1,24,0.6,0.451,M,-39.961,M,0.0,*6A
###2023-11-09 13:10:13.833822$GPGSV,2,1,07,05,20,090,41,10,19,293,45,13,24,045,43,15,61,037,45*72
###2023-11-09 13:10:13.836056$GPGSV,2,2,07,18,78,277,46,23,50,316,45,24,50,134,45,,,,*4D
###2023-11-09 13:10:13.838634$GLGSV,2,1,05,70,49,019,35,71,48,291,49,80,19,089,43,85,56,202,48*6E
###2023-11-09 13:10:13.840227$GLGSV,2,2,05,86,54,306,49,,,,,,,,,,,,*57
###2023-11-09 13:10:13.842779$GAGSV,1,1,04,07,73,259,45,08,48,043,45,13,63,161,44,26,57,310,45*66
###2023-11-09 13:10:13.845336$GBGSV,2,1,06,11,22,180,39,14,65,009,45,24,21,132,43,26,23,080,43*6B
###2023-11-09 13:10:13.847267$GBGSV,2,2,06,28,43,286,47,33,59,305,48,,,,,,,,*69
###2023-11-09 13:10:13.848688$GNVTG,92.50,T,,M,4.41,N,8.17,K,A*12
###2023-11-09 13:10:13.928266$GNGGA,131014.10,3611.0497121,N,07544.8830345,W,1,24,0.6,0.456,M,-39.961,M,0.0,*69
###2023-11-09 13:10:13.930865$GPGSV,2,1,07,05,20,090,40,10,19,293,44,13,24,045,42,15,61,037,45*73
###2023-11-09 13:10:13.933119$GPGSV,2,2,07,18,78,277,46,23,50,316,45,24,50,134,46,,,,*4E
###2023-11-09 13:10:13.935684$GLGSV,2,1,05,70,49,019,36,71,48,291,48,80,19,089,42,85,56,202,48*6D
###2023-11-09 13:10:13.937313$GLGSV,2,2,05,86,54,306,49,,,,,,,,,,,,*57
###2023-11-09 13:10:13.939881$GAGSV,1,1,04,07,73,259,45,08,48,043,44,13,63,161,44,26,57,310,45*67
###2023-11-09 13:10:13.942448$GBGSV,2,1,06,11,22,180,40,14,65,009,45,24,21,132,43,26,23,080,43*65
###2023-11-09 13:10:13.944383$GBGSV,2,2,06,28,43,286,48,33,59,305,48,,,,,,,,*66
###2023-11-09 13:10:13.945808$GNVTG,93.64,T,,M,4.61,N,8.53,K,A*16
###2023-11-09 13:10:14.033367$GNGGA,131014.20,3611.0497031,N,07544.8828769,W,1,24,0.6,0.443,M,-39.961,M,0.0,*6D
###2023-11-09 13:10:14.035952$GPGSV,2,1,07,05,20,090,40,10,19,293,43,13,24,045,40,15,61,037,45*76
###2023-11-09 13:10:14.038216$GPGSV,2,2,07,18,78,277,47,23,50,316,45,24,50,134,46,,,,*4F
###2023-11-09 13:10:14.040781$GLGSV,2,1,05,70,49,019,35,71,48,291,48,80,19,089,42,85,56,202,48*6E
###2023-11-09 13:10:14.042384$GLGSV,2,2,05,86,54,306,48,,,,,,,,,,,,*56
###2023-11-09 13:10:14.044946$GAGSV,1,1,04,07,73,259,45,08,48,043,44,13,63,161,45,26,57,310,45*66
###2023-11-09 13:10:14.047542$GBGSV,2,1,06,11,22,180,42,14,65,009,45,24,21,132,44,26,23,080,43*60
###2023-11-09 13:10:14.049477$GBGSV,2,2,06,28,43,286,47,33,59,305,48,,,,,,,,*69
###2023-11-09 13:10:14.050903$GNVTG,94.09,T,,M,4.61,N,8.53,K,A*1A
###2023-11-09 13:10:14.132606$GNGGA,131014.30,3611.0496999,N,07544.8827200,W,1,24,0.6,0.405,M,-39.961,M,0.0,*61
###2023-11-09 13:10:14.135187$GPGSV,2,1,07,05,20,090,40,10,19,293,43,13,24,045,39,15,61,037,45*78
###2023-11-09 13:10:14.137455$GPGSV,2,2,07,18,78,277,47,23,50,316,45,24,50,134,46,,,,*4F
###2023-11-09 13:10:14.140334$GLGSV,2,1,05,70,49,019,35,71,48,291,47,80,19,089,42,85,56,202,49*60
###2023-11-09 13:10:14.141948$GLGSV,2,2,05,86,54,306,47,,,,,,,,,,,,*59
###2023-11-09 13:10:14.144508$GAGSV,1,1,04,07,73,259,45,08,48,043,43,13,63,161,45,26,57,310,44*60
###2023-11-09 13:10:14.147095$GBGSV,2,1,06,11,22,180,43,14,65,009,45,24,21,132,45,26,23,080,42*61
###2023-11-09 13:10:14.149020$GBGSV,2,2,06,28,43,286,47,33,59,305,48,,,,,,,,*69
###2023-11-09 13:10:14.150444$GNVTG,88.53,T,,M,4.57,N,8.46,K,A*19
###2023-11-09 13:10:14.228392$GNGGA,131014.40,3611.0497072,N,07544.8825652,W,1,24,0.6,0.373,M,-39.961,M,0.0,*6C
###2023-11-09 13:10:14.230984$GPGSV,2,1,07,05,20,090,40,10,19,293,43,13,24,045,39,15,61,037,44*79
###2023-11-09 13:10:14.233232$GPGSV,2,2,07,18,78,277,47,23,50,316,45,24,50,134,46,,,,*4F
