###2023-11-09 13:06:33.545368$GAGSV,1,1,04,07,72,255,45,08,49,042,44,13,64,160,44,26,56,311,45*6C
###2023-11-09 13:06:33.548009$GBGSV,2,1,06,11,24,180,42,14,65,006,46,24,19,133,43,26,23,082,42*64
###2023-11-09 13:06:33.549961$GBGSV,2,2,06,28,43,289,47,33,58,302,47,,,,,,,,*6F
###2023-11-09 13:06:33.551402$GNVTG,31.85,T,,M,1.11,N,2.05,K,A*1A
###2023-11-09 13:06:33.632229$GNGGA,130633.80,3611.0428898,N,07544.9794986,W,1,24,0.6,0.869,M,-39.961,M,0.0,*68
###2023-11-09 13:06:33.634813$GPGSV,2,1,07,05,21,090,42,10,18,292,43,13,24,045,41,15,62,037,46*74
###2023-11-09 13:06:33.637085$GPGSV,2,2,07,18,77,281,47,23,49,314,45,24,49,137,46,,,,*48
###2023-11-09 13:06:33.639645$GLGSV,2,1,05,70,50,016,35,71,48,288,48,80,17,091,44,85,58,203,48*6F
###2023-11-09 13:06:33.641245$GLGSV,2,2,05,86,52,309,47,,,,,,,,,,,,*50
###2023-11-09 13:06:33.643808$GAGSV,1,1,04,07,72,255,45,08,49,042,44,13,64,160,44,26,56,311,45*6C
###2023-11-09 13:06:33.646362$GBGSV,2,1,06,11,24,180,42,14,65,006,46,24,19,133,43,26,23,082,42*64
###2023-11-09 13:06:33.648303$GBGSV,2,2,06,28,43,289,47,33,58,302,47,,,,,,,,*6F
###2023-11-09 13:06:33.649726$GNVTG,30.63,T,,M,1.09,N,2.02,K,A*1D
###2023-11-09 13:06:33.732885$GNGGA,130633.90,3611.0429156,N,07544.9794807,W,1,24,0.6,0.872,M,-39.961,M,0.0,*61
###2023-11-09 13:06:33.735493$GPGSV,2,1,07,05,21,090,42,10,18,292,43,13,24,045,41,15,62,037,46*74
###2023-11-09 13:06:33.737771$GPGSV,2,2,07,18,77,281,47,23,49,314,45,24,49,137,46,,,,*48
###2023-11-09 13:06:33.740348$GLGSV,2,1,05,70,50,016,36,71,48,288,48,80,17,091,44,85,58,203,48*6C
###2023-11-09 13:06:33.741959$GLGSV,2,2,05,86,52,309,47,,,,,,,,,,,,*50
###2023-11-09 13:06:33.744534$GAGSV,1,1,04,07,72,255,45,08,49,042,44,13,64,160,44,26,56,311,45*6C
###2023-11-09 13:06:33.747149$GBGSV,2,1,06,11,24,180,42,14,65,006,46,24,19,133,43,26,23,082,42*64
###2023-11-09 13:06:33.749093$GBGSV,2,2,06,28,43,289,47,33,58,302,47,,,,,,,,*6F
###2023-11-09 13:06:33.750528$GNVTG,29.60,T,,M,0.99,N,1.84,K,A*13
###2023-11-09 13:06:33.838021$GNGGA,130634.00,3611.0429369,N,07544.9794654,W,1,24,0.6,0.877,M,-39.961,M,0.0,*6C
###2023-11-09 13:06:33.840634$GPGSV,2,1,07,05,21,090,42,10,18,292,43,13,24,045,41,15,62,037,46*74
###2023-11-09 13:06:33.842901$GPGSV,2,2,07,18,77,281,47,23,49,314,45,24,49,137,46,,,,*48
###2023-11-09 13:06:33.845473$GLGSV,2,1,05,70,50,016,36,71,48,288,48,80,17,091,44,85,58,203,48*6C
###2023-11-09 13:06:33.847096$GLGSV,2,2,05,86,52,309,47,,,,,,,,,,,,*50
###2023-11-09 13:06:33.849666$GAGSV,1,1,04,07,72,255,46,08,49,042,44,13,64,160,44,26,56,311,45*6F
###2023-11-09 13:06:33.852260$GBGSV,2,1,06,11,24,180,41,14,65,006,46,24,19,133,43,26,23,082,42*67
###2023-11-09 13:06:33.854201$GBGSV,2,2,06,28,43,289,47,33,58,302,47,,,,,,,,*6F
###2023-11-09 13:06:33.855637$GNVTG,29.60,T,,M,0.74,N,1.37,K,A*18
###2023-11-09 13:06:33.937272$GNGGA,130634.10,3611.0429545,N,07544.9794529,W,1,24,0.6,0.884,M,-39.961,M,0.0,*60
###2023-11-09 13:06:33.939878$GPGSV,2,1,07,05,21,090,42,10,18,292,43,13,24,045,41,15,62,037,46*74
###2023-11-09 13:06:33.942121$GPGSV,2,2,07,18,77,281,47,23,49,314,45,24,49,137,46,,,,*48
###2023-11-09 13:06:33.944677$GLGSV,2,1,05,70,50,016,36,71,48,288,48,80,17,091,44,85,58,203,48*6C
###2023-11-09 13:06:33.946285$GLGSV,2,2,05,86,52,309,47,,,,,,,,,,,,*50
###2023-11-09 13:06:33.948859$GAGSV,1,1,04,07,72,255,46,08,49,042,44,13,64,160,44,26,56,311,45*6F
###2023-11-09 13:06:33.951452$GBGSV,2,1,06,11,24,180,41,14,65,006,46,24,19,133,43,26,23,082,42*67
###2023-11-09 13:06:33.953404$GBGSV,2,2,06,28,43,289,47,33,58,302,47,,,,,,,,*6F
###2023-11-09 13:06:33.954837$GNVTG,29.60,T,,M,0.68,N,1.26,K,A*15
###2023-11-09 13:06:34.035976$GNGGA,130634.20,3611.0429705,N,07544.9794430,W,1,24,0.6,0.890,M,-39.961,M,0.0,*69
###2023-11-09 13:06:34.038574$GPGSV,2,1,07,05,21,090,42,10,18,292,43,13,24,045,41,15,62,037,46*74
###2023-11-09 13:06:34.040819$GPGSV,2,2,07,18,77,281,47,23,49,314,45,24,49,137,46,,,,*48
###2023-11-09 13:06:34.043391$GLGSV,2,1,05,70,50,016,36,71,48,288,48,80,17,091,45,85,58,203,48*6D
###2023-11-09 13:06:34.044995$GLGSV,2,2,05,86,52,309,48,,,,,,,,,,,,*5F
###2023-11-09 13:06:34.047577$GAGSV,1,1,04,07,72,255,45,08,49,042,44,13,64,160,44,26,56,311,45*6C
###2023-11-09 13:06:34.050161$GBGSV,2,1,06,11,24,180,41,14,65,006,46,24,19,133,43,26,23,082,42*67
###2023-11-09 13:06:34.052097$GBGSV,2,2,06,28,43,289,47,33,58,302,47,,,,,,,,*6F
###2023-11-09 13:06:34.053528$GNVTG,29.60,T,,M,0.58,N,1.08,K,A*1A
###2023-11-09 13:06:34.134120$GNGGA,130634.30,3611.0429856,N,07544.9794349,W,1,24,0.6,0.901,M,-39.961,M,0.0,*61
###2023-11-09 13:06:34.136720$GPGSV,2,1,07,05,21,090,42,10,18,292,43,13,24,045,41,15,62,037,46*74
###2023-11-09 13:06:34.139009$GPGSV,2,2,07,18,77,281,47,23,49,314,45,24,49,137,46,,,,*48
###2023-11-09 13:06:34.141600$GLGSV,2,1,05,70,50,016,36,71,48,288,48,80,17,091,45,85,58,203,48*6D
###2023-11-09 13:06:34.143209$GLGSV,2,2,05,86,52,309,47,,,,,,,,,,,,*50
###2023-11-09 13:06:34.145782$GAGSV,1,1,04,07,72,255,45,08,49,042,44,13,64,160,44,26,56,311,45*6C
###2023-11-09 13:06:34.148378$GBGSV,2,1,06,11,24,180,41,14,65,006,46,24,19,133,43,26,23,082,42*67
###2023-11-09 13:06:34.150312$GBGSV,2,2,06,28,43,289,47,33,58,302,47,,,,,,,,*6F
###2023-11-09 13:06:34.151738$GNVTG,29.60,T,,M,0.60,N,1.12,K,A*1A
###2023-11-09 13:06:34.232545$GNGGA,130634.40,3611.0430021,N,07544.9794285,W,1,24,0.6,0.908,M,-39.961,M,0.0,*6E
###2023-11-09 13:06:34.235138$GPGSV,2,1,07,05,21,090,42,10,18,292,43,13,24,045,41,15,62,037,46*74
###2023-11-09 13:06:34.237406$GPGSV,2,2,07,18,77,281,47,23,49,314,45,24,49,137,46,,,,*48
###2023-11-09 13:06:34.239965$GLGSV,2,1,05,70,50,016,36,71,48,288,48,80,17,091,45,85,58,203,48*6D
###2023-11-09 13:06:34.241558$GLGSV,2,2,05,86,52,309,47,,,,,,,,,,,,*50
###2023-11-09 13:06:34.244105$GAGSV,1,1,04,07,72,255,46,08,49,042,44,13,64,160,44,26,56,311,45*6F
###2023-11-09 13:06:34.246673$GBGSV,2,1,06,11,24,180,41,14,65,006,46,24,19,133,43,26,23,082,42*67
###2023-11-09 13:06:34.248648$GBGSV,2,2,06,28,43,289,47,33,58,302,47,,,,,,,,*6F
###2023-11-09 13:06:34.250085$GNVTG,29.60,T,,M,0.62,N,1.15,K,A*1F
###2023-11-09 13:06:34.330871$GNGGA,130634.50,3611.0430191,N,07544.9794234,W,1,24,0.6,0.913,M,-39.961,M,0.0,*65
###2023-11-09 13:06:34.333459$GPGSV,2,1,07,05,21,090,42,10,18,292,43,13,24,045,41,15,62,037,46*74
###2023-11-09 13:06:34.335705$GPGSV,2,2,07,18,77,281,47,23,49,314,45,24,49,137,46,,,,*48
###2023-11-09 13:06:34.338285$GLGSV,2,1,05,70,50,016,36,71,48,288,48,80,17,091,45,85,58,203,48*6D
###2023-11-09 13:06:34.339887$GLGSV,2,2,05,86,52,309,47,,,,,,,,,,,,*50
###2023-11-09 13:06:34.342443$GAGSV,1,1,04,07,72,255,46,08,49,042,44,13,64,160,44,26,56,311,45*6F
###2023-11-09 13:06:34.345011$GBGSV,2,1,06,11,24,180,41,14,65,006,46,24,19,133,43,26,23,082,42*67
###2023-11-09 13:06:34.346955$GBGSV,2,2,06,28,43,289,47,33,58,302,47,,,,,,,,*6F
###2023-11-09 13:06:34.348388$GNVTG,29.60,T,,M,0.60,N,1.12,K,A*1A
###2023-11-09 13:06:34.434003$GNGGA,130634.60,3611.0430354,N,07544.9794202,W,1,24,0.6,0.924,M,-39.961,M,0.0,*6C
###2023-11-09 13:06:34.436594$GPGSV,2,1,07,05,21,090,42,10,18,292,44,13,24,045,41,15,62,037,46*73
###2023-11-09 13:06:34.438892$GPGSV,2,2,07,18,77,281,47,23,49,314,45,24,49,137,46,,,,*48
###2023-11-09 13:06:34.441456$GLGSV,2,1,05,70,50,016,36,71,48,288,48,80,17,091,45,85,58,203,48*6D
###2023-11-09 13:06:34.443063$GLGSV,2,2,05,86,52,309,47,,,,,,,,,,,,*50
###2023-11-09 13:06:34.445638$GAGSV,1,1,04,07,72,255,45,08,49,042,44,13,64,160,44,26,56,311,45*6C
###2023-11-09 13:06:34.448214$GBGSV,2,1,06,11,24,180,41,14,65,006,46,24,19,133,43,26,23,082,42*67
###2023-11-09 13:06:34.450140$GBGSV,2,2,06,28,43,289,47,33,58,302,47,,,,,,,,*6F
###2023-11-09 13:06:34.451569$GNVTG,29.60,T,,M,0.58,N,1.08,K,A*1A
###2023-11-09 13:06:34.532230$GNGGA,130634.70,3611.0430508,N,07544.9794208,W,1,24,0.6,0.939,M,-39.961,M,0.0,*64
###2023-11-09 13:06:34.534818$GPGSV,2,1,07,05,21,090,42,10,18,292,44,13,24,045,41,15,62,037,46*73
###2023-11-09 13:06:34.537088$GPGSV,2,2,07,18,77,281,47,23,49,314,45,24,49,137,46,,,,*48
###2023-11-09 13:06:34.539656$GLGSV,2,1,05,70,50,016,36,71,48,288,48,80,17,091,45,85,58,203,48*6D
###2023-11-09 13:06:34.541257$GLGSV,2,2,05,86,52,309,48,,,,,,,,,,,,*5F
###2023-11-09 13:06:34.543814$GAGSV,1,1,04,07,72,255,46,08,49,042,44,13,64,160,44,26,56,311,45*6F
###2023-11-09 13:06:34.546701$GBGSV,2,1,06,11,24,180,41,14,65,006,46,24,19,133,43,26,23,082,42*67
###2023-11-09 13:06:34.548652$GBGSV,2,2,06,28,43,289,47,33,58,302,47,,,,,,,,*6F
###2023-11-09 13:06:34.550079$GNVTG,29.60,T,,M,0.52,N,0.97,K,A*17
###2023-11-09 13:06:34.632508$GNGGA,130634.80,3611.0430661,N,07544.9794252,W,1,24,0.6,0.961,M,-39.961,M,0.0,*65
###2023-11-09 13:06:34.635105$GPGSV,2,1,07,05,21,090,42,10,18,292,44,13,24,045,41,15,62,037,45*70
###2023-11-09 13:06:34.637388$GPGSV,2,2,07,18,77,281,47,23,49,314,45,24,49,137,45,,,,*4B
###2023-11-09 13:06:34.639978$GLGSV,2,1,05,70,50,016,36,71,48,288,48,80,17,091,44,85,58,203,48*6C
###2023-11-09 13:06:34.641593$GLGSV,2,2,05,86,52,309,47,,,,,,,,,,,,*50
###2023-11-09 13:06:34.644167$GAGSV,1,1,04,07,72,255,46,08,49,042,44,13,64,160,44,26,56,311,45*6F
