###2023-11-09 13:06:55.836893$GPGSV,2,2,07,18,77,281,47,23,50,315,45,24,49,136,46,,,,*40
###2023-11-09 13:06:55.839512$GLGSV,2,1,05,70,50,016,35,71,48,288,48,80,17,091,43,85,58,203,48*68
###2023-11-09 13:06:55.841121$GLGSV,2,2,05,86,52,309,47,,,,,,,,,,,,*50
###2023-11-09 13:06:55.843691$GAGSV,1,1,04,07,72,255,45,08,49,042,44,13,64,160,44,26,56,311,45*6C
###2023-11-09 13:06:55.846271$GBGSV,2,1,06,11,24,180,42,14,65,006,45,24,19,133,43,26,23,082,43*66
###2023-11-09 13:06:55.848221$GBGSV,2,2,06,28,43,289,47,33,58,302,47,,,,,,,,*6F
###2023-11-09 13:06:55.849651$GNVTG,27.79,T,,M,0.87,N,1.62,K,A*12
###2023-11-09 13:06:55.938033$GNGGA,130656.10,3611.0475800,N,07544.9778240,W,1,24,0.6,0.953,M,-39.961,M,0.0,*60
###2023-11-09 13:06:55.940647$GPGSV,2,1,07,05,21,090,42,10,18,292,44,13,24,045,42,15,62,037,45*73
###2023-11-09 13:06:55.942911$GPGSV,2,2,07,18,77,281,47,23,50,315,45,24,49,136,46,,,,*40
###2023-11-09 13:06:55.945493$GLGSV,2,1,05,70,50,016,35,71,48,288,48,80,17,091,44,85,58,203,48*6F
###2023-11-09 13:06:55.947128$GLGSV,2,2,05,86,52,309,47,,,,,,,,,,,,*50
###2023-11-09 13:06:55.949694$GAGSV,1,1,04,07,72,255,45,08,49,042,44,13,64,160,44,26,56,311,45*6C
###2023-11-09 13:06:55.952272$GBGSV,2,1,06,11,24,180,42,14,65,006,45,24,19,133,44,26,23,082,43*61
###2023-11-09 13:06:55.954204$GBGSV,2,2,06,28,43,289,47,33,58,302,47,,,,,,,,*6F
###2023-11-09 13:06:55.955633$GNVTG,27.79,T,,M,0.97,N,1.80,K,A*1F
###2023-11-09 13:06:56.032595$GNGGA,130656.20,3611.0476063,N,07544.9778094,W,1,24,0.6,0.982,M,-39.961,M,0.0,*6A
###2023-11-09 13:06:56.035164$GPGSV,2,1,07,05,21,090,42,10,18,292,44,13,24,045,42,15,62,037,45*73
###2023-11-09 13:06:56.037433$GPGSV,2,2,07,18,77,281,47,23,50,315,45,24,49,136,46,,,,*40
###2023-11-09 13:06:56.040000$GLGSV,2,1,05,70,50,016,35,71,48,288,48,80,17,091,44,85,58,203,48*6F
###2023-11-09 13:06:56.041607$GLGSV,2,2,05,86,52,309,47,,,,,,,,,,,,*50
###2023-11-09 13:06:56.044162$GAGSV,1,1,04,07,72,255,45,08,49,042,44,13,64,160,44,26,56,311,45*6C
###2023-11-09 13:06:56.046732$GBGSV,2,1,06,11,24,180,42,14,65,006,45,24,19,133,44,26,23,082,43*61
###2023-11-09 13:06:56.048672$GBGSV,2,2,06,28,43,289,47,33,58,302,47,,,,,,,,*6F
###2023-11-09 13:06:56.050099$GNVTG,24.08,T,,M,1.11,N,2.05,K,A*1B
###2023-11-09 13:06:56.133709$GNGGA,130656.30,3611.0476360,N,07544.9777945,W,1,24,0.6,1.013,M,-39.961,M,0.0,*61
###2023-11-09 13:06:56.136281$GPGSV,2,1,07,05,21,090,42,10,18,292,44,13,24,045,42,15,62,037,45*73
###2023-11-09 13:06:56.138542$GPGSV,2,2,07,18,77,281,47,23,50,315,45,24,49,136,46,,,,*40
###2023-11-09 13:06:56.141093$GLGSV,2,1,05,70,50,016,35,71,48,288,48,80,17,091,44,85,58,203,48*6F
###2023-11-09 13:06:56.142694$GLGSV,2,2,05,86,52,309,47,,,,,,,,,,,,*50
###2023-11-09 13:06:56.145242$GAGSV,1,1,04,07,72,255,45,08,49,042,45,13,64,160,44,26,56,311,45*6D
###2023-11-09 13:06:56.147814$GBGSV,2,1,06,11,24,180,42,14,65,006,45,24,19,133,44,26,23,082,43*61
###2023-11-09 13:06:56.149734$GBGSV,2,2,06,28,43,289,47,33,58,302,47,,,,,,,,*6F
###2023-11-09 13:06:56.151168$GNVTG,21.41,T,,M,1.21,N,2.23,K,A*14
###2023-11-09 13:06:56.229873$GNGGA,130656.40,3611.0476665,N,07544.9777797,W,1,24,0.6,1.032,M,-39.961,M,0.0,*64
###2023-11-09 13:06:56.232458$GPGSV,2,1,07,05,21,090,42,10,18,292,44,13,24,045,42,15,62,037,45*73
###2023-11-09 13:06:56.234711$GPGSV,2,2,07,18,77,281,47,23,50,315,45,24,49,136,46,,,,*40
###2023-11-09 13:06:56.237291$GLGSV,2,1,05,70,50,016,35,71,48,288,48,80,17,091,43,85,58,203,47*67
###2023-11-09 13:06:56.238902$GLGSV,2,2,05,86,52,309,47,,,,,,,,,,,,*50
###2023-11-09 13:06:56.241468$GAGSV,1,1,04,07,72,255,45,08,49,042,45,13,64,160,44,26,56,311,45*6D
###2023-11-09 13:06:56.244048$GBGSV,2,1,06,11,24,180,40,14,65,006,45,24,19,133,43,26,23,082,43*64
###2023-11-09 13:06:56.245983$GBGSV,2,2,06,28,43,289,47,33,58,302,47,,,,,,,,*6F
###2023-11-09 13:06:56.247420$GNVTG,23.63,T,,M,1.17,N,2.16,K,A*15
###2023-11-09 13:06:56.330850$GNGGA,130656.50,3611.0476936,N,07544.9777651,W,1,24,0.6,1.044,M,-39.961,M,0.0,*66
###2023-11-09 13:06:56.333433$GPGSV,2,1,07,05,21,090,42,10,18,292,44,13,24,045,42,15,62,037,46*70
###2023-11-09 13:06:56.335683$GPGSV,2,2,07,18,77,281,47,23,50,315,45,24,49,136,46,,,,*40
###2023-11-09 13:06:56.338268$GLGSV,2,1,05,70,50,016,35,71,48,288,48,80,17,091,43,85,58,203,47*67
###2023-11-09 13:06:56.339871$GLGSV,2,2,05,86,52,309,48,,,,,,,,,,,,*5F
###2023-11-09 13:06:56.342431$GAGSV,1,1,04,07,72,255,45,08,49,042,44,13,64,160,44,26,56,311,45*6C
###2023-11-09 13:06:56.344998$GBGSV,2,1,06,11,24,180,40,14,65,006,45,24,19,133,42,26,23,082,43*65
###2023-11-09 13:06:56.346947$GBGSV,2,2,06,28,43,289,47,33,58,302,47,,,,,,,,*6F
###2023-11-09 13:06:56.348372$GNVTG,23.63,T,,M,0.97,N,1.80,K,A*10
###2023-11-09 13:06:56.429802$GNGGA,130656.60,3611.0477144,N,07544.9777512,W,1,24,0.6,1.050,M,-39.961,M,0.0,*68
###2023-11-09 13:06:56.432420$GPGSV,2,1,07,05,21,090,42,10,18,292,43,13,24,045,42,15,62,037,46*77
###2023-11-09 13:06:56.434671$GPGSV,2,2,07,18,77,281,47,23,50,315,45,24,49,136,46,,,,*40
###2023-11-09 13:06:56.437251$GLGSV,2,1,05,70,50,016,35,71,48,288,48,80,17,091,43,85,58,203,47*67
###2023-11-09 13:06:56.438858$GLGSV,2,2,05,86,52,309,48,,,,,,,,,,,,*5F
###2023-11-09 13:06:56.441414$GAGSV,1,1,04,07,72,255,45,08,49,042,44,13,64,160,44,26,56,311,45*6C
###2023-11-09 13:06:56.443974$GBGSV,2,1,06,11,24,180,41,14,65,006,45,24,19,133,41,26,23,082,43*67
###2023-11-09 13:06:56.445906$GBGSV,2,2,06,28,43,289,47,33,58,302,47,,,,,,,,*6F
###2023-11-09 13:06:56.447339$GNVTG,23.63,T,,M,0.74,N,1.37,K,A*11
###2023-11-09 13:06:56.529761$GNGGA,130656.70,3611.0477297,N,07544.9777383,W,1,24,0.6,1.049,M,-39.961,M,0.0,*62
###2023-11-09 13:06:56.532360$GPGSV,2,1,07,05,21,090,42,10,18,292,43,13,24,045,42,15,62,037,46*77
###2023-11-09 13:06:56.534607$GPGSV,2,2,07,18,77,281,47,23,50,315,45,24,49,136,46,,,,*40
###2023-11-09 13:06:56.537190$GLGSV,2,1,05,70,50,016,35,71,48,288,48,80,17,091,43,85,58,203,48*68
###2023-11-09 13:06:56.538796$GLGSV,2,2,05,86,52,309,47,,,,,,,,,,,,*50
###2023-11-09 13:06:56.541359$GAGSV,1,1,04,07,72,255,45,08,49,042,44,13,64,160,44,26,56,311,45*6C
###2023-11-09 13:06:56.543932$GBGSV,2,1,06,11,24,180,42,14,65,006,45,24,19,133,43,26,23,082,43*66
###2023-11-09 13:06:56.545858$GBGSV,2,2,06,28,43,289,47,33,58,302,47,,,,,,,,*6F
###2023-11-09 13:06:56.547300$GNVTG,23.63,T,,M,0.60,N,1.12,K,A*13
###2023-11-09 13:06:56.629777$GNGGA,130656.80,3611.0477436,N,07544.9777266,W,1,24,0.6,1.044,M,-39.961,M,0.0,*67
###2023-11-09 13:06:56.632375$GPGSV,2,1,07,05,21,090,41,10,18,292,43,13,24,045,42,15,62,037,45*77
###2023-11-09 13:06:56.634621$GPGSV,2,2,07,18,77,281,47,23,50,315,45,24,49,136,46,,,,*40
###2023-11-09 13:06:56.637202$GLGSV,2,1,05,70,50,016,35,71,48,288,48,80,17,091,43,85,58,203,48*68
###2023-11-09 13:06:56.638812$GLGSV,2,2,05,86,52,309,47,,,,,,,,,,,,*50
###2023-11-09 13:06:56.641380$GAGSV,1,1,04,07,72,255,45,08,49,042,44,13,64,160,45,26,56,311,44*6C
###2023-11-09 13:06:56.643965$GBGSV,2,1,06,11,24,180,42,14,65,006,45,24,19,133,43,26,23,082,43*66
###2023-11-09 13:06:56.645894$GBGSV,2,2,06,28,43,289,47,33,58,302,47,,,,,,,,*6F
###2023-11-09 13:06:56.647335$GNVTG,23.63,T,,M,0.62,N,1.15,K,A*16
###2023-11-09 13:06:56.729738$GNGGA,130656.90,3611.0477608,N,07544.9777141,W,1,24,0.6,1.039,M,-39.961,M,0.0,*65
###2023-11-09 13:06:56.732307$GPGSV,2,1,07,05,21,090,41,10,18,292,43,13,24,045,41,15,62,037,45*74
###2023-11-09 13:06:56.734542$GPGSV,2,2,07,18,77,281,47,23,50,315,45,24,49,136,46,,,,*40
###2023-11-09 13:06:56.737108$GLGSV,2,1,05,70,50,016,35,71,48,288,48,80,17,091,43,85,58,203,48*68
###2023-11-09 13:06:56.738703$GLGSV,2,2,05,86,52,309,47,,,,,,,,,,,,*50
###2023-11-09 13:06:56.741262$GAGSV,1,1,04,07,72,255,45,08,49,042,43,13,64,160,45,26,56,311,44*6B
###2023-11-09 13:06:56.743822$GBGSV,2,1,06,11,24,180,42,14,65,006,45,24,19,133,44,26,23,082,43*61
###2023-11-09 13:06:56.745734$GBGSV,2,2,06,28,43,289,47,33,58,302,47,,,,,,,,*6F
###2023-11-09 13:06:56.747170$GNVTG,23.63,T,,M,0.84,N,1.55,K,A*1A
###2023-11-09 13:06:56.830874$GNGGA,130657.00,3611.0477835,N,07544.9776996,W,1,24,0.6,1.038,M,-39.961,M,0.0,*6F
###2023-11-09 13:06:56.833483$GPGSV,2,1,07,05,21,090,41,10,18,292,43,13,24,045,40,15,62,037,45*75
###2023-11-09 13:06:56.835739$GPGSV,2,2,07,18,77,281,47,23,50,315,45,24,49,136,47,,,,*41
###2023-11-09 13:06:56.838660$GLGSV,2,1,05,70,50,016,35,71,48,288,48,80,17,091,43,85,58,203,48*68
###2023-11-09 13:06:56.840281$GLGSV,2,2,05,86,52,309,47,,,,,,,,,,,,*50
###2023-11-09 13:06:56.842850$GAGSV,1,1,04,07,72,255,45,08,49,042,44,13,64,160,45,26,56,311,44*6C
###2023-11-09 13:06:56.845435$GBGSV,2,1,06,11,24,180,42,14,65,006,45,24,19,133,44,26,23,082,42*60
###2023-11-09 13:06:56.847387$GBGSV,2,2,06,28,43,289,47,33,58,302,47,,,,,,,,*6F
###2023-11-09 13:06:56.848815$GNVTG,27.43,T,,M,1.03,N,1.91,K,A*1A
###2023-11-09 13:06:56.931766$GNGGA,130657.10,3611.0478073,N,07544.9776843,W,1,24,0.6,1.040,M,-39.961,M,0.0,*6D
###2023-11-09 13:06:56.934389$GPGSV,2,1,07,05,21,090,41,10,18,292,43,13,24,045,42,15,62,037,45*77
###2023-11-09 13:06:56.936656$GPGSV,2,2,07,18,77,281,47,23,50,315,45,24,49,136,47,,,,*41
