###2023-11-09 13:10:15.337626$GLGSV,2,2,05,86,54,306,47,,,,,,,,,,,,*59
###2023-11-09 13:10:15.340201$GAGSV,1,1,04,07,73,259,45,08,48,043,45,13,63,161,44,26,57,310,45*66
###2023-11-09 13:10:15.342758$GBGSV,2,1,06,11,22,180,38,14,65,009,46,24,21,132,42,26,23,080,43*68
###2023-11-09 13:10:15.344688$GBGSV,2,2,06,28,43,286,48,33,59,305,48,,,,,,,,*66
###2023-11-09 13:10:15.346109$GNVTG,90.03,T,,M,4.18,N,7.74,K,A*10
###2023-11-09 13:10:15.427894$GNGGA,131015.60,3611.0498263,N,07544.8807830,W,1,24,0.6,0.701,M,-39.961,M,0.0,*69
###2023-11-09 13:10:15.430504$GPGSV,2,1,07,05,20,090,40,10,19,293,45,13,24,045,43,15,61,037,45*73
###2023-11-09 13:10:15.432760$GPGSV,2,2,07,18,78,277,46,23,50,316,45,24,50,134,45,,,,*4D
###2023-11-09 13:10:15.435341$GLGSV,2,1,05,70,49,019,35,71,48,291,49,80,19,089,42,85,56,202,47*60
###2023-11-09 13:10:15.436976$GLGSV,2,2,05,86,54,306,47,,,,,,,,,,,,*59
###2023-11-09 13:10:15.439553$GAGSV,1,1,04,07,73,259,45,08,48,043,45,13,63,161,44,26,57,310,45*66
###2023-11-09 13:10:15.442135$GBGSV,2,1,06,11,22,180,39,14,65,009,45,24,21,132,42,26,23,080,43*6A
###2023-11-09 13:10:15.444078$GBGSV,2,2,06,28,43,286,47,33,59,305,48,,,,,,,,*69
###2023-11-09 13:10:15.445506$GNVTG,97.29,T,,M,4.24,N,7.85,K,A*1E
###2023-11-09 13:10:15.529241$GNGGA,131015.70,3611.0498093,N,07544.8806404,W,1,24,0.6,0.693,M,-39.961,M,0.0,*65
###2023-11-09 13:10:15.531829$GPGSV,2,1,07,05,20,090,40,10,19,293,44,13,24,045,41,15,61,037,45*70
###2023-11-09 13:10:15.534080$GPGSV,2,2,07,18,78,277,46,23,50,316,45,24,50,134,46,,,,*4E
###2023-11-09 13:10:15.536649$GLGSV,2,1,05,70,49,019,35,71,48,291,48,80,19,089,42,85,56,202,48*6E
###2023-11-09 13:10:15.538279$GLGSV,2,2,05,86,54,306,47,,,,,,,,,,,,*59
###2023-11-09 13:10:15.540851$GAGSV,1,1,04,07,73,259,45,08,48,043,44,13,63,161,45,26,57,310,44*67
###2023-11-09 13:10:15.543426$GBGSV,2,1,06,11,22,180,41,14,65,009,45,24,21,132,44,26,23,080,42*62
###2023-11-09 13:10:15.545372$GBGSV,2,2,06,28,43,286,46,33,59,305,46,,,,,,,,*66
###2023-11-09 13:10:15.546793$GNVTG,98.91,T,,M,4.18,N,7.74,K,A*13
###2023-11-09 13:10:15.628236$GNGGA,131015.80,3611.0497967,N,07544.8805015,W,1,24,0.6,0.690,M,-39.961,M,0.0,*63
###2023-11-09 13:10:15.630797$GPGSV,2,1,07,05,20,090,41,10,19,293,44,13,24,045,39,15,61,037,44*7F
###2023-11-09 13:10:15.633043$GPGSV,2,2,07,18,78,277,46,23,50,316,44,24,50,134,47,,,,*4E
###2023-11-09 13:10:15.635611$GLGSV,2,1,05,70,49,019,35,71,48,291,48,80,19,089,42,85,56,202,50*67
###2023-11-09 13:10:15.637214$GLGSV,2,2,05,86,54,306,47,,,,,,,,,,,,*59
###2023-11-09 13:10:15.639769$GAGSV,1,1,04,07,73,259,45,08,48,043,43,13,63,161,45,26,57,310,43*67
###2023-11-09 13:10:15.642347$GBGSV,2,1,06,11,22,180,43,14,65,009,45,24,21,132,45,26,23,080,42*61
###2023-11-09 13:10:15.644277$GBGSV,2,2,06,28,43,286,46,33,59,305,46,,,,,,,,*66
###2023-11-09 13:10:15.645698$GNVTG,93.54,T,,M,3.98,N,7.38,K,A*16
###2023-11-09 13:10:15.727264$GNGGA,131015.90,3611.0498034,N,07544.8803703,W,1,24,0.6,0.717,M,-39.961,M,0.0,*6A
###2023-11-09 13:10:15.729853$GPGSV,2,1,07,05,20,090,41,10,19,293,43,13,24,045,38,15,61,037,44*79
###2023-11-09 13:10:15.732092$GPGSV,2,2,07,18,78,277,46,23,50,316,44,24,50,134,47,,,,*4E
###2023-11-09 13:10:15.734659$GLGSV,2,1,05,70,49,019,35,71,48,291,48,80,19,089,42,85,56,202,50*67
###2023-11-09 13:10:15.736265$GLGSV,2,2,05,86,54,306,46,,,,,,,,,,,,*58
###2023-11-09 13:10:15.738841$GAGSV,1,1,04,07,73,259,45,08,48,043,43,13,63,161,46,26,57,310,43*64
###2023-11-09 13:10:15.741406$GBGSV,2,1,06,11,22,180,43,14,65,009,44,24,21,132,45,26,23,080,42*60
###2023-11-09 13:10:15.743328$GBGSV,2,2,06,28,43,286,46,33,59,305,46,,,,,,,,*66
###2023-11-09 13:10:15.744752$GNVTG,78.63,T,,M,3.75,N,6.95,K,A*12
###2023-11-09 13:10:15.833250$GNGGA,131016.00,3611.0498376,N,07544.8802474,W,1,24,0.6,0.771,M,-39.961,M,0.0,*67
###2023-11-09 13:10:15.835824$GPGSV,2,1,07,05,20,090,41,10,19,293,44,13,24,045,38,15,61,037,44*7E
###2023-11-09 13:10:15.838091$GPGSV,2,2,07,18,78,277,46,23,50,316,43,24,50,134,46,,,,*48
###2023-11-09 13:10:15.840659$GLGSV,2,1,05,70,49,019,35,71,48,291,48,80,19,089,42,85,56,202,50*67
###2023-11-09 13:10:15.842262$GLGSV,2,2,05,86,54,306,47,,,,,,,,,,,,*59
###2023-11-09 13:10:15.844819$GAGSV,1,1,04,07,73,259,45,08,48,043,43,13,63,161,45,26,57,310,43*67
###2023-11-09 13:10:15.847407$GBGSV,2,1,06,11,22,180,43,14,65,009,44,24,21,132,44,26,23,080,42*61
###2023-11-09 13:10:15.849349$GBGSV,2,2,06,28,43,286,47,33,59,305,46,,,,,,,,*67
###2023-11-09 13:10:15.850775$GNVTG,63.82,T,,M,3.89,N,7.20,K,A*1B
###2023-11-09 13:10:15.930625$GNGGA,131016.10,3611.0498786,N,07544.8801256,W,1,24,0.6,0.819,M,-39.961,M,0.0,*69
###2023-11-09 13:10:15.933226$GPGSV,2,1,07,05,20,091,41,10,19,293,45,13,24,045,40,15,61,037,45*70
###2023-11-09 13:10:15.935479$GPGSV,2,2,07,18,78,277,46,23,50,316,45,24,50,134,46,,,,*4E
###2023-11-09 13:10:15.938056$GLGSV,2,1,05,70,49,019,35,71,48,291,49,80,19,089,42,85,56,202,48*6F
###2023-11-09 13:10:15.939663$GLGSV,2,2,05,86,54,306,48,,,,,,,,,,,,*56
###2023-11-09 13:10:15.942221$GAGSV,1,1,04,07,73,259,45,08,48,043,45,13,63,161,45,26,57,310,44*66
###2023-11-09 13:10:15.944776$GBGSV,2,1,06,11,22,180,41,14,65,009,45,24,21,132,43,26,23,080,42*65
###2023-11-09 13:10:15.946697$GBGSV,2,2,06,28,43,286,47,33,59,305,47,,,,,,,,*66
###2023-11-09 13:10:15.948132$GNVTG,70.90,T,,M,3.83,N,7.09,K,A*1B
###2023-11-09 13:10:16.031486$GNGGA,131016.20,3611.0499019,N,07544.8799977,W,1,24,0.6,0.831,M,-39.961,M,0.0,*66
###2023-11-09 13:10:16.034089$GPGSV,2,1,07,05,20,091,40,10,19,293,45,13,24,045,42,15,61,037,45*73
###2023-11-09 13:10:16.036346$GPGSV,2,2,07,18,78,277,47,23,50,316,45,24,50,134,45,,,,*4C
###2023-11-09 13:10:16.038940$GLGSV,2,1,05,70,49,019,35,71,48,291,49,80,19,089,42,85,56,202,48*6F
###2023-11-09 13:10:16.040547$GLGSV,2,2,05,86,54,306,48,,,,,,,,,,,,*56
###2023-11-09 13:10:16.043103$GAGSV,1,1,04,07,73,259,45,08,48,043,45,13,63,161,45,26,57,310,44*66
###2023-11-09 13:10:16.045674$GBGSV,2,1,06,11,22,180,40,14,65,009,46,24,21,132,40,26,23,080,42*64
###2023-11-09 13:10:16.047625$GBGSV,2,2,06,28,43,286,47,33,59,305,48,,,,,,,,*69
###2023-11-09 13:10:16.049059$GNVTG,83.60,T,,M,3.89,N,7.20,K,A*19
###2023-11-09 13:10:16.129604$GNGGA,131016.30,3611.0499001,N,07544.8798636,W,1,24,0.6,0.821,M,-39.961,M,0.0,*64
###2023-11-09 13:10:16.132188$GPGSV,2,1,07,05,20,091,40,10,19,293,45,13,24,045,43,15,61,037,45*72
###2023-11-09 13:10:16.134435$GPGSV,2,2,07,18,78,277,47,23,50,316,46,24,50,134,45,,,,*4F
###2023-11-09 13:10:16.137013$GLGSV,2,1,05,70,49,019,35,71,48,291,49,80,19,089,42,85,56,202,47*60
###2023-11-09 13:10:16.138617$GLGSV,2,2,05,86,54,306,48,,,,,,,,,,,,*56
###2023-11-09 13:10:16.141174$GAGSV,1,1,04,07,73,259,45,08,48,043,45,13,63,161,45,26,57,310,45*67
###2023-11-09 13:10:16.143737$GBGSV,2,1,06,11,22,180,39,14,65,009,46,24,21,132,40,26,23,080,42*6A
###2023-11-09 13:10:16.145667$GBGSV,2,2,06,28,43,286,47,33,59,305,48,,,,,,,,*69
###2023-11-09 13:10:16.147104$GNVTG,96.94,T,,M,4.02,N,7.45,K,A*11
###2023-11-09 13:10:16.229476$GNGGA,131016.40,3611.0498794,N,07544.8797254,W,1,24,0.6,0.801,M,-39.961,M,0.0,*64
###2023-11-09 13:10:16.232037$GPGSV,2,1,07,05,20,091,41,10,19,293,45,13,24,045,41,15,61,037,44*70
###2023-11-09 13:10:16.234268$GPGSV,2,2,07,18,78,277,47,23,50,316,45,24,50,134,46,,,,*4F
###2023-11-09 13:10:16.236812$GLGSV,2,1,05,70,49,019,35,71,48,291,49,80,19,089,42,85,56,202,48*6F
###2023-11-09 13:10:16.238417$GLGSV,2,2,05,86,54,306,48,,,,,,,,,,,,*56
###2023-11-09 13:10:16.240962$GAGSV,1,1,04,07,73,259,45,08,48,043,45,13,63,161,45,26,57,310,45*67
###2023-11-09 13:10:16.243508$GBGSV,2,1,06,11,22,180,41,14,65,009,45,24,21,132,43,26,23,080,42*65
###2023-11-09 13:10:16.245420$GBGSV,2,2,06,28,43,286,46,33,59,305,47,,,,,,,,*67
###2023-11-09 13:10:16.246865$GNVTG,102.65,T,,M,4.20,N,7.78,K,A*2D
###2023-11-09 13:10:16.329509$GNGGA,131016.50,3611.0498578,N,07544.8795881,W,1,24,0.6,0.772,M,-39.961,M,0.0,*6E
###2023-11-09 13:10:16.332098$GPGSV,2,1,07,05,20,091,41,10,19,293,43,13,24,045,41,15,61,037,44*76
###2023-11-09 13:10:16.334344$GPGSV,2,2,07,18,78,277,47,23,50,316,44,24,50,134,46,,,,*4E
###2023-11-09 13:10:16.336944$GLGSV,2,1,05,70,49,019,35,71,48,291,48,80,19,089,43,85,56,202,49*6E
###2023-11-09 13:10:16.338555$GLGSV,2,2,05,86,54,306,47,,,,,,,,,,,,*59
###2023-11-09 13:10:16.341427$GAGSV,1,1,04,07,73,259,45,08,48,043,45,13,63,161,45,26,57,310,44*66
###2023-11-09 13:10:16.344020$GBGSV,2,1,06,11,22,180,42,14,65,009,45,24,21,132,45,26,23,080,42*60
###2023-11-09 13:10:16.345964$GBGSV,2,2,06,28,43,286,46,33,59,305,46,,,,,,,,*66
###2023-11-09 13:10:16.347409$GNVTG,98.14,T,,M,3.98,N,7.38,K,A*19
###2023-11-09 13:10:16.430720$GNGGA,131016.60,3611.0498563,N,07544.8794555,W,1,24,0.6,0.749,M,-39.961,M,0.0,*6A
###2023-11-09 13:10:16.433309$GPGSV,2,1,07,05,20,091,41,10,19,293,43,13,24,045,39,15,61,037,44*79
###2023-11-09 13:10:16.435568$GPGSV,2,2,07,18,78,277,46,23,50,316,44,24,50,134,46,,,,*4F
###2023-11-09 13:10:16.438158$GLGSV,2,1,05,70,49,019,35,71,48,291,48,80,19,089,43,85,56,202,49*6E
###2023-11-09 13:10:16.439764$GLGSV,2,2,05,86,54,306,47,,,,,,,,,,,,*59
