###2023-11-09 13:07:16.943224$GAGSV,1,1,04,07,72,257,45,08,49,042,44,13,64,160,45,26,56,310,44*6F
###2023-11-09 13:07:16.945837$GBGSV,2,1,06,11,24,180,41,14,65,006,45,24,19,133,43,26,23,082,43*65
###2023-11-09 13:07:16.947802$GBGSV,2,2,06,28,43,289,47,33,58,302,47,,,,,,,,*6F
###2023-11-09 13:07:16.949270$GNVTG,292.86,T,,M,1.32,N,2.45,K,A*27
###2023-11-09 13:07:17.033114$GNGGA,130717.20,3611.0521874,N,07544.9775690,W,1,24,0.6,1.498,M,-39.961,M,0.0,*6B
###2023-11-09 13:07:17.035711$GPGSV,2,1,07,05,21,090,42,10,18,292,43,13,24,045,42,15,62,037,46*77
###2023-11-09 13:07:17.038005$GPGSV,2,2,07,18,77,281,47,23,50,315,45,24,49,136,45,,,,*43
###2023-11-09 13:07:17.040599$GLGSV,2,1,05,70,50,016,35,71,48,288,47,80,17,091,44,85,58,203,48*60
###2023-11-09 13:07:17.042221$GLGSV,2,2,05,86,52,309,47,,,,,,,,,,,,*50
###2023-11-09 13:07:17.044807$GAGSV,1,1,04,07,72,257,45,08,49,042,44,13,64,160,45,26,56,310,44*6F
###2023-11-09 13:07:17.047404$GBGSV,2,1,06,11,24,180,41,14,65,006,45,24,19,133,43,26,23,082,43*65
###2023-11-09 13:07:17.049343$GBGSV,2,2,06,28,43,289,46,33,58,302,47,,,,,,,,*6E
###2023-11-09 13:07:17.050815$GNVTG,287.45,T,,M,1.24,N,2.30,K,A*29
###2023-11-09 13:07:17.130222$GNGGA,130717.30,3611.0521907,N,07544.9776085,W,1,24,0.6,1.442,M,-39.961,M,0.0,*69
###2023-11-09 13:07:17.132811$GPGSV,2,1,07,05,21,090,43,10,18,292,43,13,24,045,43,15,62,037,46*77
###2023-11-09 13:07:17.135063$GPGSV,2,2,07,18,77,281,47,23,50,315,45,24,49,136,45,,,,*43
###2023-11-09 13:07:17.137647$GLGSV,2,1,05,70,50,016,35,71,48,288,47,80,17,091,44,85,58,203,48*60
###2023-11-09 13:07:17.139243$GLGSV,2,2,05,86,52,309,48,,,,,,,,,,,,*5F
###2023-11-09 13:07:17.141796$GAGSV,1,1,04,07,72,257,45,08,49,042,44,13,64,160,45,26,56,310,44*6F
###2023-11-09 13:07:17.144355$GBGSV,2,1,06,11,24,180,41,14,65,006,45,24,19,133,43,26,23,082,43*65
###2023-11-09 13:07:17.146277$GBGSV,2,2,06,28,43,289,46,33,58,302,47,,,,,,,,*6E
###2023-11-09 13:07:17.147753$GNVTG,263.50,T,,M,1.15,N,2.12,K,A*25
###2023-11-09 13:07:17.230244$GNGGA,130717.40,3611.0521818,N,07544.9776453,W,1,24,0.6,1.383,M,-39.961,M,0.0,*64
###2023-11-09 13:07:17.232830$GPGSV,2,1,07,05,21,090,43,10,18,292,43,13,24,045,43,15,62,037,46*77
###2023-11-09 13:07:17.235087$GPGSV,2,2,07,18,77,281,47,23,50,315,45,24,49,136,45,,,,*43
###2023-11-09 13:07:17.237682$GLGSV,2,1,05,70,50,016,35,71,48,288,47,80,17,091,44,85,58,203,48*60
###2023-11-09 13:07:17.239291$GLGSV,2,2,05,86,52,309,48,,,,,,,,,,,,*5F
###2023-11-09 13:07:17.241853$GAGSV,1,1,04,07,72,257,45,08,49,042,45,13,64,160,45,26,56,310,44*6E
###2023-11-09 13:07:17.244415$GBGSV,2,1,06,11,24,180,41,14,65,006,45,24,19,133,43,26,23,082,43*65
###2023-11-09 13:07:17.246345$GBGSV,2,2,06,28,43,289,47,33,58,302,47,,,,,,,,*6F
###2023-11-09 13:07:17.247820$GNVTG,244.61,T,,M,1.15,N,2.12,K,A*22
###2023-11-09 13:07:17.330986$GNGGA,130717.50,3611.0521664,N,07544.9776766,W,1,24,0.6,1.326,M,-39.961,M,0.0,*6A
###2023-11-09 13:07:17.333568$GPGSV,2,1,07,05,21,090,43,10,18,292,43,13,24,045,43,15,62,037,46*77
###2023-11-09 13:07:17.335821$GPGSV,2,2,07,18,77,281,47,23,50,315,45,24,49,136,46,,,,*40
###2023-11-09 13:07:17.338406$GLGSV,2,1,05,70,50,016,35,71,48,288,47,80,17,091,43,85,58,203,48*67
###2023-11-09 13:07:17.340015$GLGSV,2,2,05,86,52,309,48,,,,,,,,,,,,*5F
###2023-11-09 13:07:17.342582$GAGSV,1,1,04,07,72,257,44,08,49,042,45,13,64,160,45,26,56,310,44*6F
###2023-11-09 13:07:17.345166$GBGSV,2,1,06,11,24,180,41,14,65,006,45,24,19,133,43,26,23,082,43*65
###2023-11-09 13:07:17.347113$GBGSV,2,2,06,28,43,289,47,33,58,302,47,,,,,,,,*6F
###2023-11-09 13:07:17.348585$GNVTG,233.04,T,,M,1.01,N,1.87,K,A*2B
###2023-11-09 13:07:17.430234$GNGGA,130717.60,3611.0521556,N,07544.9777003,W,1,24,0.6,1.270,M,-39.961,M,0.0,*6C
###2023-11-09 13:07:17.432806$GPGSV,2,1,07,05,21,090,42,10,18,292,43,13,24,045,42,15,62,037,46*77
###2023-11-09 13:07:17.435047$GPGSV,2,2,07,18,77,281,47,23,50,315,45,24,49,136,46,,,,*40
###2023-11-09 13:07:17.437625$GLGSV,2,1,05,70,50,016,35,71,48,288,48,80,17,091,42,85,58,203,49*68
###2023-11-09 13:07:17.439226$GLGSV,2,2,05,86,52,309,47,,,,,,,,,,,,*50
###2023-11-09 13:07:17.441791$GAGSV,1,1,04,07,72,257,45,08,49,042,45,13,64,160,45,26,56,310,44*6E
###2023-11-09 13:07:17.444358$GBGSV,2,1,06,11,24,180,42,14,65,006,45,24,19,133,43,26,23,082,43*66
###2023-11-09 13:07:17.446293$GBGSV,2,2,06,28,43,289,47,33,58,302,47,,,,,,,,*6F
###2023-11-09 13:07:17.447760$GNVTG,233.04,T,,M,0.60,N,1.12,K,A*21
###2023-11-09 13:07:17.529138$GNGGA,130717.70,3611.0521612,N,07544.9777161,W,1,24,0.6,1.222,M,-39.961,M,0.0,*6C
###2023-11-09 13:07:17.531740$GPGSV,2,1,07,05,21,090,41,10,18,292,43,13,24,045,41,15,62,037,46*77
###2023-11-09 13:07:17.534009$GPGSV,2,2,07,18,77,281,47,23,50,315,45,24,49,136,46,,,,*40
###2023-11-09 13:07:17.536597$GLGSV,2,1,05,70,50,016,35,71,48,288,48,80,17,091,40,85,58,203,49*6A
###2023-11-09 13:07:17.538245$GLGSV,2,2,05,86,52,309,47,,,,,,,,,,,,*50
###2023-11-09 13:07:17.540829$GAGSV,1,1,04,07,72,257,45,08,49,042,44,13,64,160,45,26,56,310,44*6F
###2023-11-09 13:07:17.543407$GBGSV,2,1,06,11,24,180,42,14,65,006,45,24,19,133,43,26,23,082,43*66
###2023-11-09 13:07:17.545351$GBGSV,2,2,06,28,43,289,47,33,58,302,47,,,,,,,,*6F
###2023-11-09 13:07:17.546818$GNVTG,233.04,T,,M,0.66,N,1.22,K,A*24
###2023-11-09 13:07:17.631098$GNGGA,130717.80,3611.0521814,N,07544.9777240,W,1,24,0.6,1.185,M,-39.961,M,0.0,*65
###2023-11-09 13:07:17.633694$GPGSV,2,1,07,05,21,090,41,10,18,292,43,13,24,045,41,15,62,037,46*77
###2023-11-09 13:07:17.635953$GPGSV,2,2,07,18,77,281,47,23,50,315,45,24,49,136,46,,,,*40
###2023-11-09 13:07:17.638539$GLGSV,2,1,05,70,50,016,35,71,48,288,48,80,17,091,41,85,58,203,49*6B
###2023-11-09 13:07:17.640141$GLGSV,2,2,05,86,52,309,47,,,,,,,,,,,,*50
###2023-11-09 13:07:17.642708$GAGSV,1,1,04,07,72,257,45,08,49,042,44,13,64,160,45,26,56,310,44*6F
###2023-11-09 13:07:17.645284$GBGSV,2,1,06,11,24,180,42,14,65,006,45,24,19,133,43,26,23,082,43*66
###2023-11-09 13:07:17.647232$GBGSV,2,2,06,28,43,289,47,33,58,302,47,,,,,,,,*6F
###2023-11-09 13:07:17.648694$GNVTG,233.04,T,,M,0.91,N,1.69,K,A*23
###2023-11-09 13:07:17.730085$GNGGA,130717.90,3611.0522052,N,07544.9777275,W,1,24,0.6,1.143,M,-39.961,M,0.0,*61
###2023-11-09 13:07:17.732656$GPGSV,2,1,07,05,21,090,41,10,18,292,44,13,24,045,41,15,62,037,46*70
###2023-11-09 13:07:17.734907$GPGSV,2,2,07,18,77,281,47,23,50,315,45,24,49,136,45,,,,*43
###2023-11-09 13:07:17.737486$GLGSV,2,1,05,70,50,016,35,71,48,288,48,80,17,091,42,85,58,203,48*69
###2023-11-09 13:07:17.739081$GLGSV,2,2,05,86,52,309,47,,,,,,,,,,,,*50
###2023-11-09 13:07:17.741633$GAGSV,1,1,04,07,72,257,45,08,49,042,44,13,64,160,45,26,56,310,44*6F
###2023-11-09 13:07:17.744195$GBGSV,2,1,06,11,24,180,41,14,65,006,45,24,19,133,43,26,23,082,43*65
###2023-11-09 13:07:17.746132$GBGSV,2,2,06,28,43,289,47,33,58,302,47,,,,,,,,*6F
###2023-11-09 13:07:17.747594$GNVTG,233.04,T,,M,0.80,N,1.48,K,A*20
###2023-11-09 13:07:17.836760$GNGGA,130718.00,3611.0522216,N,07544.9777279,W,1,24,0.6,1.105,M,-39.961,M,0.0,*6B
###2023-11-09 13:07:17.839370$GPGSV,2,1,07,05,21,090,41,10,18,292,44,13,24,045,42,15,62,037,46*73
###2023-11-09 13:07:17.841622$GPGSV,2,2,07,18,77,281,47,23,50,315,45,24,49,136,45,,,,*43
###2023-11-09 13:07:17.844184$GLGSV,2,1,05,70,50,016,35,71,48,288,48,80,17,091,43,85,58,203,47*67
###2023-11-09 13:07:17.845796$GLGSV,2,2,05,86,52,309,48,,,,,,,,,,,,*5F
###2023-11-09 13:07:17.848378$GAGSV,1,1,04,07,72,257,45,08,49,042,45,13,64,160,45,26,56,310,44*6E
###2023-11-09 13:07:17.850966$GBGSV,2,1,06,11,24,180,41,14,65,006,45,24,19,133,43,26,23,082,43*65
###2023-11-09 13:07:17.852904$GBGSV,2,2,06,28,43,289,47,33,58,302,47,,,,,,,,*6F
###2023-11-09 13:07:17.854366$GNVTG,233.04,T,,M,0.39,N,0.72,K,A*2A
###2023-11-09 13:07:17.937883$GNGGA,130718.10,3611.0522249,N,07544.9777252,W,1,24,0.6,1.067,M,-39.961,M,0.0,*6C
###2023-11-09 13:07:17.940470$GPGSV,2,1,07,05,21,090,41,10,18,292,44,13,24,045,42,15,62,037,46*73
###2023-11-09 13:07:17.942733$GPGSV,2,2,07,18,77,281,47,23,50,315,45,24,49,136,45,,,,*43
###2023-11-09 13:07:17.945309$GLGSV,2,1,05,70,50,016,35,71,48,288,48,80,17,091,43,85,58,203,47*67
###2023-11-09 13:07:17.946934$GLGSV,2,2,05,86,52,309,48,,,,,,,,,,,,*5F
###2023-11-09 13:07:17.949811$GAGSV,1,1,04,07,72,257,45,08,49,042,45,13,64,160,45,26,56,310,45*6F
###2023-11-09 13:07:17.952413$GBGSV,2,1,06,11,24,180,41,14,65,006,45,24,19,133,43,26,23,082,43*65
###2023-11-09 13:07:17.954361$GBGSV,2,2,06,28,43,289,47,33,58,302,47,,,,,,,,*6F
###2023-11-09 13:07:17.955846$GNVTG,233.04,T,,M,0.19,N,0.36,K,A*28
###2023-11-09 13:07:18.032727$GNGGA,130718.20,3611.0522177,N,07544.9777212,W,1,24,0.6,1.040,M,-39.961,M,0.0,*60
###2023-11-09 13:07:18.035302$GPGSV,2,1,07,05,21,090,41,10,18,292,44,13,24,045,42,15,62,037,46*73
###2023-11-09 13:07:18.037572$GPGSV,2,2,07,18,77,281,47,23,50,315,45,24,49,136,45,,,,*43
###2023-11-09 13:07:18.040145$GLGSV,2,1,05,70,50,016,35,71,48,288,48,80,17,091,43,85,58,203,47*67
###2023-11-09 13:07:18.041739$GLGSV,2,2,05,86,52,309,48,,,,,,,,,,,,*5F
###2023-11-09 13:07:18.044292$GAGSV,1,1,04,07,72,257,45,08,49,042,45,13,64,160,45,26,56,310,45*6F
