###2023-11-09 13:07:15.837326$GPGSV,2,2,07,18,77,281,47,23,50,315,46,24,49,136,45,,,,*40
###2023-11-09 13:07:15.839930$GLGSV,2,1,05,70,50,016,35,71,48,288,48,80,17,091,44,85,58,203,48*6F
###2023-11-09 13:07:15.841548$GLGSV,2,2,05,86,52,309,47,,,,,,,,,,,,*50
###2023-11-09 13:07:15.844136$GAGSV,1,1,04,07,72,257,46,08,49,042,45,13,64,160,44,26,56,310,45*6D
###2023-11-09 13:07:15.846722$GBGSV,2,1,06,11,24,180,42,14,65,006,44,24,19,133,44,26,23,082,42*61
###2023-11-09 13:07:15.848687$GBGSV,2,2,06,28,43,289,47,33,58,302,47,,,,,,,,*6F
###2023-11-09 13:07:15.850165$GNVTG,281.00,T,,M,0.99,N,1.84,K,A*25
###2023-11-09 13:07:15.940361$GNGGA,130716.10,3611.0520794,N,07544.9770577,W,1,24,0.6,1.296,M,-39.961,M,0.0,*6E
###2023-11-09 13:07:15.942943$GPGSV,2,1,07,05,21,090,42,10,18,292,43,13,24,045,41,15,62,037,45*77
###2023-11-09 13:07:15.945184$GPGSV,2,2,07,18,77,281,47,23,50,315,45,24,49,136,45,,,,*43
###2023-11-09 13:07:15.947758$GLGSV,2,1,05,70,50,016,35,71,48,288,48,80,17,091,44,85,58,203,48*6F
###2023-11-09 13:07:15.949363$GLGSV,2,2,05,86,52,309,47,,,,,,,,,,,,*50
###2023-11-09 13:07:15.951932$GAGSV,1,1,04,07,72,257,46,08,49,042,44,13,64,160,44,26,56,310,44*6D
###2023-11-09 13:07:15.954537$GBGSV,2,1,06,11,24,180,42,14,65,006,44,24,19,133,44,26,23,082,42*61
###2023-11-09 13:07:15.956491$GBGSV,2,2,06,28,43,289,47,33,58,302,47,,,,,,,,*6F
###2023-11-09 13:07:15.957984$GNVTG,293.99,T,,M,1.26,N,2.34,K,A*2B
###2023-11-09 13:07:16.031249$GNGGA,130716.20,3611.0520994,N,07544.9770978,W,1,23,0.6,1.348,M,-39.961,M,0.0,*65
###2023-11-09 13:07:16.033859$GPGSV,2,1,07,05,21,090,42,10,18,292,43,13,24,045,41,15,62,037,44*76
###2023-11-09 13:07:16.036139$GPGSV,2,2,07,18,77,281,47,23,50,315,45,24,49,136,46,,,,*40
###2023-11-09 13:07:16.038745$GLGSV,1,1,04,71,48,288,48,80,17,091,44,85,58,203,48,86,52,309,47*6E
###2023-11-09 13:07:16.041335$GAGSV,1,1,04,07,72,257,46,08,49,042,44,13,64,160,44,26,56,310,44*6D
###2023-11-09 13:07:16.043917$GBGSV,2,1,06,11,24,180,42,14,65,006,44,24,19,133,44,26,23,082,41*62
###2023-11-09 13:07:16.045858$GBGSV,2,2,06,28,43,289,46,33,58,302,47,,,,,,,,*6E
###2023-11-09 13:07:16.047344$GNVTG,308.46,T,,M,1.54,N,2.84,K,A*24
###2023-11-09 13:07:16.131115$GNGGA,130716.30,3611.0521274,N,07544.9771410,W,1,23,0.6,1.399,M,-39.961,M,0.0,*6E
###2023-11-09 13:07:16.133714$GPGSV,2,1,07,05,21,090,42,10,18,292,42,13,24,045,41,15,62,037,45*76
###2023-11-09 13:07:16.135963$GPGSV,2,2,07,18,77,281,47,23,50,315,45,24,49,136,46,,,,*40
###2023-11-09 13:07:16.138555$GLGSV,1,1,04,71,48,288,48,80,17,091,44,85,58,203,48,86,52,309,47*6E
###2023-11-09 13:07:16.141147$GAGSV,1,1,04,07,72,257,46,08,49,042,44,13,64,160,45,26,56,310,44*6C
###2023-11-09 13:07:16.143734$GBGSV,2,1,06,11,24,180,42,14,65,006,45,24,19,133,44,26,23,082,41*63
###2023-11-09 13:07:16.145681$GBGSV,2,2,06,28,43,289,46,33,58,302,47,,,,,,,,*6E
###2023-11-09 13:07:16.147163$GNVTG,308.46,T,,M,1.71,N,3.17,K,A*28
###2023-11-09 13:07:16.230495$GNGGA,130716.40,3611.0521534,N,07544.9771875,W,1,24,0.6,1.432,M,-39.961,M,0.0,*64
###2023-11-09 13:07:16.233064$GPGSV,2,1,07,05,21,090,42,10,18,292,42,13,24,045,41,15,62,037,45*76
###2023-11-09 13:07:16.235309$GPGSV,2,2,07,18,77,281,47,23,50,315,45,24,49,136,45,,,,*43
###2023-11-09 13:07:16.237902$GLGSV,2,1,05,70,50,016,35,71,48,288,48,80,17,091,44,85,58,203,48*6F
###2023-11-09 13:07:16.239509$GLGSV,2,2,05,86,52,309,47,,,,,,,,,,,,*50
###2023-11-09 13:07:16.242070$GAGSV,1,1,04,07,72,257,46,08,49,042,44,13,64,160,45,26,56,310,44*6C
###2023-11-09 13:07:16.244636$GBGSV,2,1,06,11,24,180,40,14,65,006,45,24,19,133,43,26,23,082,43*64
###2023-11-09 13:07:16.246560$GBGSV,2,2,06,28,43,289,47,33,58,302,47,,,,,,,,*6F
###2023-11-09 13:07:16.248031$GNVTG,300.46,T,,M,1.59,N,2.95,K,A*21
###2023-11-09 13:07:16.329772$GNGGA,130716.50,3611.0521688,N,07544.9772348,W,1,24,0.6,1.462,M,-39.961,M,0.0,*62
###2023-11-09 13:07:16.332367$GPGSV,2,1,07,05,21,090,42,10,18,292,42,13,24,045,43,15,62,037,45*74
###2023-11-09 13:07:16.334619$GPGSV,2,2,07,18,77,281,47,23,50,315,45,24,49,136,45,,,,*43
###2023-11-09 13:07:16.337211$GLGSV,2,1,05,70,50,016,35,71,48,288,48,80,17,091,44,85,58,203,48*6F
###2023-11-09 13:07:16.338823$GLGSV,2,2,05,86,52,309,47,,,,,,,,,,,,*50
###2023-11-09 13:07:16.341384$GAGSV,1,1,04,07,72,257,46,08,49,042,45,13,64,160,45,26,56,310,44*6D
###2023-11-09 13:07:16.343955$GBGSV,2,1,06,11,24,180,40,14,65,006,45,24,19,133,43,26,23,082,44*63
###2023-11-09 13:07:16.345891$GBGSV,2,2,06,28,43,289,47,33,58,302,47,,,,,,,,*6F
###2023-11-09 13:07:16.347368$GNVTG,283.20,T,,M,1.48,N,2.74,K,A*24
###2023-11-09 13:07:16.431620$GNGGA,130716.60,3611.0521711,N,07544.9772854,W,1,24,0.6,1.481,M,-39.961,M,0.0,*6B
###2023-11-09 13:07:16.434216$GPGSV,2,1,07,05,21,090,42,10,18,292,44,13,24,045,43,15,62,037,45*72
###2023-11-09 13:07:16.436469$GPGSV,2,2,07,18,77,281,47,23,50,315,46,24,49,136,45,,,,*40
###2023-11-09 13:07:16.439100$GLGSV,2,1,05,70,50,016,35,71,48,288,48,80,17,091,44,85,58,203,48*6F
###2023-11-09 13:07:16.440710$GLGSV,2,2,05,86,52,309,48,,,,,,,,,,,,*5F
###2023-11-09 13:07:16.443294$GAGSV,1,1,04,07,72,257,46,08,49,042,45,13,64,160,44,26,56,310,44*6C
###2023-11-09 13:07:16.445865$GBGSV,2,1,06,11,24,180,40,14,65,006,45,24,19,133,43,26,23,082,44*63
###2023-11-09 13:07:16.447821$GBGSV,2,2,06,28,43,289,47,33,58,302,47,,,,,,,,*6F
###2023-11-09 13:07:16.449291$GNVTG,264.10,T,,M,1.54,N,2.84,K,A*2C
###2023-11-09 13:07:16.530128$GNGGA,130716.70,3611.0521627,N,07544.9773376,W,1,24,0.6,1.503,M,-39.961,M,0.0,*6F
###2023-11-09 13:07:16.532699$GPGSV,2,1,07,05,21,090,42,10,18,292,44,13,24,045,43,15,62,037,45*72
###2023-11-09 13:07:16.534950$GPGSV,2,2,07,18,77,281,47,23,50,315,45,24,49,136,45,,,,*43
###2023-11-09 13:07:16.537670$GLGSV,2,1,05,70,50,016,35,71,48,288,48,80,17,091,44,85,58,203,48*6F
###2023-11-09 13:07:16.539289$GLGSV,2,2,05,86,52,309,48,,,,,,,,,,,,*5F
###2023-11-09 13:07:16.541873$GAGSV,1,1,04,07,72,257,46,08,49,042,45,13,64,160,44,26,56,310,44*6C
###2023-11-09 13:07:16.544459$GBGSV,2,1,06,11,24,180,40,14,65,006,45,24,19,133,43,26,23,082,43*64
###2023-11-09 13:07:16.546391$GBGSV,2,2,06,28,43,289,47,33,58,302,47,,,,,,,,*6F
###2023-11-09 13:07:16.547873$GNVTG,254.48,T,,M,1.59,N,2.95,K,A*2F
###2023-11-09 13:07:16.629186$GNGGA,130716.80,3611.0521526,N,07544.9773894,W,1,24,0.6,1.523,M,-39.961,M,0.0,*67
###2023-11-09 13:07:16.631817$GPGSV,2,1,07,05,21,090,42,10,18,292,44,13,24,045,43,15,62,037,45*72
###2023-11-09 13:07:16.634084$GPGSV,2,2,07,18,77,281,47,23,50,315,45,24,49,136,46,,,,*40
###2023-11-09 13:07:16.636677$GLGSV,2,1,05,70,50,016,35,71,48,288,48,80,17,091,43,85,58,203,48*68
###2023-11-09 13:07:16.638312$GLGSV,2,2,05,86,52,309,47,,,,,,,,,,,,*50
###2023-11-09 13:07:16.640898$GAGSV,1,1,04,07,72,257,46,08,49,042,45,13,64,160,44,26,56,310,45*6D
###2023-11-09 13:07:16.643474$GBGSV,2,1,06,11,24,180,40,14,65,006,45,24,19,133,43,26,23,082,43*64
###2023-11-09 13:07:16.645424$GBGSV,2,2,06,28,43,289,47,33,58,302,47,,,,,,,,*6F
###2023-11-09 13:07:16.646897$GNVTG,258.82,T,,M,1.54,N,2.84,K,A*28
###2023-11-09 13:07:16.731139$GNGGA,130716.90,3611.0521505,N,07544.9774393,W,1,24,0.6,1.537,M,-39.961,M,0.0,*69
###2023-11-09 13:07:16.733744$GPGSV,2,1,07,05,21,090,42,10,18,292,44,13,24,045,40,15,62,037,45*71
###2023-11-09 13:07:16.736011$GPGSV,2,2,07,18,77,281,47,23,50,315,45,24,49,136,46,,,,*40
###2023-11-09 13:07:16.738615$GLGSV,2,1,05,70,50,016,35,71,48,288,48,80,17,091,43,85,58,203,49*69
###2023-11-09 13:07:16.740226$GLGSV,2,2,05,86,52,309,47,,,,,,,,,,,,*50
###2023-11-09 13:07:16.742794$GAGSV,1,1,04,07,72,257,45,08,49,042,45,13,64,160,44,26,56,310,44*6F
###2023-11-09 13:07:16.745387$GBGSV,2,1,06,11,24,180,41,14,65,006,45,24,19,133,43,26,23,082,43*65
###2023-11-09 13:07:16.747349$GBGSV,2,2,06,28,43,289,47,33,58,302,47,,,,,,,,*6F
###2023-11-09 13:07:16.748822$GNVTG,275.57,T,,M,1.44,N,2.66,K,A*22
###2023-11-09 13:07:16.832376$GNGGA,130717.00,3611.0521601,N,07544.9774855,W,1,24,0.6,1.540,M,-39.961,M,0.0,*67
###2023-11-09 13:07:16.834976$GPGSV,2,1,07,05,21,090,42,10,18,292,43,13,24,045,40,15,62,037,45*76
###2023-11-09 13:07:16.837253$GPGSV,2,2,07,18,77,281,47,23,50,315,45,24,49,136,46,,,,*40
###2023-11-09 13:07:16.839816$GLGSV,2,1,05,70,50,016,35,71,48,288,48,80,17,091,43,85,58,203,49*69
###2023-11-09 13:07:16.841723$GLGSV,2,2,05,86,52,309,47,,,,,,,,,,,,*50
###2023-11-09 13:07:16.844289$GAGSV,1,1,04,07,72,257,45,08,49,042,45,13,64,160,45,26,56,310,44*6E
###2023-11-09 13:07:16.846864$GBGSV,2,1,06,11,24,180,41,14,65,006,45,24,19,133,43,26,23,082,42*64
###2023-11-09 13:07:16.848815$GBGSV,2,2,06,28,43,289,47,33,58,302,47,,,,,,,,*6F
###2023-11-09 13:07:16.850279$GNVTG,293.07,T,,M,1.40,N,2.59,K,A*27
###2023-11-09 13:07:16.931262$GNGGA,130717.10,3611.0521750,N,07544.9775281,W,1,24,0.6,1.532,M,-39.961,M,0.0,*64
###2023-11-09 13:07:16.933875$GPGSV,2,1,07,05,21,090,42,10,18,292,43,13,24,045,42,15,62,037,45*74
###2023-11-09 13:07:16.936128$GPGSV,2,2,07,18,77,281,47,23,50,315,45,24,49,136,46,,,,*40
###2023-11-09 13:07:16.938733$GLGSV,2,1,05,70,50,016,35,71,48,288,47,80,17,091,43,85,58,203,48*67
###2023-11-09 13:07:16.940344$GLGSV,2,2,05,86,52,309,47,,,,,,,,,,,,*50
