###2023-11-09 13:09:39.641479$GBGSV,2,1,06,11,22,180,43,14,65,009,45,24,21,132,43,26,23,081,42*66
###2023-11-09 13:09:39.643430$GBGSV,2,2,06,28,43,287,46,33,59,304,47,,,,,,,,*67
###2023-11-09 13:09:39.644896$GNVTG,93.23,T,,M,7.72,N,14.29,K,A*24
###2023-11-09 13:09:39.731112$GNGGA,130939.90,3611.0337234,N,07544.9293630,W,1,24,0.6,0.681,M,-39.961,M,0.0,*61
###2023-11-09 13:09:39.733713$GPGSV,2,1,07,05,20,090,39,10,19,293,44,13,24,045,39,15,61,037,45*71
###2023-11-09 13:09:39.735970$GPGSV,2,2,07,18,78,277,46,23,50,316,44,24,50,134,46,,,,*4F
###2023-11-09 13:09:39.738572$GLGSV,2,1,05,70,50,017,35,71,48,290,48,80,18,090,41,85,57,203,49*62
###2023-11-09 13:09:39.740191$GLGSV,2,2,05,86,53,308,46,,,,,,,,,,,,*51
###2023-11-09 13:09:39.742778$GAGSV,1,1,04,07,73,259,45,08,48,043,44,13,63,161,45,26,57,310,44*67
###2023-11-09 13:09:39.745374$GBGSV,2,1,06,11,22,180,43,14,65,009,45,24,21,132,43,26,23,081,42*66
###2023-11-09 13:09:39.747333$GBGSV,2,2,06,28,43,287,46,33,59,304,47,,,,,,,,*67
###2023-11-09 13:09:39.748806$GNVTG,89.80,T,,M,7.41,N,13.72,K,A*2F
###2023-11-09 13:09:39.832249$GNGGA,130940.00,3611.0337298,N,07544.9291124,W,1,24,0.6,0.701,M,-39.961,M,0.0,*69
###2023-11-09 13:09:39.834856$GPGSV,2,1,07,05,20,090,39,10,19,293,44,13,24,045,39,15,61,037,45*71
###2023-11-09 13:09:39.837142$GPGSV,2,2,07,18,78,277,46,23,50,316,44,24,50,134,46,,,,*4F
###2023-11-09 13:09:39.839711$GLGSV,2,1,05,70,50,017,35,71,48,290,48,80,18,090,41,85,57,203,49*62
###2023-11-09 13:09:39.841314$GLGSV,2,2,05,86,53,308,47,,,,,,,,,,,,*50
###2023-11-09 13:09:39.843877$GAGSV,1,1,04,07,73,259,45,08,48,043,43,13,63,161,45,26,57,310,44*60
###2023-11-09 13:09:39.846453$GBGSV,2,1,06,11,22,180,42,14,65,009,45,24,21,132,43,26,23,081,42*67
###2023-11-09 13:09:39.848402$GBGSV,2,2,06,28,43,287,46,33,59,304,47,,,,,,,,*67
###2023-11-09 13:09:39.849869$GNVTG,86.50,T,,M,7.23,N,13.39,K,A*26
###2023-11-09 13:09:39.930597$GNGGA,130940.10,3611.0337420,N,07544.9288667,W,1,24,0.6,0.732,M,-39.961,M,0.0,*65
###2023-11-09 13:09:39.933161$GPGSV,2,1,07,05,20,090,39,10,19,293,45,13,24,045,41,15,61,037,45*7F
###2023-11-09 13:09:39.935403$GPGSV,2,2,07,18,78,277,46,23,50,316,45,24,50,134,46,,,,*4E
###2023-11-09 13:09:39.937973$GLGSV,2,1,05,70,50,017,35,71,48,290,48,80,18,090,41,85,57,203,49*62
###2023-11-09 13:09:39.939572$GLGSV,2,2,05,86,53,308,47,,,,,,,,,,,,*50
###2023-11-09 13:09:39.942124$GAGSV,1,1,04,07,73,259,45,08,48,043,43,13,63,161,45,26,57,310,44*60
###2023-11-09 13:09:39.944685$GBGSV,2,1,06,11,22,180,42,14,65,009,45,24,21,132,43,26,23,081,42*67
###2023-11-09 13:09:39.946604$GBGSV,2,2,06,28,43,287,47,33,59,304,47,,,,,,,,*66
###2023-11-09 13:09:39.948079$GNVTG,86.37,T,,M,7.13,N,13.21,K,A*2D
###2023-11-09 13:09:40.030237$GNGGA,130940.20,3611.0337506,N,07544.9286229,W,1,24,0.6,0.749,M,-39.961,M,0.0,*6F
###2023-11-09 13:09:40.032822$GPGSV,2,1,07,05,20,090,39,10,19,293,45,13,24,045,41,15,61,037,45*7F
###2023-11-09 13:09:40.035067$GPGSV,2,2,07,18,78,277,46,23,50,316,45,24,50,134,46,,,,*4E
###2023-11-09 13:09:40.037652$GLGSV,2,1,05,70,50,017,35,71,48,290,48,80,18,090,42,85,57,203,48*60
###2023-11-09 13:09:40.039255$GLGSV,2,2,05,86,53,308,48,,,,,,,,,,,,*5F
###2023-11-09 13:09:40.041806$GAGSV,1,1,04,07,73,259,45,08,48,043,43,13,63,161,45,26,57,310,44*60
###2023-11-09 13:09:40.044378$GBGSV,2,1,06,11,22,180,42,14,65,009,45,24,21,132,43,26,23,081,41*64
###2023-11-09 13:09:40.046311$GBGSV,2,2,06,28,43,287,47,33,59,304,47,,,,,,,,*66
###2023-11-09 13:09:40.047788$GNVTG,88.63,T,,M,7.11,N,13.18,K,A*2A
###2023-11-09 13:09:40.128113$GNGGA,130940.30,3611.0337510,N,07544.9283826,W,1,24,0.6,0.747,M,-39.961,M,0.0,*67
###2023-11-09 13:09:40.130709$GPGSV,2,1,07,05,20,090,39,10,19,293,45,13,24,045,41,15,61,037,45*7F
###2023-11-09 13:09:40.132963$GPGSV,2,2,07,18,78,277,46,23,50,316,45,24,50,134,45,,,,*4D
###2023-11-09 13:09:40.135538$GLGSV,2,1,05,70,50,017,35,71,48,290,48,80,18,090,42,85,57,203,48*60
###2023-11-09 13:09:40.137154$GLGSV,2,2,05,86,53,308,48,,,,,,,,,,,,*5F
###2023-11-09 13:09:40.139723$GAGSV,1,1,04,07,73,259,45,08,48,043,44,13,63,161,45,26,57,310,44*67
###2023-11-09 13:09:40.142284$GBGSV,2,1,06,11,22,180,41,14,65,009,45,24,21,132,43,26,23,081,42*64
###2023-11-09 13:09:40.144213$GBGSV,2,2,06,28,43,287,47,33,59,304,47,,,,,,,,*66
###2023-11-09 13:09:40.145666$GNVTG,90.94,T,,M,6.92,N,12.82,K,A*23
###2023-11-09 13:09:40.228225$GNGGA,130940.40,3611.0337470,N,07544.9281478,W,1,24,0.6,0.737,M,-39.961,M,0.0,*65
###2023-11-09 13:09:40.230801$GPGSV,2,1,07,05,20,090,41,10,19,293,45,13,24,045,42,15,61,037,45*73
###2023-11-09 13:09:40.233043$GPGSV,2,2,07,18,78,277,46,23,50,316,45,24,50,134,46,,,,*4E
###2023-11-09 13:09:40.235605$GLGSV,2,1,05,70,50,017,35,71,48,290,48,80,18,090,42,85,57,203,48*60
###2023-11-09 13:09:40.237215$GLGSV,2,2,05,86,53,308,47,,,,,,,,,,,,*50
###2023-11-09 13:09:40.239772$GAGSV,1,1,04,07,73,259,45,08,48,043,44,13,63,161,45,26,57,310,44*67
###2023-11-09 13:09:40.242337$GBGSV,2,1,06,11,22,180,41,14,65,009,45,24,21,132,43,26,23,081,42*64
###2023-11-09 13:09:40.244258$GBGSV,2,2,06,28,43,287,46,33,59,304,47,,,,,,,,*67
###2023-11-09 13:09:40.245708$GNVTG,91.18,T,,M,6.78,N,12.56,K,A*2B
###2023-11-09 13:09:40.328129$GNGGA,130940.50,3611.0337451,N,07544.9279167,W,1,24,0.6,0.728,M,-39.961,M,0.0,*65
###2023-11-09 13:09:40.330734$GPGSV,2,1,07,05,20,090,41,10,19,293,45,13,24,045,42,15,61,037,45*73
###2023-11-09 13:09:40.332986$GPGSV,2,2,07,18,78,277,46,23,50,316,45,24,50,134,46,,,,*4E
###2023-11-09 13:09:40.335560$GLGSV,2,1,05,70,50,017,35,71,48,290,48,80,18,090,43,85,57,203,48*61
###2023-11-09 13:09:40.337175$GLGSV,2,2,05,86,53,308,47,,,,,,,,,,,,*50
###2023-11-09 13:09:40.339734$GAGSV,1,1,04,07,73,259,45,08,48,043,44,13,63,161,45,26,57,310,44*67
###2023-11-09 13:09:40.342313$GBGSV,2,1,06,11,22,180,42,14,65,009,45,24,21,132,43,26,23,081,42*67
###2023-11-09 13:09:40.344246$GBGSV,2,2,06,28,43,287,46,33,59,304,47,,,,,,,,*67
###2023-11-09 13:09:40.345708$GNVTG,89.71,T,,M,6.73,N,12.46,K,A*27
###2023-11-09 13:09:40.428136$GNGGA,130940.60,3611.0337487,N,07544.9276881,W,1,24,0.6,0.715,M,-39.961,M,0.0,*6D
###2023-11-09 13:09:40.430728$GPGSV,2,1,07,05,20,090,41,10,19,293,45,13,24,045,42,15,61,037,45*73
###2023-11-09 13:09:40.432973$GPGSV,2,2,07,18,78,277,46,23,50,316,44,24,50,134,45,,,,*4C
###2023-11-09 13:09:40.435541$GLGSV,2,1,05,70,50,017,35,71,48,290,48,80,18,090,42,85,57,203,48*60
###2023-11-09 13:09:40.437156$GLGSV,2,2,05,86,53,308,47,,,,,,,,,,,,*50
###2023-11-09 13:09:40.439727$GAGSV,1,1,04,07,73,259,45,08,48,043,44,13,63,161,45,26,57,310,44*67
###2023-11-09 13:09:40.442309$GBGSV,2,1,06,11,22,180,42,14,65,009,45,24,21,132,43,26,23,081,42*67
###2023-11-09 13:09:40.444244$GBGSV,2,2,06,28,43,287,47,33,59,304,47,,,,,,,,*66
###2023-11-09 13:09:40.445710$GNVTG,87.88,T,,M,6.65,N,12.31,K,A*28
###2023-11-09 13:09:40.528137$GNGGA,130940.70,3611.0337604,N,07544.9274584,W,1,24,0.6,0.698,M,-39.961,M,0.0,*6B
###2023-11-09 13:09:40.530727$GPGSV,2,1,07,05,20,090,41,10,19,293,44,13,24,045,41,15,61,037,44*70
###2023-11-09 13:09:40.532975$GPGSV,2,2,07,18,78,277,46,23,50,316,44,24,50,134,45,,,,*4C
###2023-11-09 13:09:40.535536$GLGSV,2,1,05,70,50,017,35,71,48,290,48,80,18,090,42,85,57,203,48*60
###2023-11-09 13:09:40.537142$GLGSV,2,2,05,86,53,308,47,,,,,,,,,,,,*50
###2023-11-09 13:09:40.539700$GAGSV,1,1,04,07,73,259,45,08,48,043,44,13,63,161,45,26,57,310,44*67
###2023-11-09 13:09:40.542270$GBGSV,2,1,06,11,22,180,42,14,65,009,45,24,21,132,43,26,23,081,42*67
###2023-11-09 13:09:40.544195$GBGSV,2,2,06,28,43,287,47,33,59,304,47,,,,,,,,*66
###2023-11-09 13:09:40.545649$GNVTG,84.73,T,,M,6.80,N,12.60,K,A*20
###2023-11-09 13:09:40.626371$GNGGA,130940.80,3611.0337772,N,07544.9272283,W,1,24,0.6,0.656,M,-39.961,M,0.0,*60
###2023-11-09 13:09:40.629004$GPGSV,2,1,07,05,20,090,41,10,19,293,44,13,24,045,41,15,61,037,44*70
###2023-11-09 13:09:40.631261$GPGSV,2,2,07,18,78,277,46,23,50,316,44,24,50,134,46,,,,*4F
###2023-11-09 13:09:40.633821$GLGSV,2,1,05,70,50,017,35,71,48,290,48,80,18,090,42,85,57,203,48*60
###2023-11-09 13:09:40.635421$GLGSV,2,2,05,86,53,308,47,,,,,,,,,,,,*50
###2023-11-09 13:09:40.637993$GAGSV,1,1,04,07,73,259,45,08,48,043,44,13,63,161,45,26,57,310,44*67
###2023-11-09 13:09:40.640901$GBGSV,2,1,06,11,22,180,42,14,65,009,45,24,21,132,43,26,23,081,42*67
###2023-11-09 13:09:40.642858$GBGSV,2,2,06,28,43,287,46,33,59,304,47,,,,,,,,*67
###2023-11-09 13:09:40.644331$GNVTG,84.74,T,,M,6.71,N,12.42,K,A*29
###2023-11-09 13:09:40.727122$GNGGA,130940.90,3611.0337919,N,07544.9270033,W,1,24,0.6,0.599,M,-39.961,M,0.0,*69
###2023-11-09 13:09:40.729713$GPGSV,2,1,07,05,20,090,42,10,19,293,44,13,24,045,41,15,61,037,44*73
###2023-11-09 13:09:40.731973$GPGSV,2,2,07,18,78,277,46,23,50,316,44,24,50,134,46,,,,*4F
###2023-11-09 13:09:40.734552$GLGSV,2,1,05,70,50,017,35,71,48,290,48,80,18,090,43,85,57,203,48*61
###2023-11-09 13:09:40.736156$GLGSV,2,2,05,86,53,308,47,,,,,,,,,,,,*50
###2023-11-09 13:09:40.738740$GAGSV,1,1,04,07,73,259,45,08,48,043,44,13,63,161,44,26,57,310,44*66
###2023-11-09 13:09:40.741327$GBGSV,2,1,06,11,22,180,42,14,65,009,45,24,21,132,43,26,23,081,42*67
