###2023-11-09 13:06:56.939602$GLGSV,2,1,05,70,50,016,35,71,48,288,48,80,17,091,43,85,58,203,48*68
###2023-11-09 13:06:56.941236$GLGSV,2,2,05,86,52,309,47,,,,,,,,,,,,*50
###2023-11-09 13:06:56.943808$GAGSV,1,1,04,07,72,255,45,08,49,042,44,13,64,160,45,26,56,311,44*6C
###2023-11-09 13:06:56.946393$GBGSV,2,1,06,11,24,180,42,14,65,006,45,24,19,133,44,26,23,082,42*60
###2023-11-09 13:06:56.948352$GBGSV,2,2,06,28,43,289,47,33,58,302,47,,,,,,,,*6F
###2023-11-09 13:06:56.949789$GNVTG,27.43,T,,M,0.93,N,1.73,K,A*1E
###2023-11-09 13:06:57.032727$GNGGA,130657.20,3611.0478276,N,07544.9776719,W,1,24,0.6,1.039,M,-39.961,M,0.0,*67
###2023-11-09 13:06:57.035300$GPGSV,2,1,07,05,21,090,41,10,18,292,43,13,24,045,43,15,62,037,45*76
###2023-11-09 13:06:57.037576$GPGSV,2,2,07,18,77,281,47,23,50,315,45,24,49,136,46,,,,*40
###2023-11-09 13:06:57.040156$GLGSV,2,1,05,70,50,016,35,71,48,288,48,80,17,091,43,85,58,203,48*68
###2023-11-09 13:06:57.041761$GLGSV,2,2,05,86,52,309,47,,,,,,,,,,,,*50
###2023-11-09 13:06:57.044318$GAGSV,1,1,04,07,72,255,45,08,49,042,44,13,64,160,45,26,56,311,44*6C
###2023-11-09 13:06:57.046882$GBGSV,2,1,06,11,24,180,41,14,65,006,45,24,19,133,44,26,23,082,42*63
###2023-11-09 13:06:57.048831$GBGSV,2,2,06,28,43,289,47,33,58,302,47,,,,,,,,*6F
###2023-11-09 13:06:57.050253$GNVTG,27.43,T,,M,0.72,N,1.33,K,A*15
###2023-11-09 13:06:57.130611$GNGGA,130657.30,3611.0478427,N,07544.9776634,W,1,24,0.6,1.038,M,-39.961,M,0.0,*6B
###2023-11-09 13:06:57.133209$GPGSV,2,1,07,05,21,090,42,10,18,292,43,13,24,045,44,15,62,037,45*72
###2023-11-09 13:06:57.135466$GPGSV,2,2,07,18,77,281,47,23,50,315,45,24,49,136,46,,,,*40
###2023-11-09 13:06:57.138058$GLGSV,2,1,05,70,50,016,35,71,48,288,48,80,17,091,44,85,58,203,47*60
###2023-11-09 13:06:57.139664$GLGSV,2,2,05,86,52,309,48,,,,,,,,,,,,*5F
###2023-11-09 13:06:57.142226$GAGSV,1,1,04,07,72,255,45,08,49,042,44,13,64,160,44,26,56,311,44*6D
###2023-11-09 13:06:57.144807$GBGSV,2,1,06,11,24,180,41,14,65,006,45,24,19,133,44,26,23,082,43*62
###2023-11-09 13:06:57.146736$GBGSV,2,2,06,28,43,289,47,33,58,302,47,,,,,,,,*6F
###2023-11-09 13:06:57.148188$GNVTG,27.43,T,,M,0.49,N,0.90,K,A*15
###2023-11-09 13:06:57.232482$GNGGA,130657.40,3611.0478534,N,07544.9776582,W,1,24,0.6,1.044,M,-39.961,M,0.0,*6A
###2023-11-09 13:06:57.235058$GPGSV,2,1,07,05,21,090,42,10,18,292,43,13,24,045,43,15,62,037,45*75
###2023-11-09 13:06:57.237334$GPGSV,2,2,07,18,77,281,47,23,50,315,45,24,49,136,46,,,,*40
###2023-11-09 13:06:57.239905$GLGSV,2,1,05,70,50,016,35,71,48,288,48,80,17,091,44,85,58,203,48*6F
###2023-11-09 13:06:57.241508$GLGSV,2,2,05,86,52,309,48,,,,,,,,,,,,*5F
###2023-11-09 13:06:57.244080$GAGSV,1,1,04,07,72,255,45,08,49,042,45,13,64,160,44,26,56,311,45*6D
###2023-11-09 13:06:57.246659$GBGSV,2,1,06,11,24,180,41,14,65,006,45,24,19,133,44,26,23,082,43*62
###2023-11-09 13:06:57.248604$GBGSV,2,2,06,28,43,289,47,33,58,302,48,,,,,,,,*60
###2023-11-09 13:06:57.250032$GNVTG,27.43,T,,M,0.35,N,0.65,K,A*14
###2023-11-09 13:06:57.329096$GNGGA,130657.50,3611.0478621,N,07544.9776573,W,1,24,0.6,1.051,M,-39.961,M,0.0,*66
###2023-11-09 13:06:57.331655$GPGSV,2,1,07,05,21,090,42,10,18,292,43,13,24,045,43,15,62,037,45*75
###2023-11-09 13:06:57.333883$GPGSV,2,2,07,18,77,281,47,23,50,315,45,24,49,136,46,,,,*40
###2023-11-09 13:06:57.336428$GLGSV,2,1,05,70,50,016,36,71,48,288,48,80,17,091,44,85,58,203,48*6C
###2023-11-09 13:06:57.338040$GLGSV,2,2,05,86,52,309,48,,,,,,,,,,,,*5F
###2023-11-09 13:06:57.340593$GAGSV,1,1,04,07,72,255,45,08,49,042,45,13,64,160,44,26,56,311,45*6D
###2023-11-09 13:06:57.343147$GBGSV,2,1,06,11,24,180,41,14,65,006,45,24,19,133,44,26,23,082,43*62
###2023-11-09 13:06:57.345064$GBGSV,2,2,06,28,43,289,47,33,58,302,48,,,,,,,,*60
###2023-11-09 13:06:57.346482$GNVTG,27.43,T,,M,0.29,N,0.54,K,A*1B
###2023-11-09 13:06:57.429257$GNGGA,130657.60,3611.0478729,N,07544.9776588,W,1,24,0.6,1.066,M,-39.961,M,0.0,*6C
###2023-11-09 13:06:57.431872$GPGSV,2,1,07,05,21,090,42,10,18,292,43,13,24,045,41,15,62,037,45*77
###2023-11-09 13:06:57.434129$GPGSV,2,2,07,18,77,281,47,23,50,315,45,24,49,136,46,,,,*40
###2023-11-09 13:06:57.436701$GLGSV,2,1,05,70,50,016,35,71,48,288,48,80,17,091,44,85,58,203,48*6F
###2023-11-09 13:06:57.438327$GLGSV,2,2,05,86,52,309,48,,,,,,,,,,,,*5F
###2023-11-09 13:06:57.440900$GAGSV,1,1,04,07,72,255,45,08,49,042,45,13,64,160,44,26,56,311,45*6D
###2023-11-09 13:06:57.443479$GBGSV,2,1,06,11,24,180,41,14,65,006,45,24,19,133,44,26,23,082,43*62
###2023-11-09 13:06:57.445416$GBGSV,2,2,06,28,43,289,47,33,58,302,47,,,,,,,,*6F
###2023-11-09 13:06:57.446842$GNVTG,27.43,T,,M,0.49,N,0.90,K,A*15
###2023-11-09 13:06:57.530616$GNGGA,130657.70,3611.0478899,N,07544.9776619,W,1,24,0.6,1.084,M,-39.961,M,0.0,*6E
###2023-11-09 13:06:57.533195$GPGSV,2,1,07,05,21,090,42,10,18,292,43,13,24,045,41,15,62,037,45*77
###2023-11-09 13:06:57.535450$GPGSV,2,2,07,18,77,281,47,23,50,315,45,24,49,136,46,,,,*40
###2023-11-09 13:06:57.538039$GLGSV,2,1,05,70,50,016,35,71,48,288,48,80,17,091,44,85,58,203,48*6F
###2023-11-09 13:06:57.539648$GLGSV,2,2,05,86,52,309,48,,,,,,,,,,,,*5F
###2023-11-09 13:06:57.542209$GAGSV,1,1,04,07,72,255,45,08,49,042,44,13,64,160,44,26,56,311,45*6C
###2023-11-09 13:06:57.544790$GBGSV,2,1,06,11,24,180,42,14,65,006,45,24,19,133,44,26,23,082,43*61
###2023-11-09 13:06:57.546726$GBGSV,2,2,06,28,43,289,47,33,58,302,47,,,,,,,,*6F
###2023-11-09 13:06:57.548171$GNVTG,27.43,T,,M,0.74,N,1.37,K,A*17
###2023-11-09 13:06:57.629859$GNGGA,130657.80,3611.0479152,N,07544.9776673,W,1,24,0.6,1.105,M,-39.961,M,0.0,*6A
###2023-11-09 13:06:57.632424$GPGSV,2,1,07,05,21,090,42,10,18,292,43,13,24,045,40,15,62,037,45*76
###2023-11-09 13:06:57.634654$GPGSV,2,2,07,18,77,281,47,23,50,315,45,24,49,136,46,,,,*40
###2023-11-09 13:06:57.637210$GLGSV,2,1,05,70,50,016,35,71,48,288,48,80,17,091,44,85,58,203,48*6F
###2023-11-09 13:06:57.638810$GLGSV,2,2,05,86,52,309,48,,,,,,,,,,,,*5F
###2023-11-09 13:06:57.641359$GAGSV,1,1,04,07,72,255,45,08,49,042,44,13,64,160,44,26,56,311,45*6C
###2023-11-09 13:06:57.643911$GBGSV,2,1,06,11,24,180,42,14,65,006,45,24,19,133,44,26,23,082,43*61
###2023-11-09 13:06:57.645820$GBGSV,2,2,06,28,43,289,47,33,58,302,47,,,,,,,,*6F
###2023-11-09 13:06:57.647278$GNVTG,350.83,T,,M,1.09,N,2.02,K,A*26
###2023-11-09 13:06:57.729641$GNGGA,130657.90,3611.0479476,N,07544.9776762,W,1,24,0.6,1.128,M,-39.961,M,0.0,*66
###2023-11-09 13:06:57.732249$GPGSV,2,1,07,05,21,090,42,10,18,292,43,13,24,045,40,15,62,037,45*76
###2023-11-09 13:06:57.734500$GPGSV,2,2,07,18,77,281,47,23,50,315,45,24,49,136,46,,,,*40
###2023-11-09 13:06:57.737079$GLGSV,2,1,05,70,50,016,35,71,48,288,48,80,17,091,44,85,58,203,48*6F
###2023-11-09 13:06:57.738693$GLGSV,2,2,05,86,52,309,48,,,,,,,,,,,,*5F
###2023-11-09 13:06:57.741265$GAGSV,1,1,04,07,72,255,45,08,49,042,44,13,64,160,44,26,56,311,45*6C
###2023-11-09 13:06:57.743837$GBGSV,2,1,06,11,24,180,42,14,65,006,45,24,19,133,44,26,23,082,43*61
###2023-11-09 13:06:57.745773$GBGSV,2,2,06,28,43,289,47,33,58,302,47,,,,,,,,*6F
###2023-11-09 13:06:57.747259$GNVTG,345.98,T,,M,1.28,N,2.38,K,A*22
###2023-11-09 13:06:57.832607$GNGGA,130658.00,3611.0479815,N,07544.9776889,W,1,24,0.6,1.145,M,-39.961,M,0.0,*68
###2023-11-09 13:06:57.835191$GPGSV,2,1,07,05,21,090,42,10,18,292,43,13,24,045,41,15,62,037,45*77
###2023-11-09 13:06:57.837465$GPGSV,2,2,07,18,77,281,47,23,50,315,45,24,49,136,46,,,,*40
###2023-11-09 13:06:57.840041$GLGSV,2,1,05,70,50,016,35,71,48,288,48,80,17,091,44,85,58,203,48*6F
###2023-11-09 13:06:57.841645$GLGSV,2,2,05,86,52,309,48,,,,,,,,,,,,*5F
###2023-11-09 13:06:57.844208$GAGSV,1,1,04,07,72,255,45,08,49,042,44,13,64,160,44,26,56,311,45*6C
###2023-11-09 13:06:57.846784$GBGSV,2,1,06,11,24,180,42,14,65,006,45,24,19,133,44,26,23,082,42*60
###2023-11-09 13:06:57.848735$GBGSV,2,2,06,28,43,289,46,33,58,302,47,,,,,,,,*6E
###2023-11-09 13:06:57.850200$GNVTG,341.78,T,,M,1.24,N,2.30,K,A*2C
###2023-11-09 13:06:57.935223$GNGGA,130658.10,3611.0480117,N,07544.9777052,W,1,24,0.6,1.155,M,-39.961,M,0.0,*6A
###2023-11-09 13:06:57.937827$GPGSV,2,1,07,05,21,090,42,10,18,292,43,13,24,045,42,15,62,037,45*74
###2023-11-09 13:06:57.940068$GPGSV,2,2,07,18,77,281,47,23,50,315,45,24,49,136,45,,,,*43
###2023-11-09 13:06:57.942931$GLGSV,2,1,05,70,50,016,35,71,48,288,48,80,17,091,44,85,58,203,48*6F
###2023-11-09 13:06:57.944541$GLGSV,2,2,05,86,52,309,48,,,,,,,,,,,,*5F
###2023-11-09 13:06:57.947111$GAGSV,1,1,04,07,72,255,45,08,49,042,44,13,64,160,44,26,56,311,45*6C
###2023-11-09 13:06:57.949687$GBGSV,2,1,06,11,24,180,41,14,65,006,45,24,19,133,44,26,23,082,43*62
###2023-11-09 13:06:57.951627$GBGSV,2,2,06,28,43,289,46,33,58,302,47,,,,,,,,*6E
###2023-11-09 13:06:57.953112$GNVTG,332.59,T,,M,1.11,N,2.05,K,A*2B
###2023-11-09 13:06:58.031497$GNGGA,130658.20,3611.0480364,N,07544.9777260,W,1,24,0.6,1.162,M,-39.961,M,0.0,*68
###2023-11-09 13:06:58.034080$GPGSV,2,1,07,05,21,090,42,10,18,292,43,13,24,045,43,15,62,037,45*75
###2023-11-09 13:06:58.036327$GPGSV,2,2,07,18,77,281,47,23,50,315,45,24,49,136,46,,,,*40
###2023-11-09 13:06:58.038923$GLGSV,2,1,05,70,50,016,35,71,48,288,48,80,17,091,44,85,58,203,48*6F
