###2023-11-09 13:09:01.640312$GAGSV,1,1,04,07,73,259,45,08,48,043,44,13,64,160,45,26,57,310,44*61
###2023-11-09 13:09:01.642922$GBGSV,2,1,06,11,23,180,42,14,65,008,45,24,20,132,43,26,23,081,43*67
###2023-11-09 13:09:01.644873$GBGSV,2,2,06,28,43,287,47,33,59,304,47,,,,,,,,*66
###2023-11-09 13:09:01.646339$GNVTG,100.39,T,,M,4.72,N,8.75,K,A*23
###2023-11-09 13:09:01.729530$GNGGA,130901.90,3611.0229031,N,07544.9765335,W,1,24,0.6,0.891,M,-39.962,M,0.0,*63
###2023-11-09 13:09:01.732149$GPGSV,2,1,07,05,20,090,41,10,19,293,44,13,24,045,42,15,61,037,44*73
###2023-11-09 13:09:01.734415$GPGSV,2,2,07,18,78,277,47,23,50,316,45,24,50,135,46,,,,*4E
###2023-11-09 13:09:01.737011$GLGSV,2,1,05,70,50,017,35,71,48,290,49,80,18,090,43,85,57,203,48*60
###2023-11-09 13:09:01.738652$GLGSV,2,2,05,86,53,308,48,,,,,,,,,,,,*5F
###2023-11-09 13:09:01.741240$GAGSV,1,1,04,07,73,259,45,08,48,043,44,13,64,160,45,26,57,310,44*61
###2023-11-09 13:09:01.743829$GBGSV,2,1,06,11,23,180,42,14,65,008,45,24,20,132,44,26,23,081,43*60
###2023-11-09 13:09:01.745773$GBGSV,2,2,06,28,43,287,47,33,59,304,47,,,,,,,,*66
###2023-11-09 13:09:01.747255$GNVTG,102.54,T,,M,4.76,N,8.82,K,A*26
###2023-11-09 13:09:01.831852$GNGGA,130902.00,3611.0228752,N,07544.9763749,W,1,24,0.6,0.904,M,-39.962,M,0.0,*6E
###2023-11-09 13:09:01.834439$GPGSV,2,1,07,05,20,090,41,10,19,293,44,13,24,045,42,15,61,037,44*73
###2023-11-09 13:09:01.836681$GPGSV,2,2,07,18,78,277,47,23,50,316,45,24,50,135,46,,,,*4E
###2023-11-09 13:09:01.839268$GLGSV,2,1,05,70,50,017,35,71,48,290,49,80,18,090,43,85,57,203,48*60
###2023-11-09 13:09:01.840871$GLGSV,2,2,05,86,53,308,48,,,,,,,,,,,,*5F
###2023-11-09 13:09:01.843424$GAGSV,1,1,04,07,73,259,45,08,48,043,44,13,64,160,45,26,57,310,44*61
###2023-11-09 13:09:01.845993$GBGSV,2,1,06,11,23,180,42,14,65,008,45,24,20,132,44,26,23,081,43*60
###2023-11-09 13:09:01.847932$GBGSV,2,2,06,28,43,287,47,33,59,304,47,,,,,,,,*66
###2023-11-09 13:09:01.849393$GNVTG,102.17,T,,M,4.65,N,8.60,K,A*2F
###2023-11-09 13:09:01.931000$GNGGA,130902.10,3611.0228498,N,07544.9762224,W,1,24,0.6,0.911,M,-39.962,M,0.0,*61
###2023-11-09 13:09:01.933597$GPGSV,2,1,07,05,20,090,41,10,19,293,43,13,24,045,42,15,61,037,45*75
###2023-11-09 13:09:01.935847$GPGSV,2,2,07,18,78,277,47,23,50,316,45,24,50,135,46,,,,*4E
###2023-11-09 13:09:01.938437$GLGSV,2,1,05,70,50,017,35,71,48,290,49,80,18,090,43,85,57,203,48*60
###2023-11-09 13:09:01.940046$GLGSV,2,2,05,86,53,308,48,,,,,,,,,,,,*5F
###2023-11-09 13:09:01.942608$GAGSV,1,1,04,07,73,259,45,08,48,043,44,13,64,160,45,26,57,310,44*61
###2023-11-09 13:09:01.945194$GBGSV,2,1,06,11,23,180,42,14,65,008,45,24,20,132,44,26,23,081,43*60
###2023-11-09 13:09:01.947158$GBGSV,2,2,06,28,43,287,47,33,59,304,47,,,,,,,,*66
###2023-11-09 13:09:01.948634$GNVTG,101.13,T,,M,4.39,N,8.14,K,A*22
###2023-11-09 13:09:02.032624$GNGGA,130902.20,3611.0228282,N,07544.9760742,W,1,24,0.6,0.931,M,-39.962,M,0.0,*6A
###2023-11-09 13:09:02.035232$GPGSV,2,1,07,05,20,090,41,10,19,293,43,13,24,045,42,15,61,037,45*75
###2023-11-09 13:09:02.037507$GPGSV,2,2,07,18,78,277,47,23,50,316,45,24,50,135,46,,,,*4E
###2023-11-09 13:09:02.040084$GLGSV,2,1,05,70,50,017,35,71,48,290,49,80,18,090,43,85,57,203,48*60
###2023-11-09 13:09:02.041693$GLGSV,2,2,05,86,53,308,48,,,,,,,,,,,,*5F
###2023-11-09 13:09:02.044264$GAGSV,1,1,04,07,73,259,45,08,48,043,44,13,64,160,44,26,57,310,44*60
###2023-11-09 13:09:02.046837$GBGSV,2,1,06,11,23,180,42,14,65,008,45,24,20,132,44,26,23,081,42*61
###2023-11-09 13:09:02.048791$GBGSV,2,2,06,28,43,287,47,33,59,304,47,,,,,,,,*66
###2023-11-09 13:09:02.050224$GNVTG,99.48,T,,M,4.33,N,8.03,K,A*10
###2023-11-09 13:09:02.133106$GNGGA,130902.30,3611.0228098,N,07544.9759258,W,1,24,0.6,0.956,M,-39.962,M,0.0,*67
###2023-11-09 13:09:02.135685$GPGSV,2,1,07,05,20,090,40,10,19,293,43,13,24,045,42,15,61,037,45*74
###2023-11-09 13:09:02.137949$GPGSV,2,2,07,18,78,277,47,23,50,316,46,24,50,135,46,,,,*4D
###2023-11-09 13:09:02.140509$GLGSV,2,1,05,70,50,017,35,71,48,290,49,80,18,090,43,85,57,203,49*61
###2023-11-09 13:09:02.142105$GLGSV,2,2,05,86,53,308,48,,,,,,,,,,,,*5F
###2023-11-09 13:09:02.144655$GAGSV,1,1,04,07,73,259,45,08,48,043,44,13,64,160,44,26,57,310,45*61
###2023-11-09 13:09:02.147241$GBGSV,2,1,06,11,23,180,42,14,65,008,45,24,20,132,44,26,23,081,42*61
###2023-11-09 13:09:02.149175$GBGSV,2,2,06,28,43,287,47,33,59,304,47,,,,,,,,*66
###2023-11-09 13:09:02.150602$GNVTG,98.04,T,,M,4.35,N,8.06,K,A*1A
###2023-11-09 13:09:02.229388$GNGGA,130902.40,3611.0227938,N,07544.9757752,W,1,24,0.6,0.971,M,-39.962,M,0.0,*68
###2023-11-09 13:09:02.231987$GPGSV,2,1,07,05,20,090,40,10,19,293,44,13,24,045,42,15,61,037,44*72
###2023-11-09 13:09:02.234242$GPGSV,2,2,07,18,78,277,47,23,50,316,46,24,50,135,46,,,,*4D
###2023-11-09 13:09:02.236825$GLGSV,2,1,05,70,50,017,35,71,48,290,49,80,18,090,41,85,57,203,48*62
###2023-11-09 13:09:02.238459$GLGSV,2,2,05,86,53,308,48,,,,,,,,,,,,*5F
###2023-11-09 13:09:02.241041$GAGSV,1,1,04,07,73,259,45,08,48,043,44,13,64,160,44,26,57,310,45*61
###2023-11-09 13:09:02.243619$GBGSV,2,1,06,11,23,180,42,14,65,008,45,24,20,132,44,26,23,081,42*61
###2023-11-09 13:09:02.245552$GBGSV,2,2,06,28,43,287,47,33,59,304,47,,,,,,,,*66
###2023-11-09 13:09:02.247000$GNVTG,97.15,T,,M,4.45,N,8.24,K,A*12
###2023-11-09 13:09:02.329390$GNGGA,130902.50,3611.0227796,N,07544.9756228,W,1,24,0.6,0.963,M,-39.962,M,0.0,*69
###2023-11-09 13:09:02.331981$GPGSV,2,1,07,05,20,090,40,10,19,293,44,13,24,045,40,15,61,037,44*70
###2023-11-09 13:09:02.334234$GPGSV,2,2,07,18,78,277,47,23,50,316,46,24,50,135,46,,,,*4D
###2023-11-09 13:09:02.336807$GLGSV,2,1,05,70,50,017,35,71,48,290,49,80,18,090,42,85,57,203,48*61
###2023-11-09 13:09:02.338434$GLGSV,2,2,05,86,53,308,48,,,,,,,,,,,,*5F
###2023-11-09 13:09:02.341005$GAGSV,1,1,04,07,73,259,45,08,48,043,44,13,64,160,44,26,57,310,45*61
###2023-11-09 13:09:02.343586$GBGSV,2,1,06,11,23,180,42,14,65,008,45,24,20,132,44,26,23,081,42*61
###2023-11-09 13:09:02.345525$GBGSV,2,2,06,28,43,287,47,33,59,304,47,,,,,,,,*66
###2023-11-09 13:09:02.346978$GNVTG,96.15,T,,M,4.45,N,8.24,K,A*13
###2023-11-09 13:09:02.428867$GNGGA,130902.60,3611.0227700,N,07544.9754720,W,1,24,0.6,0.936,M,-39.962,M,0.0,*6A
###2023-11-09 13:09:02.431456$GPGSV,2,1,07,05,20,090,40,10,19,293,44,13,24,045,41,15,61,037,44*71
###2023-11-09 13:09:02.433707$GPGSV,2,2,07,18,78,277,47,23,50,316,46,24,50,135,46,,,,*4D
###2023-11-09 13:09:02.436281$GLGSV,2,1,05,70,50,017,35,71,48,290,49,80,18,090,42,85,57,203,48*61
###2023-11-09 13:09:02.437900$GLGSV,2,2,05,86,53,308,48,,,,,,,,,,,,*5F
###2023-11-09 13:09:02.440469$GAGSV,1,1,04,07,73,259,45,08,48,043,44,13,64,160,44,26,57,310,45*61
###2023-11-09 13:09:02.443038$GBGSV,2,1,06,11,23,180,42,14,65,008,46,24,20,132,44,26,23,081,42*62
###2023-11-09 13:09:02.444972$GBGSV,2,2,06,28,43,287,47,33,59,304,47,,,,,,,,*66
###2023-11-09 13:09:02.446401$GNVTG,92.91,T,,M,4.32,N,7.99,K,A*12
###2023-11-09 13:09:02.529533$GNGGA,130902.70,3611.0227655,N,07544.9753206,W,1,24,0.6,0.901,M,-39.962,M,0.0,*68
###2023-11-09 13:09:02.532141$GPGSV,2,1,07,05,20,090,40,10,19,293,44,13,24,045,42,15,61,037,45*73
###2023-11-09 13:09:02.534399$GPGSV,2,2,07,18,78,277,47,23,50,316,46,24,50,135,46,,,,*4D
###2023-11-09 13:09:02.536998$GLGSV,2,1,05,70,50,017,35,71,48,290,49,80,18,090,42,85,57,203,48*61
###2023-11-09 13:09:02.538616$GLGSV,2,2,05,86,53,308,48,,,,,,,,,,,,*5F
###2023-11-09 13:09:02.541200$GAGSV,1,1,04,07,73,259,45,08,48,043,44,13,64,160,44,26,57,310,45*61
###2023-11-09 13:09:02.543789$GBGSV,2,1,06,11,23,180,41,14,65,008,45,24,20,132,43,26,23,081,43*64
###2023-11-09 13:09:02.545736$GBGSV,2,2,06,28,43,287,47,33,59,304,47,,,,,,,,*66
###2023-11-09 13:09:02.547187$GNVTG,91.37,T,,M,4.45,N,8.24,K,A*14
###2023-11-09 13:09:02.629385$GNGGA,130902.80,3611.0227648,N,07544.9751638,W,1,24,0.6,0.870,M,-39.962,M,0.0,*67
###2023-11-09 13:09:02.631982$GPGSV,2,1,07,05,20,090,40,10,19,293,44,13,24,045,42,15,61,037,45*73
###2023-11-09 13:09:02.634253$GPGSV,2,2,07,18,78,277,47,23,50,316,45,24,50,135,46,,,,*4E
###2023-11-09 13:09:02.636829$GLGSV,2,1,05,70,50,017,36,71,48,290,48,80,18,090,42,85,57,203,48*63
###2023-11-09 13:09:02.638454$GLGSV,2,2,05,86,53,308,48,,,,,,,,,,,,*5F
###2023-11-09 13:09:02.641341$GAGSV,1,1,04,07,73,259,45,08,48,043,45,13,64,160,44,26,57,310,45*60
###2023-11-09 13:09:02.643942$GBGSV,2,1,06,11,23,180,41,14,65,008,45,24,20,132,43,26,23,081,43*64
###2023-11-09 13:09:02.645885$GBGSV,2,2,06,28,43,287,47,33,59,304,47,,,,,,,,*66
###2023-11-09 13:09:02.647338$GNVTG,89.52,T,,M,4.63,N,8.57,K,A*1E
###2023-11-09 13:09:02.728521$GNGGA,130902.90,3611.0227657,N,07544.9750030,W,1,24,0.6,0.832,M,-39.962,M,0.0,*61
###2023-11-09 13:09:02.731124$GPGSV,2,1,07,05,20,090,40,10,19,293,44,13,24,045,40,15,61,037,45*71
###2023-11-09 13:09:02.733384$GPGSV,2,2,07,18,78,277,47,23,50,316,46,24,50,135,46,,,,*4D
###2023-11-09 13:09:02.735967$GLGSV,2,1,05,70,50,017,36,71,48,290,48,80,18,090,42,85,57,203,48*63
###2023-11-09 13:09:02.737605$GLGSV,2,2,05,86,53,308,48,,,,,,,,,,,,*5F
###2023-11-09 13:09:02.740195$GAGSV,1,1,04,07,73,259,45,08,48,043,45,13,64,160,44,26,57,310,45*60
