###2023-11-09 13:09:27.247549$GBGSV,2,2,06,28,43,287,47,33,59,304,47,,,,,,,,*66
###2023-11-09 13:09:27.249011$GNVTG,79.18,T,,M,3.79,N,7.02,K,A*1C
###2023-11-09 13:09:27.329881$GNGGA,130927.50,3611.0337527,N,07544.9464674,W,1,24,0.6,0.452,M,-39.961,M,0.0,*65
###2023-11-09 13:09:27.332477$GPGSV,2,1,07,05,20,090,43,10,19,293,44,13,24,045,41,15,61,037,46*70
###2023-11-09 13:09:27.334733$GPGSV,2,2,07,18,78,277,46,23,50,316,45,24,50,134,46,,,,*4E
###2023-11-09 13:09:27.337329$GLGSV,2,1,05,70,50,017,35,71,48,290,49,80,18,090,45,85,57,203,48*66
###2023-11-09 13:09:27.338947$GLGSV,2,2,05,86,53,308,48,,,,,,,,,,,,*5F
###2023-11-09 13:09:27.341518$GAGSV,1,1,04,07,73,259,45,08,48,043,44,13,63,161,44,26,57,310,45*67
###2023-11-09 13:09:27.344101$GBGSV,2,1,06,11,23,180,40,14,65,008,45,24,20,132,43,26,23,081,43*65
###2023-11-09 13:09:27.346034$GBGSV,2,2,06,28,43,287,47,33,59,304,47,,,,,,,,*66
###2023-11-09 13:09:27.347476$GNVTG,80.00,T,,M,3.63,N,6.73,K,A*1F
###2023-11-09 13:09:27.429938$GNGGA,130927.60,3611.0337677,N,07544.9463471,W,1,24,0.6,0.512,M,-39.961,M,0.0,*65
###2023-11-09 13:09:27.432555$GPGSV,2,1,07,05,20,090,43,10,19,293,43,13,24,045,41,15,61,037,46*77
###2023-11-09 13:09:27.434817$GPGSV,2,2,07,18,78,277,46,23,50,316,45,24,50,134,46,,,,*4E
###2023-11-09 13:09:27.437407$GLGSV,2,1,05,70,50,017,35,71,48,290,49,80,18,090,45,85,57,203,48*66
###2023-11-09 13:09:27.439024$GLGSV,2,2,05,86,53,308,48,,,,,,,,,,,,*5F
###2023-11-09 13:09:27.441604$GAGSV,1,1,04,07,73,259,45,08,48,043,44,13,63,161,44,26,57,310,45*67
###2023-11-09 13:09:27.444182$GBGSV,2,1,06,11,23,180,40,14,65,008,45,24,20,132,43,26,23,081,43*65
###2023-11-09 13:09:27.446112$GBGSV,2,2,06,28,43,287,47,33,59,304,47,,,,,,,,*66
###2023-11-09 13:09:27.447583$GNVTG,82.04,T,,M,3.46,N,6.41,K,A*1F
###2023-11-09 13:09:27.530888$GNGGA,130927.70,3611.0337818,N,07544.9462336,W,1,24,0.6,0.573,M,-39.961,M,0.0,*61
###2023-11-09 13:09:27.533489$GPGSV,2,1,07,05,20,090,43,10,19,293,43,13,24,045,41,15,61,037,45*74
###2023-11-09 13:09:27.535743$GPGSV,2,2,07,18,78,277,46,23,50,316,44,24,50,134,46,,,,*4F
###2023-11-09 13:09:27.538346$GLGSV,2,1,05,70,50,017,35,71,48,290,48,80,18,090,44,85,57,203,48*66
###2023-11-09 13:09:27.539958$GLGSV,2,2,05,86,53,308,47,,,,,,,,,,,,*50
###2023-11-09 13:09:27.542530$GAGSV,1,1,04,07,73,259,45,08,48,043,44,13,63,161,44,26,57,310,44*66
###2023-11-09 13:09:27.545113$GBGSV,2,1,06,11,23,180,40,14,65,008,45,24,20,132,43,26,23,081,44*62
###2023-11-09 13:09:27.547066$GBGSV,2,2,06,28,43,287,47,33,59,304,47,,,,,,,,*66
###2023-11-09 13:09:27.548499$GNVTG,80.28,T,,M,3.25,N,6.01,K,A*12
###2023-11-09 13:09:27.629773$GNGGA,130927.80,3611.0337954,N,07544.9461295,W,1,24,0.6,0.640,M,-39.961,M,0.0,*6F
###2023-11-09 13:09:27.632368$GPGSV,2,1,07,05,20,090,42,10,19,293,43,13,24,045,41,15,61,037,45*75
###2023-11-09 13:09:27.634632$GPGSV,2,2,07,18,78,277,46,23,50,316,44,24,50,134,46,,,,*4F
###2023-11-09 13:09:27.637217$GLGSV,2,1,05,70,50,017,35,71,48,290,48,80,18,090,44,85,57,203,48*66
###2023-11-09 13:09:27.638834$GLGSV,2,2,05,86,53,308,47,,,,,,,,,,,,*50
###2023-11-09 13:09:27.641409$GAGSV,1,1,04,07,73,259,45,08,48,043,43,13,63,161,44,26,57,310,44*61
###2023-11-09 13:09:27.643988$GBGSV,2,1,06,11,23,180,41,14,65,008,45,24,20,132,44,26,23,081,44*64
###2023-11-09 13:09:27.645932$GBGSV,2,2,06,28,43,287,47,33,59,304,47,,,,,,,,*66
###2023-11-09 13:09:27.647378$GNVTG,80.97,T,,M,2.92,N,5.40,K,A*1D
###2023-11-09 13:09:27.729783$GNGGA,130927.90,3611.0338077,N,07544.9460381,W,1,24,0.6,0.721,M,-39.961,M,0.0,*6A
###2023-11-09 13:09:27.732384$GPGSV,2,1,07,05,20,090,42,10,19,293,43,13,24,045,40,15,61,037,45*74
###2023-11-09 13:09:27.734636$GPGSV,2,2,07,18,78,277,46,23,50,316,44,24,50,134,46,,,,*4F
###2023-11-09 13:09:27.737225$GLGSV,2,1,05,70,50,017,35,71,48,290,48,80,18,090,43,85,57,203,49*60
###2023-11-09 13:09:27.738835$GLGSV,2,2,05,86,53,308,46,,,,,,,,,,,,*51
###2023-11-09 13:09:27.741406$GAGSV,1,1,04,07,73,259,45,08,48,043,42,13,63,161,44,26,57,310,44*60
###2023-11-09 13:09:27.743982$GBGSV,2,1,06,11,23,180,42,14,65,008,45,24,20,132,44,26,23,081,43*60
###2023-11-09 13:09:27.745922$GBGSV,2,2,06,28,43,287,47,33,59,304,47,,,,,,,,*66
###2023-11-09 13:09:27.747370$GNVTG,79.69,T,,M,2.49,N,4.61,K,A*1E
###2023-11-09 13:09:27.832755$GNGGA,130928.00,3611.0338203,N,07544.9459623,W,1,24,0.6,0.820,M,-39.961,M,0.0,*64
###2023-11-09 13:09:27.835352$GPGSV,2,1,07,05,20,090,41,10,19,293,43,13,24,045,39,15,61,037,45*79
###2023-11-09 13:09:27.837616$GPGSV,2,2,07,18,78,277,46,23,50,316,44,24,50,134,46,,,,*4F
###2023-11-09 13:09:27.840193$GLGSV,2,1,05,70,50,017,35,71,48,290,47,80,18,090,42,85,57,203,49*6E
###2023-11-09 13:09:27.841806$GLGSV,2,2,05,86,53,308,46,,,,,,,,,,,,*51
###2023-11-09 13:09:27.844382$GAGSV,1,1,04,07,73,259,45,08,48,043,42,13,63,161,44,26,57,310,44*60
###2023-11-09 13:09:27.846980$GBGSV,2,1,06,11,23,180,42,14,65,008,45,24,20,132,44,26,23,081,43*60
###2023-11-09 13:09:27.848916$GBGSV,2,2,06,28,43,287,47,33,59,304,47,,,,,,,,*66
###2023-11-09 13:09:27.850349$GNVTG,76.52,T,,M,2.02,N,3.74,K,A*15
###2023-11-09 13:09:27.932759$GNGGA,130928.10,3611.0338332,N,07544.9459003,W,1,23,0.6,0.930,M,-39.961,M,0.0,*65
###2023-11-09 13:09:27.935353$GPGSV,2,1,07,05,20,090,41,10,19,293,43,13,24,045,37,15,61,037,45*77
###2023-11-09 13:09:27.937641$GPGSV,2,2,07,18,78,277,46,23,50,316,45,24,50,134,46,,,,*4E
###2023-11-09 13:09:27.940214$GLGSV,1,1,04,71,48,290,47,80,18,090,42,85,57,203,49,86,53,308,47*6E
###2023-11-09 13:09:27.942781$GAGSV,1,1,04,07,73,259,45,08,48,043,42,13,63,161,44,26,57,310,44*60
###2023-11-09 13:09:27.945341$GBGSV,2,1,06,11,23,180,42,14,65,008,44,24,20,132,44,26,23,081,42*60
###2023-11-09 13:09:27.947287$GBGSV,2,2,06,28,43,287,47,33,59,304,47,,,,,,,,*66
###2023-11-09 13:09:27.948708$GNVTG,74.47,T,,M,1.71,N,3.17,K,A*11
###2023-11-09 13:09:28.031768$GNGGA,130928.20,3611.0338437,N,07544.9458463,W,1,23,0.6,1.048,M,-39.961,M,0.0,*60
###2023-11-09 13:09:28.034367$GPGSV,2,1,07,05,20,090,41,10,19,293,44,13,24,045,38,15,61,037,46*7C
###2023-11-09 13:09:28.036623$GPGSV,2,2,07,18,78,277,46,23,50,316,46,24,50,134,45,,,,*4E
###2023-11-09 13:09:28.039219$GLGSV,1,1,04,71,48,290,48,80,18,090,42,85,57,203,49,86,53,308,48*6E
###2023-11-09 13:09:28.041790$GAGSV,1,1,04,07,73,259,45,08,48,043,42,13,63,161,44,26,57,310,45*61
###2023-11-09 13:09:28.044366$GBGSV,2,1,06,11,23,180,42,14,65,008,44,24,20,132,44,26,23,081,42*60
###2023-11-09 13:09:28.046304$GBGSV,2,2,06,28,43,287,47,33,59,304,48,,,,,,,,*69
###2023-11-09 13:09:28.047779$GNVTG,77.98,T,,M,1.54,N,2.84,K,A*1C
###2023-11-09 13:09:28.130878$GNGGA,130928.30,3611.0338490,N,07544.9457973,W,1,23,0.6,1.152,M,-39.961,M,0.0,*65
###2023-11-09 13:09:28.133463$GPGSV,2,1,07,05,20,090,41,10,19,293,44,13,24,045,40,15,61,037,46*73
###2023-11-09 13:09:28.135731$GPGSV,2,2,07,18,78,277,46,23,50,316,46,24,50,134,45,,,,*4E
###2023-11-09 13:09:28.138339$GLGSV,1,1,04,71,48,290,49,80,18,090,42,85,57,203,48,86,53,308,48*6E
###2023-11-09 13:09:28.140929$GAGSV,1,1,04,07,73,259,45,08,48,043,43,13,63,161,44,26,57,310,45*60
###2023-11-09 13:09:28.143525$GBGSV,2,1,06,11,23,180,40,14,65,008,44,24,20,132,44,26,23,081,42*62
###2023-11-09 13:09:28.145464$GBGSV,2,2,06,28,43,287,47,33,59,304,48,,,,,,,,*69
###2023-11-09 13:09:28.146900$GNVTG,85.16,T,,M,1.38,N,2.56,K,A*12
###2023-11-09 13:09:28.231241$GNGGA,130928.40,3611.0338480,N,07544.9457493,W,1,24,0.6,1.220,M,-39.961,M,0.0,*61
###2023-11-09 13:09:28.233821$GPGSV,2,1,07,05,20,090,41,10,19,293,44,13,24,045,41,15,61,037,45*71
###2023-11-09 13:09:28.236066$GPGSV,2,2,07,18,78,277,47,23,50,316,45,24,50,134,45,,,,*4C
###2023-11-09 13:09:28.238653$GLGSV,2,1,05,70,50,017,35,71,48,290,49,80,18,090,42,85,57,203,48*61
###2023-11-09 13:09:28.240253$GLGSV,2,2,05,86,53,308,48,,,,,,,,,,,,*5F
###2023-11-09 13:09:28.242812$GAGSV,1,1,04,07,73,259,45,08,48,043,44,13,63,161,44,26,57,310,45*67
###2023-11-09 13:09:28.245381$GBGSV,2,1,06,11,23,180,40,14,65,008,45,24,20,132,43,26,23,081,42*64
###2023-11-09 13:09:28.247320$GBGSV,2,2,06,28,43,287,47,33,59,304,48,,,,,,,,*69
###2023-11-09 13:09:28.248743$GNVTG,95.77,T,,M,1.44,N,2.66,K,A*1C
###2023-11-09 13:09:28.330366$GNGGA,130928.50,3611.0338415,N,07544.9457004,W,1,24,0.6,1.245,M,-39.961,M,0.0,*65
###2023-11-09 13:09:28.333259$GPGSV,2,1,07,05,20,090,41,10,19,293,44,13,24,045,41,15,61,037,45*71
###2023-11-09 13:09:28.335526$GPGSV,2,2,07,18,78,277,47,23,50,316,45,24,50,134,45,,,,*4C
###2023-11-09 13:09:28.338127$GLGSV,2,1,05,70,50,017,35,71,48,290,49,80,18,090,42,85,57,203,48*61
###2023-11-09 13:09:28.339733$GLGSV,2,2,05,86,53,308,48,,,,,,,,,,,,*5F
###2023-11-09 13:09:28.342300$GAGSV,1,1,04,07,73,259,45,08,48,043,44,13,63,161,44,26,57,310,45*67
###2023-11-09 13:09:28.344877$GBGSV,2,1,06,11,23,180,40,14,65,008,46,24,20,132,42,26,23,081,43*67
###2023-11-09 13:09:28.346814$GBGSV,2,2,06,28,43,287,47,33,59,304,47,,,,,,,,*66
###2023-11-09 13:09:28.348294$GNVTG,100.37,T,,M,1.46,N,2.70,K,A*20
###2023-11-09 13:09:28.430368$GNGGA,130928.60,3611.0338305,N,07544.9456537,W,1,24,0.6,1.228,M,-39.961,M,0.0,*6F
###2023-11-09 13:09:28.432971$GPGSV,2,1,07,05,20,090,41,10,19,293,42,13,24,045,41,15,61,037,45*77
