###2023-11-09 13:06:24.646099$GBGSV,2,1,06,11,24,180,42,14,65,006,46,24,19,133,43,26,23,082,42*64
###2023-11-09 13:06:24.648073$GBGSV,2,2,06,28,43,289,47,33,58,302,47,,,,,,,,*6F
###2023-11-09 13:06:24.649497$GNVTG,22.92,T,,M,0.89,N,1.66,K,A*18
###2023-11-09 13:06:24.731520$GNGGA,130624.90,3611.0411231,N,07544.9806193,W,1,24,0.6,1.005,M,-39.961,M,0.0,*67
###2023-11-09 13:06:24.734134$GPGSV,2,1,07,05,21,090,42,10,17,292,42,13,25,045,42,15,62,036,46*79
###2023-11-09 13:06:24.736392$GPGSV,2,2,07,18,77,282,47,23,49,314,45,24,49,137,45,,,,*48
###2023-11-09 13:06:24.738992$GLGSV,2,1,05,70,50,016,35,71,48,288,48,80,17,091,44,85,58,203,47*60
###2023-11-09 13:06:24.740596$GLGSV,2,2,05,86,52,309,47,,,,,,,,,,,,*50
###2023-11-09 13:06:24.743154$GAGSV,1,1,04,07,72,255,45,08,49,042,44,13,64,160,44,26,56,311,44*6D
###2023-11-09 13:06:24.745729$GBGSV,2,1,06,11,24,180,41,14,65,006,46,24,19,133,43,26,23,082,42*67
###2023-11-09 13:06:24.747671$GBGSV,2,2,06,28,43,289,47,33,58,302,47,,,,,,,,*6F
###2023-11-09 13:06:24.749103$GNVTG,22.92,T,,M,0.66,N,1.22,K,A*19
###2023-11-09 13:06:24.838393$GNGGA,130625.00,3611.0411389,N,07544.9806186,W,1,24,0.6,1.020,M,-39.961,M,0.0,*6E
###2023-11-09 13:06:24.840990$GPGSV,2,1,07,05,21,090,42,10,17,292,42,13,25,045,42,15,62,036,45*7A
###2023-11-09 13:06:24.843245$GPGSV,2,2,07,18,77,282,47,23,49,314,45,24,49,137,45,,,,*48
###2023-11-09 13:06:24.845820$GLGSV,2,1,05,70,50,016,36,71,48,288,48,80,17,091,44,85,58,203,47*63
###2023-11-09 13:06:24.847438$GLGSV,2,2,05,86,52,309,47,,,,,,,,,,,,*50
###2023-11-09 13:06:24.850006$GAGSV,1,1,04,07,72,255,45,08,49,042,44,13,64,160,44,26,56,311,44*6D
###2023-11-09 13:06:24.852581$GBGSV,2,1,06,11,24,180,41,14,65,006,46,24,19,133,43,26,23,082,42*67
###2023-11-09 13:06:24.854511$GBGSV,2,2,06,28,43,289,47,33,58,302,47,,,,,,,,*6F
###2023-11-09 13:06:24.855938$GNVTG,22.92,T,,M,0.51,N,0.94,K,A*11
###2023-11-09 13:06:24.933350$GNGGA,130625.10,3611.0411515,N,07544.9806214,W,1,24,0.6,1.031,M,-39.961,M,0.0,*64
###2023-11-09 13:06:24.935928$GPGSV,2,1,07,05,21,090,42,10,18,292,42,13,25,045,41,15,62,036,45*76
###2023-11-09 13:06:24.938194$GPGSV,2,2,07,18,77,282,47,23,49,314,45,24,49,137,45,,,,*48
###2023-11-09 13:06:24.940750$GLGSV,2,1,05,70,50,016,36,71,48,288,48,80,17,091,44,85,58,203,47*63
###2023-11-09 13:06:24.942340$GLGSV,2,2,05,86,52,309,47,,,,,,,,,,,,*50
###2023-11-09 13:06:24.944896$GAGSV,1,1,04,07,72,255,45,08,49,042,44,13,64,160,44,26,56,311,45*6C
###2023-11-09 13:06:24.947470$GBGSV,2,1,06,11,24,180,41,14,65,006,46,24,19,133,42,26,23,082,42*66
###2023-11-09 13:06:24.949394$GBGSV,2,2,06,28,43,289,47,33,58,302,47,,,,,,,,*6F
###2023-11-09 13:06:24.950836$GNVTG,22.92,T,,M,0.43,N,0.79,K,A*11
###2023-11-09 13:06:25.034105$GNGGA,130625.20,3611.0411638,N,07544.9806247,W,1,24,0.6,1.044,M,-39.961,M,0.0,*6F
###2023-11-09 13:06:25.036703$GPGSV,2,1,07,05,21,090,42,10,18,292,42,13,25,045,41,15,62,036,45*76
###2023-11-09 13:06:25.038995$GPGSV,2,2,07,18,77,282,47,23,49,314,45,24,49,137,45,,,,*48
###2023-11-09 13:06:25.041576$GLGSV,2,1,05,70,50,016,36,71,48,288,48,80,17,091,44,85,58,203,48*6C
###2023-11-09 13:06:25.043188$GLGSV,2,2,05,86,52,309,47,,,,,,,,,,,,*50
###2023-11-09 13:06:25.045749$GAGSV,1,1,04,07,72,255,45,08,49,042,44,13,64,160,44,26,56,311,44*6D
###2023-11-09 13:06:25.048333$GBGSV,2,1,06,11,24,180,41,14,65,006,46,24,19,133,42,26,23,082,42*66
###2023-11-09 13:06:25.050270$GBGSV,2,2,06,28,43,289,47,33,58,302,47,,,,,,,,*6F
###2023-11-09 13:06:25.051701$GNVTG,22.92,T,,M,0.51,N,0.94,K,A*11
###2023-11-09 13:06:25.132630$GNGGA,130625.30,3611.0411799,N,07544.9806265,W,1,24,0.6,1.060,M,-39.961,M,0.0,*62
###2023-11-09 13:06:25.135217$GPGSV,2,1,07,05,21,090,42,10,18,292,43,13,25,045,41,15,62,036,45*77
###2023-11-09 13:06:25.137495$GPGSV,2,2,07,18,77,282,47,23,49,314,45,24,49,137,45,,,,*48
###2023-11-09 13:06:25.140084$GLGSV,2,1,05,70,50,016,36,71,48,288,48,80,17,091,44,85,58,203,48*6C
###2023-11-09 13:06:25.141700$GLGSV,2,2,05,86,52,309,47,,,,,,,,,,,,*50
###2023-11-09 13:06:25.144283$GAGSV,1,1,04,07,72,255,45,08,49,042,44,13,64,160,44,26,56,311,45*6C
###2023-11-09 13:06:25.146867$GBGSV,2,1,06,11,24,180,41,14,65,006,46,24,19,133,42,26,23,082,42*66
###2023-11-09 13:06:25.148829$GBGSV,2,2,06,28,43,289,47,33,58,302,47,,,,,,,,*6F
###2023-11-09 13:06:25.150257$GNVTG,22.92,T,,M,0.68,N,1.26,K,A*13
###2023-11-09 13:06:25.232093$GNGGA,130625.40,3611.0411992,N,07544.9806285,W,1,24,0.6,1.070,M,-39.961,M,0.0,*6F
###2023-11-09 13:06:25.234673$GPGSV,2,1,07,05,21,090,42,10,18,292,42,13,25,045,41,15,62,036,45*76
###2023-11-09 13:06:25.236931$GPGSV,2,2,07,18,77,282,47,23,49,314,45,24,49,137,45,,,,*48
###2023-11-09 13:06:25.239494$GLGSV,2,1,05,70,50,016,36,71,48,288,48,80,17,091,44,85,58,203,48*6C
###2023-11-09 13:06:25.241096$GLGSV,2,2,05,86,52,309,47,,,,,,,,,,,,*50
###2023-11-09 13:06:25.243652$GAGSV,1,1,04,07,72,255,45,08,49,042,44,13,64,160,44,26,56,311,45*6C
###2023-11-09 13:06:25.246213$GBGSV,2,1,06,11,24,180,41,14,65,006,46,24,19,133,42,26,23,082,41*65
###2023-11-09 13:06:25.248154$GBGSV,2,2,06,28,43,289,47,33,58,302,47,,,,,,,,*6F
###2023-11-09 13:06:25.249571$GNVTG,22.92,T,,M,0.74,N,1.37,K,A*1E
###2023-11-09 13:06:25.330007$GNGGA,130625.50,3611.0412183,N,07544.9806330,W,1,24,0.6,1.066,M,-39.961,M,0.0,*6D
###2023-11-09 13:06:25.332606$GPGSV,2,1,07,05,21,090,42,10,18,292,43,13,25,045,41,15,62,036,45*77
###2023-11-09 13:06:25.334852$GPGSV,2,2,07,18,77,282,47,23,49,314,45,24,49,137,45,,,,*48
###2023-11-09 13:06:25.337444$GLGSV,2,1,05,70,50,016,36,71,48,288,48,80,17,091,44,85,58,203,48*6C
###2023-11-09 13:06:25.339054$GLGSV,2,2,05,86,52,309,47,,,,,,,,,,,,*50
###2023-11-09 13:06:25.341617$GAGSV,1,1,04,07,72,255,45,08,49,042,44,13,64,160,44,26,56,311,45*6C
###2023-11-09 13:06:25.344206$GBGSV,2,1,06,11,24,180,41,14,65,006,46,24,19,133,42,26,23,082,41*65
###2023-11-09 13:06:25.346133$GBGSV,2,2,06,28,43,289,47,33,58,302,47,,,,,,,,*6F
###2023-11-09 13:06:25.347574$GNVTG,22.92,T,,M,0.70,N,1.30,K,A*1D
###2023-11-09 13:06:25.432750$GNGGA,130625.60,3611.0412352,N,07544.9806402,W,1,24,0.6,1.058,M,-39.961,M,0.0,*6B
###2023-11-09 13:06:25.435331$GPGSV,2,1,07,05,21,090,42,10,18,292,43,13,25,045,42,15,62,036,46*77
###2023-11-09 13:06:25.437640$GPGSV,2,2,07,18,77,282,47,23,49,314,45,24,49,137,45,,,,*48
###2023-11-09 13:06:25.440224$GLGSV,2,1,05,70,50,016,36,71,48,288,48,80,17,091,44,85,58,203,48*6C
###2023-11-09 13:06:25.441835$GLGSV,2,2,05,86,52,309,47,,,,,,,,,,,,*50
###2023-11-09 13:06:25.444414$GAGSV,1,1,04,07,72,255,45,08,49,042,44,13,64,160,44,26,56,311,45*6C
###2023-11-09 13:06:25.447022$GBGSV,2,1,06,11,24,180,41,14,65,006,46,24,19,133,42,26,23,082,41*65
###2023-11-09 13:06:25.448969$GBGSV,2,2,06,28,43,289,47,33,58,302,47,,,,,,,,*6F
###2023-11-09 13:06:25.450400$GNVTG,22.92,T,,M,0.62,N,1.15,K,A*19
###2023-11-09 13:06:25.531491$GNGGA,130625.70,3611.0412487,N,07544.9806495,W,1,24,0.6,1.043,M,-39.961,M,0.0,*61
###2023-11-09 13:06:25.534074$GPGSV,2,1,07,05,21,090,42,10,18,292,44,13,25,045,42,15,62,036,46*70
###2023-11-09 13:06:25.536316$GPGSV,2,2,07,18,77,282,47,23,49,314,45,24,49,137,45,,,,*48
###2023-11-09 13:06:25.538898$GLGSV,2,1,05,70,50,016,36,71,48,288,48,80,17,091,44,85,58,203,48*6C
###2023-11-09 13:06:25.540499$GLGSV,2,2,05,86,52,309,48,,,,,,,,,,,,*5F
###2023-11-09 13:06:25.543052$GAGSV,1,1,04,07,72,255,45,08,49,042,44,13,64,160,44,26,56,311,45*6C
###2023-11-09 13:06:25.545615$GBGSV,2,1,06,11,24,180,41,14,65,006,46,24,19,133,42,26,23,082,41*65
###2023-11-09 13:06:25.547552$GBGSV,2,2,06,28,43,289,47,33,58,302,47,,,,,,,,*6F
###2023-11-09 13:06:25.548977$GNVTG,22.92,T,,M,0.51,N,0.94,K,A*11
###2023-11-09 13:06:25.630616$GNGGA,130625.80,3611.0412601,N,07544.9806590,W,1,24,0.6,1.025,M,-39.961,M,0.0,*66
###2023-11-09 13:06:25.633202$GPGSV,2,1,07,05,21,090,42,10,18,292,44,13,25,045,42,15,62,036,45*73
###2023-11-09 13:06:25.635454$GPGSV,2,2,07,18,77,282,47,23,49,314,46,24,49,137,45,,,,*4B
###2023-11-09 13:06:25.638035$GLGSV,2,1,05,70,50,016,36,71,48,288,48,80,17,091,44,85,58,203,48*6C
###2023-11-09 13:06:25.639642$GLGSV,2,2,05,86,52,309,48,,,,,,,,,,,,*5F
###2023-11-09 13:06:25.642208$GAGSV,1,1,04,07,72,255,45,08,49,042,44,13,64,160,44,26,56,311,45*6C
###2023-11-09 13:06:25.644791$GBGSV,2,1,06,11,24,180,41,14,65,006,46,24,19,133,42,26,23,082,41*65
###2023-11-09 13:06:25.647054$GBGSV,2,2,06,28,43,289,47,33,58,302,47,,,,,,,,*6F
###2023-11-09 13:06:25.648499$GNVTG,22.92,T,,M,0.49,N,0.90,K,A*1C
###2023-11-09 13:06:25.732499$GNGGA,130625.90,3611.0412727,N,07544.9806658,W,1,24,0.6,1.010,M,-39.961,M,0.0,*63
###2023-11-09 13:06:25.735121$GPGSV,2,1,07,05,21,090,42,10,18,292,44,13,25,045,41,15,62,036,45*70
###2023-11-09 13:06:25.737423$GPGSV,2,2,07,18,77,282,47,23,49,314,45,24,49,137,45,,,,*48
###2023-11-09 13:06:25.740036$GLGSV,2,1,05,70,50,016,36,71,48,288,48,80,17,091,44,85,58,203,48*6C
###2023-11-09 13:06:25.741658$GLGSV,2,2,05,86,52,309,47,,,,,,,,,,,,*50
###2023-11-09 13:06:25.744252$GAGSV,1,1,04,07,72,255,45,08,49,042,44,13,64,160,44,26,56,311,45*6C
###2023-11-09 13:06:25.746837$GBGSV,2,1,06,11,24,180,41,14,65,006,46,24,19,133,42,26,23,082,41*65
