###2023-11-09 13:07:46.046302$GBGSV,2,1,06,11,23,180,41,14,65,008,46,24,20,132,41,26,23,081,43*65
###2023-11-09 13:07:46.048296$GBGSV,2,2,06,28,43,287,47,33,58,302,48,,,,,,,,*6E
###2023-11-09 13:07:46.049778$GNVTG,161.67,T,,M,4.39,N,8.14,K,A*27
###2023-11-09 13:07:46.133751$GNGGA,130746.30,3611.0515107,N,07544.9682298,W,1,24,0.6,0.971,M,-39.961,M,0.0,*6A
###2023-11-09 13:07:46.136358$GPGSV,2,1,07,05,21,090,41,10,18,292,45,13,24,045,42,15,62,037,46*72
###2023-11-09 13:07:46.138633$GPGSV,2,2,07,18,77,281,46,23,50,315,46,24,49,136,45,,,,*41
###2023-11-09 13:07:46.141212$GLGSV,2,1,05,70,50,016,35,71,48,288,48,80,17,091,44,85,58,203,49*6E
###2023-11-09 13:07:46.142821$GLGSV,2,2,05,86,52,309,48,,,,,,,,,,,,*5F
###2023-11-09 13:07:46.145389$GAGSV,1,1,04,07,72,257,45,08,49,042,44,13,64,160,44,26,56,310,45*6F
###2023-11-09 13:07:46.148000$GBGSV,2,1,06,11,23,180,40,14,65,008,46,24,20,132,41,26,23,081,43*64
###2023-11-09 13:07:46.149938$GBGSV,2,2,06,28,43,287,47,33,58,302,48,,,,,,,,*6E
###2023-11-09 13:07:46.151401$GNVTG,164.42,T,,M,4.35,N,8.06,K,A*2A
###2023-11-09 13:07:46.234747$GNGGA,130746.40,3611.0513917,N,07544.9681927,W,1,24,0.6,0.962,M,-39.961,M,0.0,*6C
###2023-11-09 13:07:46.237356$GPGSV,2,1,07,05,21,090,41,10,18,292,44,13,24,045,42,15,62,037,46*73
###2023-11-09 13:07:46.239593$GPGSV,2,2,07,18,77,281,46,23,50,315,46,24,49,136,45,,,,*41
###2023-11-09 13:07:46.242152$GLGSV,2,1,05,70,50,016,35,71,48,288,49,80,17,091,43,85,58,203,49*68
###2023-11-09 13:07:46.243748$GLGSV,2,2,05,86,52,309,48,,,,,,,,,,,,*5F
###2023-11-09 13:07:46.246300$GAGSV,1,1,04,07,72,257,45,08,49,042,44,13,64,160,44,26,56,310,45*6F
###2023-11-09 13:07:46.248887$GBGSV,2,1,06,11,23,180,40,14,65,008,46,24,20,132,40,26,23,081,43*65
###2023-11-09 13:07:46.250812$GBGSV,2,2,06,28,43,287,47,33,58,302,47,,,,,,,,*61
###2023-11-09 13:07:46.252282$GNVTG,166.43,T,,M,4.45,N,8.24,K,A*2E
###2023-11-09 13:07:46.330247$GNGGA,130746.50,3611.0512714,N,07544.9681582,W,1,24,0.6,0.923,M,-39.961,M,0.0,*67
###2023-11-09 13:07:46.332834$GPGSV,2,1,07,05,21,090,41,10,18,292,45,13,24,045,42,15,62,037,46*72
###2023-11-09 13:07:46.335092$GPGSV,2,2,07,18,77,281,46,23,50,315,46,24,49,136,45,,,,*41
###2023-11-09 13:07:46.337691$GLGSV,2,1,05,70,50,016,35,71,48,288,49,80,17,091,43,85,58,203,48*69
###2023-11-09 13:07:46.339294$GLGSV,2,2,05,86,52,309,48,,,,,,,,,,,,*5F
###2023-11-09 13:07:46.341859$GAGSV,1,1,04,07,72,257,45,08,49,042,44,13,64,160,44,26,56,310,45*6F
###2023-11-09 13:07:46.344429$GBGSV,2,1,06,11,23,180,40,14,65,008,45,24,20,132,40,26,23,081,42*67
###2023-11-09 13:07:46.346364$GBGSV,2,2,06,28,43,287,47,33,58,302,47,,,,,,,,*61
###2023-11-09 13:07:46.347858$GNVTG,166.59,T,,M,4.41,N,8.17,K,A*21
###2023-11-09 13:07:46.432358$GNGGA,130746.60,3611.0511541,N,07544.9681271,W,1,24,0.6,0.870,M,-39.961,M,0.0,*69
###2023-11-09 13:07:46.434955$GPGSV,2,1,07,05,21,090,41,10,18,292,45,13,24,045,41,15,62,037,45*72
###2023-11-09 13:07:46.437239$GPGSV,2,2,07,18,77,281,46,23,50,315,46,24,49,136,45,,,,*41
###2023-11-09 13:07:46.439810$GLGSV,2,1,05,70,50,016,35,71,48,288,49,80,17,091,42,85,58,203,49*69
###2023-11-09 13:07:46.441414$GLGSV,2,2,05,86,52,309,49,,,,,,,,,,,,*5E
###2023-11-09 13:07:46.443980$GAGSV,1,1,04,07,72,257,45,08,49,042,43,13,64,160,44,26,56,310,45*68
###2023-11-09 13:07:46.446566$GBGSV,2,1,06,11,23,180,40,14,65,008,45,24,20,132,40,26,23,081,42*67
###2023-11-09 13:07:46.448522$GBGSV,2,2,06,28,43,287,47,33,58,302,48,,,,,,,,*6E
###2023-11-09 13:07:46.449985$GNVTG,168.38,T,,M,4.20,N,7.78,K,A*29
###2023-11-09 13:07:46.531349$GNGGA,130746.70,3611.0510394,N,07544.9680959,W,1,24,0.6,0.824,M,-39.961,M,0.0,*66
###2023-11-09 13:07:46.533934$GPGSV,2,1,07,05,21,090,41,10,18,292,45,13,24,045,41,15,62,037,45*72
###2023-11-09 13:07:46.536172$GPGSV,2,2,07,18,77,281,45,23,50,315,46,24,49,136,45,,,,*42
###2023-11-09 13:07:46.538751$GLGSV,2,1,05,70,50,016,35,71,48,288,49,80,17,091,42,85,58,203,49*69
###2023-11-09 13:07:46.540358$GLGSV,2,2,05,86,52,309,49,,,,,,,,,,,,*5E
###2023-11-09 13:07:46.542911$GAGSV,1,1,04,07,72,257,45,08,49,042,43,13,64,160,44,26,56,310,46*6B
###2023-11-09 13:07:46.545474$GBGSV,2,1,06,11,23,180,40,14,65,008,45,24,20,132,40,26,23,081,42*67
###2023-11-09 13:07:46.547417$GBGSV,2,2,06,28,43,287,47,33,58,302,48,,,,,,,,*6E
###2023-11-09 13:07:46.548873$GNVTG,166.05,T,,M,4.24,N,7.85,K,A*2F
###2023-11-09 13:07:46.631111$GNGGA,130746.80,3611.0509253,N,07544.9680571,W,1,24,0.6,0.794,M,-39.961,M,0.0,*69
###2023-11-09 13:07:46.633705$GPGSV,2,1,07,05,21,090,40,10,18,292,45,13,24,045,41,15,62,037,45*73
###2023-11-09 13:07:46.635955$GPGSV,2,2,07,18,77,281,46,23,50,315,47,24,49,136,45,,,,*40
###2023-11-09 13:07:46.638542$GLGSV,2,1,05,70,50,016,36,71,48,288,49,80,17,091,42,85,58,203,49*6A
###2023-11-09 13:07:46.640160$GLGSV,2,2,05,86,52,309,49,,,,,,,,,,,,*5E
###2023-11-09 13:07:46.642757$GAGSV,1,1,04,07,72,257,45,08,49,042,43,13,64,160,44,26,56,310,46*6B
###2023-11-09 13:07:46.645366$GBGSV,2,1,06,11,23,180,40,14,65,008,45,24,20,132,40,26,23,081,42*67
###2023-11-09 13:07:46.647321$GBGSV,2,2,06,28,43,287,47,33,58,302,48,,,,,,,,*6E
###2023-11-09 13:07:46.648793$GNVTG,162.60,T,,M,4.26,N,7.88,K,A*27
###2023-11-09 13:07:46.731881$GNGGA,130746.90,3611.0508136,N,07544.9680106,W,1,24,0.6,0.783,M,-39.961,M,0.0,*6B
###2023-11-09 13:07:46.734494$GPGSV,2,1,07,05,21,090,41,10,18,292,46,13,24,045,41,15,62,037,45*71
###2023-11-09 13:07:46.736766$GPGSV,2,2,07,18,77,281,46,23,50,315,47,24,49,136,45,,,,*40
###2023-11-09 13:07:46.739370$GLGSV,2,1,05,70,50,016,36,71,48,288,49,80,17,091,42,85,58,203,49*6A
###2023-11-09 13:07:46.740989$GLGSV,2,2,05,86,52,309,49,,,,,,,,,,,,*5E
###2023-11-09 13:07:46.743569$GAGSV,1,1,04,07,72,257,45,08,49,042,43,13,64,160,44,26,56,310,46*6B
###2023-11-09 13:07:46.746168$GBGSV,2,1,06,11,23,180,40,14,65,008,45,24,20,132,40,26,23,081,42*67
###2023-11-09 13:07:46.748127$GBGSV,2,2,06,28,43,287,47,33,58,302,48,,,,,,,,*6E
###2023-11-09 13:07:46.749605$GNVTG,159.35,T,,M,4.22,N,7.81,K,A*22
###2023-11-09 13:07:46.833596$GNGGA,130747.00,3611.0507042,N,07544.9679604,W,1,24,0.6,0.779,M,-39.961,M,0.0,*68
###2023-11-09 13:07:46.836169$GPGSV,2,1,07,05,21,090,42,10,18,292,45,13,24,045,41,15,62,037,46*72
###2023-11-09 13:07:46.838428$GPGSV,2,2,07,18,77,281,46,23,50,315,47,24,49,136,45,,,,*40
###2023-11-09 13:07:46.840995$GLGSV,2,1,05,70,50,016,36,71,48,288,49,80,17,091,43,85,58,203,48*6A
###2023-11-09 13:07:46.842596$GLGSV,2,2,05,86,52,309,49,,,,,,,,,,,,*5E
###2023-11-09 13:07:46.845151$GAGSV,1,1,04,07,72,257,45,08,49,042,44,13,64,160,44,26,56,310,46*6C
###2023-11-09 13:07:46.847731$GBGSV,2,1,06,11,23,180,40,14,65,008,46,24,20,132,40,26,23,081,42*64
###2023-11-09 13:07:46.849660$GBGSV,2,2,06,28,43,287,47,33,58,302,48,,,,,,,,*6E
###2023-11-09 13:07:46.851121$GNVTG,159.15,T,,M,4.20,N,7.78,K,A*24
###2023-11-09 13:07:46.932372$GNGGA,130747.10,3611.0505965,N,07544.9679173,W,1,24,0.6,0.772,M,-39.961,M,0.0,*6B
###2023-11-09 13:07:46.934976$GPGSV,2,1,07,05,21,090,42,10,18,292,45,13,24,045,41,15,62,037,46*72
###2023-11-09 13:07:46.937259$GPGSV,2,2,07,18,77,281,46,23,50,315,46,24,49,136,46,,,,*42
###2023-11-09 13:07:46.939839$GLGSV,2,1,05,70,50,016,36,71,48,288,49,80,17,091,44,85,58,203,48*6D
###2023-11-09 13:07:46.941450$GLGSV,2,2,05,86,52,309,48,,,,,,,,,,,,*5F
###2023-11-09 13:07:46.944019$GAGSV,1,1,04,07,72,257,45,08,49,042,44,13,64,160,44,26,56,310,45*6F
###2023-11-09 13:07:46.946607$GBGSV,2,1,06,11,23,180,40,14,65,008,46,24,20,132,42,26,23,081,43*67
###2023-11-09 13:07:46.948558$GBGSV,2,2,06,28,43,287,47,33,58,302,48,,,,,,,,*6E
###2023-11-09 13:07:46.950034$GNVTG,164.32,T,,M,3.97,N,7.34,K,A*2C
###2023-11-09 13:07:47.034472$GNGGA,130747.20,3611.0504907,N,07544.9678889,W,1,24,0.6,0.773,M,-39.961,M,0.0,*61
###2023-11-09 13:07:47.037088$GPGSV,2,1,07,05,21,090,43,10,18,292,45,13,24,045,42,15,62,037,46*70
###2023-11-09 13:07:47.039336$GPGSV,2,2,07,18,77,281,46,23,50,315,46,24,49,136,46,,,,*42
###2023-11-09 13:07:47.041911$GLGSV,2,1,05,70,50,016,36,71,48,288,49,80,17,091,44,85,58,203,48*6D
###2023-11-09 13:07:47.043518$GLGSV,2,2,05,86,52,309,48,,,,,,,,,,,,*5F
###2023-11-09 13:07:47.046085$GAGSV,1,1,04,07,72,257,45,08,49,042,44,13,64,160,44,26,56,310,45*6F
###2023-11-09 13:07:47.048982$GBGSV,2,1,06,11,23,180,38,14,65,008,46,24,20,132,42,26,23,081,43*68
###2023-11-09 13:07:47.050939$GBGSV,2,2,06,28,43,287,47,33,58,302,48,,,,,,,,*6E
###2023-11-09 13:07:47.052415$GNVTG,170.56,T,,M,3.85,N,7.13,K,A*2D
###2023-11-09 13:07:47.130972$GNGGA,130747.30,3611.0503846,N,07544.9678700,W,1,24,0.6,0.783,M,-39.961,M,0.0,*62
###2023-11-09 13:07:47.133559$GPGSV,2,1,07,05,21,090,42,10,18,292,45,13,24,045,42,15,62,037,46*71
###2023-11-09 13:07:47.135812$GPGSV,2,2,07,18,77,281,46,23,50,315,46,24,49,136,46,,,,*42
###2023-11-09 13:07:47.138392$GLGSV,2,1,05,70,50,016,36,71,48,288,49,80,17,091,43,85,58,203,48*6A
###2023-11-09 13:07:47.139998$GLGSV,2,2,05,86,52,309,48,,,,,,,,,,,,*5F
###2023-11-09 13:07:47.142556$GAGSV,1,1,04,07,72,257,45,08,49,042,44,13,64,160,44,26,56,310,45*6F
###2023-11-09 13:07:47.145133$GBGSV,2,1,06,11,23,180,38,14,65,008,46,24,20,132,42,26,23,081,43*68
