###2023-11-09 13:06:28.033111$GNGGA,130628.20,3611.0417795,N,07544.9804477,W,1,24,0.6,0.942,M,-39.961,M,0.0,*6B
###2023-11-09 13:06:28.035703$GPGSV,2,1,07,05,21,090,42,10,18,292,43,13,24,045,41,15,62,036,46*75
###2023-11-09 13:06:28.037982$GPGSV,2,2,07,18,77,282,47,23,49,314,45,24,49,137,45,,,,*48
###2023-11-09 13:06:28.040558$GLGSV,2,1,05,70,50,016,36,71,48,288,47,80,17,091,44,85,58,203,48*63
###2023-11-09 13:06:28.042162$GLGSV,2,2,05,86,52,309,48,,,,,,,,,,,,*5F
###2023-11-09 13:06:28.044720$GAGSV,1,1,04,07,72,255,45,08,49,042,44,13,64,160,44,26,56,311,45*6C
###2023-11-09 13:06:28.047306$GBGSV,2,1,06,11,24,180,42,14,65,006,46,24,19,133,43,26,23,082,42*64
###2023-11-09 13:06:28.049239$GBGSV,2,2,06,28,43,289,47,33,58,302,47,,,,,,,,*6F
###2023-11-09 13:06:28.050670$GNVTG,14.45,T,,M,1.15,N,2.12,K,A*13
###2023-11-09 13:06:28.134105$GNGGA,130628.30,3611.0418081,N,07544.9804388,W,1,24,0.6,0.928,M,-39.961,M,0.0,*6C
###2023-11-09 13:06:28.136690$GPGSV,2,1,07,05,21,090,42,10,18,292,43,13,24,045,41,15,62,036,46*75
###2023-11-09 13:06:28.138955$GPGSV,2,2,07,18,77,282,47,23,49,314,45,24,49,137,46,,,,*4B
###2023-11-09 13:06:28.141532$GLGSV,2,1,05,70,50,016,36,71,48,288,47,80,17,091,44,85,58,203,48*63
###2023-11-09 13:06:28.143132$GLGSV,2,2,05,86,52,309,48,,,,,,,,,,,,*5F
###2023-11-09 13:06:28.145685$GAGSV,1,1,04,07,72,255,45,08,49,042,44,13,64,160,44,26,56,311,45*6C
###2023-11-09 13:06:28.148259$GBGSV,2,1,06,11,24,180,42,14,65,006,46,24,19,133,43,26,23,082,42*64
###2023-11-09 13:06:28.150188$GBGSV,2,2,06,28,43,289,47,33,58,302,47,,,,,,,,*6F
###2023-11-09 13:06:28.151612$GNVTG,15.75,T,,M,0.99,N,1.84,K,A*18
###2023-11-09 13:06:28.231724$GNGGA,130628.40,3611.0418326,N,07544.9804303,W,1,24,0.6,0.906,M,-39.961,M,0.0,*6A
###2023-11-09 13:06:28.234314$GPGSV,2,1,07,05,21,090,42,10,18,292,43,13,24,045,41,15,62,036,46*75
###2023-11-09 13:06:28.236546$GPGSV,2,2,07,18,77,282,47,23,49,314,45,24,49,137,46,,,,*4B
###2023-11-09 13:06:28.239119$GLGSV,2,1,05,70,50,016,36,71,48,288,47,80,17,091,44,85,58,203,48*63
###2023-11-09 13:06:28.240721$GLGSV,2,2,05,86,52,309,48,,,,,,,,,,,,*5F
###2023-11-09 13:06:28.243274$GAGSV,1,1,04,07,72,255,45,08,49,042,44,13,64,160,44,26,56,311,45*6C
###2023-11-09 13:06:28.245832$GBGSV,2,1,06,11,24,180,41,14,65,006,46,24,19,133,43,26,23,082,42*67
###2023-11-09 13:06:28.247770$GBGSV,2,2,06,28,43,289,47,33,58,302,47,,,,,,,,*6F
###2023-11-09 13:06:28.249196$GNVTG,15.75,T,,M,0.86,N,1.58,K,A*17
###2023-11-09 13:06:28.333363$GNGGA,130628.50,3611.0418535,N,07544.9804212,W,1,24,0.6,0.883,M,-39.961,M,0.0,*62
###2023-11-09 13:06:28.335959$GPGSV,2,1,07,05,21,090,42,10,18,292,43,13,24,045,41,15,62,036,46*75
###2023-11-09 13:06:28.338246$GPGSV,2,2,07,18,77,282,47,23,49,314,45,24,49,137,46,,,,*4B
###2023-11-09 13:06:28.340809$GLGSV,2,1,05,70,50,016,36,71,48,288,47,80,17,091,44,85,58,203,48*63
###2023-11-09 13:06:28.342412$GLGSV,2,2,05,86,52,309,47,,,,,,,,,,,,*50
###2023-11-09 13:06:28.344975$GAGSV,1,1,04,07,72,255,45,08,49,042,44,13,64,160,44,26,56,311,45*6C
###2023-11-09 13:06:28.347560$GBGSV,2,1,06,11,24,180,41,14,65,006,46,24,19,133,43,26,23,082,42*67
###2023-11-09 13:06:28.349488$GBGSV,2,2,06,28,43,289,47,33,58,302,47,,,,,,,,*6F
###2023-11-09 13:06:28.350913$GNVTG,15.75,T,,M,0.76,N,1.40,K,A*11
###2023-11-09 13:06:28.432369$GNGGA,130628.60,3611.0418745,N,07544.9804098,W,1,24,0.6,0.865,M,-39.961,M,0.0,*6C
###2023-11-09 13:06:28.434964$GPGSV,2,1,07,05,21,090,42,10,18,292,43,13,24,045,41,15,62,036,46*75
###2023-11-09 13:06:28.437260$GPGSV,2,2,07,18,77,282,47,23,49,314,45,24,49,137,46,,,,*4B
###2023-11-09 13:06:28.439836$GLGSV,2,1,05,70,50,016,36,71,48,288,47,80,17,091,44,85,58,203,48*63
###2023-11-09 13:06:28.441447$GLGSV,2,2,05,86,52,309,47,,,,,,,,,,,,*50
###2023-11-09 13:06:28.444020$GAGSV,1,1,04,07,72,255,45,08,49,042,44,13,64,160,44,26,56,311,45*6C
###2023-11-09 13:06:28.446589$GBGSV,2,1,06,11,24,180,41,14,65,006,46,24,19,133,43,26,23,082,40*65
###2023-11-09 13:06:28.448530$GBGSV,2,2,06,28,43,289,46,33,58,302,47,,,,,,,,*6E
###2023-11-09 13:06:28.449959$GNVTG,15.75,T,,M,0.89,N,1.66,K,A*15
###2023-11-09 13:06:28.531346$GNGGA,130628.70,3611.0418971,N,07544.9803952,W,1,24,0.6,0.849,M,-39.961,M,0.0,*62
###2023-11-09 13:06:28.533929$GPGSV,2,1,07,05,21,090,41,10,18,292,43,13,24,045,41,15,62,036,46*76
###2023-11-09 13:06:28.536174$GPGSV,2,2,07,18,77,282,47,23,49,314,45,24,49,137,46,,,,*4B
###2023-11-09 13:06:28.538741$GLGSV,2,1,05,70,50,016,36,71,48,288,47,80,17,091,44,85,58,203,48*63
###2023-11-09 13:06:28.540333$GLGSV,2,2,05,86,52,309,47,,,,,,,,,,,,*50
###2023-11-09 13:06:28.542888$GAGSV,1,1,04,07,72,255,45,08,49,042,44,13,64,160,45,26,56,311,45*6D
###2023-11-09 13:06:28.545463$GBGSV,2,1,06,11,24,180,41,14,65,006,46,24,19,133,43,26,23,082,40*65
###2023-11-09 13:06:28.547402$GBGSV,2,2,06,28,43,289,46,33,58,302,47,,,,,,,,*6E
###2023-11-09 13:06:28.548826$GNVTG,15.75,T,,M,0.97,N,1.80,K,A*12
###2023-11-09 13:06:28.631489$GNGGA,130628.80,3611.0419214,N,07544.9803775,W,1,24,0.6,0.840,M,-39.961,M,0.0,*66
###2023-11-09 13:06:28.634090$GPGSV,2,1,07,05,21,090,41,10,18,292,43,13,24,045,41,15,62,036,46*76
###2023-11-09 13:06:28.636348$GPGSV,2,2,07,18,77,282,47,23,49,314,45,24,49,137,46,,,,*4B
###2023-11-09 13:06:28.638942$GLGSV,2,1,05,70,50,016,36,71,48,288,48,80,17,091,44,85,58,203,48*6C
###2023-11-09 13:06:28.640551$GLGSV,2,2,05,86,52,309,47,,,,,,,,,,,,*50
###2023-11-09 13:06:28.643119$GAGSV,1,1,04,07,72,255,45,08,49,042,44,13,64,160,44,26,56,311,45*6C
###2023-11-09 13:06:28.645693$GBGSV,2,1,06,11,24,180,41,14,65,006,46,24,19,133,43,26,23,082,40*65
###2023-11-09 13:06:28.647638$GBGSV,2,2,06,28,43,289,47,33,58,302,47,,,,,,,,*6F
###2023-11-09 13:06:28.649069$GNVTG,31.06,T,,M,1.09,N,2.02,K,A*1F
###2023-11-09 13:06:28.733364$GNGGA,130628.90,3611.0419463,N,07544.9803589,W,1,24,0.6,0.838,M,-39.961,M,0.0,*6F
###2023-11-09 13:06:28.735978$GPGSV,2,1,07,05,21,090,41,10,18,292,43,13,24,045,41,15,62,036,46*76
###2023-11-09 13:06:28.738270$GPGSV,2,2,07,18,77,282,47,23,49,314,45,24,49,137,46,,,,*4B
###2023-11-09 13:06:28.740848$GLGSV,2,1,05,70,50,016,36,71,48,288,48,80,17,091,44,85,58,203,48*6C
###2023-11-09 13:06:28.742460$GLGSV,2,2,05,86,52,309,47,,,,,,,,,,,,*50
###2023-11-09 13:06:28.745024$GAGSV,1,1,04,07,72,255,45,08,49,042,44,13,64,160,44,26,56,311,45*6C
###2023-11-09 13:06:28.747623$GBGSV,2,1,06,11,24,180,41,14,65,006,46,24,19,133,43,26,23,082,40*65
###2023-11-09 13:06:28.749560$GBGSV,2,2,06,28,43,289,48,33,58,302,47,,,,,,,,*60
###2023-11-09 13:06:28.750988$GNVTG,32.25,T,,M,1.03,N,1.91,K,A*1E
###2023-11-09 13:06:28.837123$GNGGA,130629.00,3611.0419687,N,07544.9803396,W,1,24,0.6,0.843,M,-39.961,M,0.0,*6B
###2023-11-09 13:06:28.839704$GPGSV,2,1,07,05,21,090,42,10,18,292,43,13,24,045,41,15,62,036,46*75
###2023-11-09 13:06:28.841949$GPGSV,2,2,07,18,77,282,47,23,49,314,45,24,49,137,45,,,,*48
###2023-11-09 13:06:28.844509$GLGSV,2,1,05,70,50,016,36,71,48,288,48,80,17,091,44,85,58,203,48*6C
###2023-11-09 13:06:28.846108$GLGSV,2,2,05,86,52,309,47,,,,,,,,,,,,*50
###2023-11-09 13:06:28.848680$GAGSV,1,1,04,07,72,255,45,08,49,042,44,13,64,160,44,26,56,311,45*6C
###2023-11-09 13:06:28.851273$GBGSV,2,1,06,11,24,180,41,14,65,006,46,24,19,133,43,26,23,082,40*65
###2023-11-09 13:06:28.853238$GBGSV,2,2,06,28,43,289,48,33,58,302,47,,,,,,,,*60
###2023-11-09 13:06:28.854671$GNVTG,32.25,T,,M,0.97,N,1.80,K,A*12
###2023-11-09 13:06:28.933996$GNGGA,130629.10,3611.0419880,N,07544.9803197,W,1,24,0.6,0.858,M,-39.961,M,0.0,*6A
###2023-11-09 13:06:28.936606$GPGSV,2,1,07,05,21,090,42,10,18,292,43,13,24,045,41,15,62,036,46*75
###2023-11-09 13:06:28.938882$GPGSV,2,2,07,18,77,282,47,23,49,314,45,24,49,137,45,,,,*48
###2023-11-09 13:06:28.941456$GLGSV,2,1,05,70,50,016,36,71,48,288,48,80,17,091,44,85,58,203,48*6C
###2023-11-09 13:06:28.943067$GLGSV,2,2,05,86,52,309,47,,,,,,,,,,,,*50
###2023-11-09 13:06:28.945636$GAGSV,1,1,04,07,72,255,45,08,49,042,44,13,64,160,44,26,56,311,45*6C
###2023-11-09 13:06:28.948233$GBGSV,2,1,06,11,24,180,41,14,65,006,46,24,19,133,43,26,23,082,42*67
###2023-11-09 13:06:28.950168$GBGSV,2,2,06,28,43,289,48,33,58,302,47,,,,,,,,*60
###2023-11-09 13:06:28.951594$GNVTG,32.25,T,,M,0.87,N,1.62,K,A*1F
###2023-11-09 13:06:29.036222$GNGGA,130629.20,3611.0420049,N,07544.9802998,W,1,24,0.6,0.880,M,-39.961,M,0.0,*6D
###2023-11-09 13:06:29.039140$GPGSV,2,1,07,05,21,090,42,10,18,292,43,13,24,045,41,15,62,036,46*75
###2023-11-09 13:06:29.041399$GPGSV,2,2,07,18,77,282,47,23,49,314,45,24,49,137,45,,,,*48
###2023-11-09 13:06:29.043970$GLGSV,2,1,05,70,50,016,36,71,48,288,48,80,17,091,44,85,58,203,48*6C
###2023-11-09 13:06:29.045580$GLGSV,2,2,05,86,52,309,48,,,,,,,,,,,,*5F
###2023-11-09 13:06:29.048151$GAGSV,1,1,04,07,72,255,45,08,49,042,44,13,64,160,44,26,56,311,45*6C
###2023-11-09 13:06:29.050721$GBGSV,2,1,06,11,24,180,41,14,65,006,46,24,19,133,43,26,23,082,42*67
###2023-11-09 13:06:29.052651$GBGSV,2,2,06,28,43,289,48,33,58,302,47,,,,,,,,*60
###2023-11-09 13:06:29.054075$GNVTG,32.25,T,,M,0.84,N,1.55,K,A*18
###2023-11-09 13:06:29.132465$GNGGA,130629.30,3611.0420204,N,07544.9802807,W,1,24,0.6,0.903,M,-39.961,M,0.0,*6A
