###2023-11-09 13:09:06.129277$GNGGA,130906.30,3611.0235542,N,07544.9696067,W,1,24,0.6,0.602,M,-39.962,M,0.0,*6F
###2023-11-09 13:09:06.131887$GPGSV,2,1,07,05,20,090,43,10,19,293,44,13,24,045,40,15,61,037,45*72
###2023-11-09 13:09:06.134146$GPGSV,2,2,07,18,78,277,47,23,50,316,45,24,50,135,45,,,,*4D
###2023-11-09 13:09:06.136722$GLGSV,2,1,05,70,50,017,35,71,48,290,48,80,18,090,45,85,57,203,48*67
###2023-11-09 13:09:06.138358$GLGSV,2,2,05,86,53,308,47,,,,,,,,,,,,*50
###2023-11-09 13:09:06.140936$GAGSV,1,1,04,07,73,259,45,08,48,043,45,13,64,160,45,26,57,310,44*60
###2023-11-09 13:09:06.143517$GBGSV,2,1,06,11,23,180,43,14,65,008,45,24,20,132,45,26,23,081,43*60
###2023-11-09 13:09:06.145449$GBGSV,2,2,06,28,43,287,46,33,59,304,46,,,,,,,,*66
###2023-11-09 13:09:06.146882$GNVTG,63.73,T,,M,5.33,N,9.86,K,A*10
###2023-11-09 13:09:06.230249$GNGGA,130906.40,3611.0236213,N,07544.9694435,W,1,24,0.6,0.589,M,-39.962,M,0.0,*69
###2023-11-09 13:09:06.232840$GPGSV,2,1,07,05,20,090,43,10,19,293,44,13,24,045,40,15,61,037,45*72
###2023-11-09 13:09:06.235089$GPGSV,2,2,07,18,78,277,47,23,50,316,45,24,50,135,45,,,,*4D
###2023-11-09 13:09:06.237684$GLGSV,2,1,05,70,50,017,35,71,48,290,48,80,18,090,45,85,57,203,49*66
###2023-11-09 13:09:06.239298$GLGSV,2,2,05,86,53,308,48,,,,,,,,,,,,*5F
###2023-11-09 13:09:06.241873$GAGSV,1,1,04,07,73,259,45,08,48,043,45,13,64,160,45,26,57,310,44*60
###2023-11-09 13:09:06.244467$GBGSV,2,1,06,11,23,180,43,14,65,008,45,24,20,132,45,26,23,081,43*60
###2023-11-09 13:09:06.246420$GBGSV,2,2,06,28,43,287,47,33,59,304,46,,,,,,,,*67
###2023-11-09 13:09:06.247872$GNVTG,62.53,T,,M,5.35,N,9.90,K,A*12
###2023-11-09 13:09:06.329387$GNGGA,130906.50,3611.0236923,N,07544.9692805,W,1,24,0.6,0.591,M,-39.962,M,0.0,*60
###2023-11-09 13:09:06.331972$GPGSV,2,1,07,05,20,090,43,10,19,293,44,13,24,045,40,15,61,037,45*72
###2023-11-09 13:09:06.334222$GPGSV,2,2,07,18,78,277,47,23,50,316,45,24,50,135,45,,,,*4D
###2023-11-09 13:09:06.336787$GLGSV,2,1,05,70,50,017,35,71,48,290,48,80,18,090,45,85,57,203,49*66
###2023-11-09 13:09:06.338403$GLGSV,2,2,05,86,53,308,48,,,,,,,,,,,,*5F
###2023-11-09 13:09:06.340960$GAGSV,1,1,04,07,73,259,45,08,48,043,45,13,64,160,45,26,57,310,45*61
###2023-11-09 13:09:06.343529$GBGSV,2,1,06,11,23,180,43,14,65,008,45,24,20,132,45,26,23,081,43*60
###2023-11-09 13:09:06.345454$GBGSV,2,2,06,28,43,287,47,33,59,304,47,,,,,,,,*66
###2023-11-09 13:09:06.346919$GNVTG,61.19,T,,M,5.46,N,10.12,K,A*29
###2023-11-09 13:09:06.429663$GNGGA,130906.60,3611.0237651,N,07544.9691147,W,1,24,0.6,0.603,M,-39.962,M,0.0,*6C
###2023-11-09 13:09:06.432268$GPGSV,2,1,07,05,20,090,43,10,19,293,44,13,24,045,40,15,61,037,45*72
###2023-11-09 13:09:06.434550$GPGSV,2,2,07,18,78,277,47,23,50,316,46,24,50,135,45,,,,*4E
###2023-11-09 13:09:06.437152$GLGSV,2,1,05,70,50,017,35,71,48,290,48,80,18,090,45,85,57,203,49*66
###2023-11-09 13:09:06.438770$GLGSV,2,2,05,86,53,308,48,,,,,,,,,,,,*5F
###2023-11-09 13:09:06.441338$GAGSV,1,1,04,07,73,259,45,08,48,043,45,13,64,160,45,26,57,310,45*61
###2023-11-09 13:09:06.443919$GBGSV,2,1,06,11,23,180,43,14,65,008,45,24,20,132,45,26,23,081,43*60
###2023-11-09 13:09:06.445857$GBGSV,2,2,06,28,43,287,47,33,59,304,47,,,,,,,,*66
###2023-11-09 13:09:06.447346$GNVTG,62.03,T,,M,5.54,N,10.26,K,A*25
###2023-11-09 13:09:06.529291$GNGGA,130906.70,3611.0238356,N,07544.9689440,W,1,24,0.6,0.614,M,-39.962,M,0.0,*6D
###2023-11-09 13:09:06.531893$GPGSV,2,1,07,05,20,090,43,10,19,293,44,13,24,045,41,15,61,037,45*73
###2023-11-09 13:09:06.534156$GPGSV,2,2,07,18,78,277,47,23,50,316,46,24,50,135,45,,,,*4E
###2023-11-09 13:09:06.536736$GLGSV,2,1,05,70,50,017,35,71,48,290,48,80,18,090,45,85,57,203,48*67
###2023-11-09 13:09:06.538359$GLGSV,2,2,05,86,53,308,48,,,,,,,,,,,,*5F
###2023-11-09 13:09:06.540939$GAGSV,1,1,04,07,73,259,45,08,48,043,45,13,64,160,45,26,57,310,45*61
###2023-11-09 13:09:06.543526$GBGSV,2,1,06,11,23,180,42,14,65,008,45,24,20,132,44,26,23,081,43*60
###2023-11-09 13:09:06.545467$GBGSV,2,2,06,28,43,287,47,33,59,304,47,,,,,,,,*66
###2023-11-09 13:09:06.546954$GNVTG,64.05,T,,M,5.64,N,10.44,K,A*22
###2023-11-09 13:09:06.629262$GNGGA,130906.80,3611.0239032,N,07544.9687694,W,1,24,0.6,0.615,M,-39.962,M,0.0,*66
###2023-11-09 13:09:06.631847$GPGSV,2,1,07,05,20,090,43,10,19,293,44,13,24,045,41,15,61,037,45*73
###2023-11-09 13:09:06.634100$GPGSV,2,2,07,18,78,277,47,23,50,316,46,24,50,135,45,,,,*4E
###2023-11-09 13:09:06.636665$GLGSV,2,1,05,70,50,017,36,71,48,290,48,80,18,090,45,85,57,203,48*64
###2023-11-09 13:09:06.638276$GLGSV,2,2,05,86,53,308,48,,,,,,,,,,,,*5F
###2023-11-09 13:09:06.640837$GAGSV,1,1,04,07,73,259,45,08,48,043,45,13,64,160,45,26,57,310,45*61
###2023-11-09 13:09:06.643411$GBGSV,2,1,06,11,23,180,42,14,65,008,45,24,20,132,44,26,23,081,43*60
###2023-11-09 13:09:06.645344$GBGSV,2,2,06,28,43,287,47,33,59,304,47,,,,,,,,*66
###2023-11-09 13:09:06.646804$GNVTG,65.05,T,,M,5.66,N,10.48,K,A*2D
###2023-11-09 13:09:06.729541$GNGGA,130906.90,3611.0239693,N,07544.9685937,W,1,24,0.6,0.614,M,-39.962,M,0.0,*6F
###2023-11-09 13:09:06.732174$GPGSV,2,1,07,05,20,090,43,10,19,293,43,13,24,045,41,15,61,037,45*74
###2023-11-09 13:09:06.734445$GPGSV,2,2,07,18,78,277,47,23,50,316,46,24,50,135,45,,,,*4E
###2023-11-09 13:09:06.737051$GLGSV,2,1,05,70,50,017,36,71,48,290,48,80,18,090,45,85,57,203,49*65
###2023-11-09 13:09:06.738678$GLGSV,2,2,05,86,53,308,48,,,,,,,,,,,,*5F
###2023-11-09 13:09:06.741252$GAGSV,1,1,04,07,73,259,45,08,48,043,45,13,64,160,45,26,57,310,45*61
###2023-11-09 13:09:06.743846$GBGSV,2,1,06,11,23,180,42,14,65,008,45,24,20,132,44,26,23,081,43*60
###2023-11-09 13:09:06.745800$GBGSV,2,2,06,28,43,287,47,33,59,304,47,,,,,,,,*66
###2023-11-09 13:09:06.747296$GNVTG,65.43,T,,M,5.66,N,10.48,K,A*2F
###2023-11-09 13:09:06.832386$GNGGA,130907.00,3611.0240357,N,07544.9684184,W,1,24,0.6,0.618,M,-39.962,M,0.0,*69
###2023-11-09 13:09:06.834995$GPGSV,2,1,07,05,20,090,43,10,19,293,43,13,24,045,41,15,61,037,45*74
###2023-11-09 13:09:06.837284$GPGSV,2,2,07,18,78,277,47,23,50,316,46,24,50,135,45,,,,*4E
###2023-11-09 13:09:06.839871$GLGSV,2,1,05,70,50,017,36,71,48,290,48,80,18,090,45,85,57,203,49*65
###2023-11-09 13:09:06.841491$GLGSV,2,2,05,86,53,308,48,,,,,,,,,,,,*5F
###2023-11-09 13:09:06.844070$GAGSV,1,1,04,07,73,259,45,08,48,043,45,13,64,160,45,26,57,310,45*61
###2023-11-09 13:09:06.846668$GBGSV,2,1,06,11,23,180,43,14,65,008,45,24,20,132,44,26,23,081,43*61
###2023-11-09 13:09:06.848625$GBGSV,2,2,06,28,43,287,47,33,59,304,47,,,,,,,,*66
###2023-11-09 13:09:06.850094$GNVTG,64.66,T,,M,5.64,N,10.44,K,A*27
###2023-11-09 13:09:06.930241$GNGGA,130907.10,3611.0241041,N,07544.9682435,W,1,24,0.6,0.630,M,-39.962,M,0.0,*6E
###2023-11-09 13:09:06.932845$GPGSV,2,1,07,05,20,090,43,10,19,293,43,13,24,045,41,15,61,037,45*74
###2023-11-09 13:09:06.935102$GPGSV,2,2,07,18,78,277,47,23,50,316,46,24,50,135,45,,,,*4E
###2023-11-09 13:09:06.937689$GLGSV,2,1,05,70,50,017,36,71,48,290,48,80,18,090,45,85,57,203,49*65
###2023-11-09 13:09:06.939296$GLGSV,2,2,05,86,53,308,48,,,,,,,,,,,,*5F
###2023-11-09 13:09:06.941871$GAGSV,1,1,04,07,73,259,45,08,48,043,45,13,63,161,45,26,57,310,45*67
###2023-11-09 13:09:06.944444$GBGSV,2,1,06,11,23,180,43,14,65,008,45,24,20,132,44,26,23,081,43*61
###2023-11-09 13:09:06.946368$GBGSV,2,2,06,28,43,287,47,33,59,304,47,,,,,,,,*66
###2023-11-09 13:09:06.947844$GNVTG,63.99,T,,M,5.70,N,10.55,K,A*25
###2023-11-09 13:09:07.032377$GNGGA,130907.20,3611.0241749,N,07544.9680669,W,1,24,0.6,0.640,M,-39.962,M,0.0,*6C
###2023-11-09 13:09:07.034981$GPGSV,2,1,07,05,20,090,43,10,19,293,43,13,24,045,41,15,61,037,45*74
###2023-11-09 13:09:07.037264$GPGSV,2,2,07,18,78,277,47,23,50,316,46,24,50,135,45,,,,*4E
###2023-11-09 13:09:07.039854$GLGSV,2,1,05,70,50,017,35,71,48,290,48,80,18,090,45,85,57,203,49*66
###2023-11-09 13:09:07.041478$GLGSV,2,2,05,86,53,308,48,,,,,,,,,,,,*5F
###2023-11-09 13:09:07.044061$GAGSV,1,1,04,07,73,259,45,08,48,043,45,13,63,161,45,26,57,310,45*67
###2023-11-09 13:09:07.046652$GBGSV,2,1,06,11,23,180,43,14,65,008,45,24,20,132,44,26,23,081,43*61
###2023-11-09 13:09:07.048606$GBGSV,2,2,06,28,43,287,46,33,59,304,47,,,,,,,,*67
###2023-11-09 13:09:07.050078$GNVTG,63.60,T,,M,5.81,N,10.76,K,A*2C
###2023-11-09 13:09:07.130282$GNGGA,130907.30,3611.0242456,N,07544.9678875,W,1,24,0.6,0.641,M,-39.962,M,0.0,*66
###2023-11-09 13:09:07.132916$GPGSV,2,1,07,05,20,090,43,10,19,293,43,13,24,045,41,15,61,037,45*74
###2023-11-09 13:09:07.135187$GPGSV,2,2,07,18,78,277,47,23,50,316,46,24,50,135,45,,,,*4E
###2023-11-09 13:09:07.137801$GLGSV,2,1,05,70,50,017,35,71,48,290,48,80,18,090,45,85,57,203,49*66
###2023-11-09 13:09:07.139425$GLGSV,2,2,05,86,53,308,48,,,,,,,,,,,,*5F
###2023-11-09 13:09:07.142009$GAGSV,1,1,04,07,73,259,45,08,48,043,44,13,63,161,45,26,57,310,45*66
###2023-11-09 13:09:07.144604$GBGSV,2,1,06,11,23,180,42,14,65,008,45,24,20,132,44,26,23,081,43*60
###2023-11-09 13:09:07.146552$GBGSV,2,2,06,28,43,287,47,33,59,304,47,,,,,,,,*66
###2023-11-09 13:09:07.148049$GNVTG,64.68,T,,M,5.83,N,10.80,K,A*28
###2023-11-09 13:09:07.230493$GNGGA,130907.40,3611.0243129,N,07544.9677062,W,1,24,0.6,0.628,M,-39.962,M,0.0,*63
