###2023-11-09 13:10:12.032260$GPGSV,2,1,07,05,20,090,39,10,19,293,44,13,24,045,39,15,61,037,45*71
###2023-11-09 13:10:12.034521$GPGSV,2,2,07,18,78,277,46,23,50,316,45,24,50,134,46,,,,*4E
###2023-11-09 13:10:12.037137$GLGSV,2,1,05,70,49,019,35,71,48,291,50,80,19,089,42,85,56,202,48*67
###2023-11-09 13:10:12.038745$GLGSV,2,2,05,86,54,306,47,,,,,,,,,,,,*59
###2023-11-09 13:10:12.041284$GAGSV,1,1,04,07,73,259,45,08,48,043,44,13,63,161,45,26,57,310,44*67
###2023-11-09 13:10:12.043838$GBGSV,2,1,06,11,22,180,42,14,65,009,45,24,21,132,43,26,23,080,42*66
###2023-11-09 13:10:12.045758$GBGSV,2,2,06,28,43,286,47,33,59,305,47,,,,,,,,*66
###2023-11-09 13:10:12.047194$GNVTG,79.17,T,,M,4.18,N,7.74,K,A*12
###2023-11-09 13:10:12.126748$GNGGA,131012.30,3611.0497614,N,07544.8856084,W,1,24,0.6,0.672,M,-39.961,M,0.0,*66
###2023-11-09 13:10:12.129363$GPGSV,2,1,07,05,20,090,39,10,19,293,44,13,24,045,41,15,61,037,45*7E
###2023-11-09 13:10:12.131630$GPGSV,2,2,07,18,78,277,47,23,50,316,45,24,50,134,46,,,,*4F
###2023-11-09 13:10:12.134202$GLGSV,2,1,05,70,49,019,35,71,48,291,49,80,19,089,42,85,56,202,48*6F
###2023-11-09 13:10:12.135815$GLGSV,2,2,05,86,54,306,47,,,,,,,,,,,,*59
###2023-11-09 13:10:12.138392$GAGSV,1,1,04,07,73,259,45,08,48,043,44,13,63,161,45,26,57,310,44*67
###2023-11-09 13:10:12.140968$GBGSV,2,1,06,11,22,180,41,14,65,009,45,24,21,132,41,26,23,080,42*67
###2023-11-09 13:10:12.142898$GBGSV,2,2,06,28,43,286,48,33,59,305,48,,,,,,,,*66
###2023-11-09 13:10:12.144329$GNVTG,83.00,T,,M,4.28,N,7.92,K,A*1A
###2023-11-09 13:10:12.228525$GNGGA,131012.40,3611.0497653,N,07544.8854613,W,1,24,0.6,0.649,M,-39.961,M,0.0,*60
###2023-11-09 13:10:12.231117$GPGSV,2,1,07,05,20,090,40,10,19,293,44,13,24,045,42,15,61,037,45*73
###2023-11-09 13:10:12.233367$GPGSV,2,2,07,18,78,277,47,23,50,316,45,24,50,134,45,,,,*4C
###2023-11-09 13:10:12.235947$GLGSV,2,1,05,70,49,019,35,71,48,291,49,80,19,089,42,85,56,202,48*6F
###2023-11-09 13:10:12.237569$GLGSV,2,2,05,86,54,306,48,,,,,,,,,,,,*56
###2023-11-09 13:10:12.240137$GAGSV,1,1,04,07,73,259,45,08,48,043,44,13,63,161,45,26,57,310,44*67
###2023-11-09 13:10:12.242739$GBGSV,2,1,06,11,22,180,39,14,65,009,45,24,21,132,40,26,23,080,43*68
###2023-11-09 13:10:12.244699$GBGSV,2,2,06,28,43,286,47,33,59,305,48,,,,,,,,*69
###2023-11-09 13:10:12.246128$GNVTG,92.89,T,,M,4.33,N,8.03,K,A*16
###2023-11-09 13:10:12.327252$GNGGA,131012.50,3611.0497480,N,07544.8853167,W,1,24,0.6,0.594,M,-39.961,M,0.0,*6D
###2023-11-09 13:10:12.329839$GPGSV,2,1,07,05,20,090,41,10,19,293,44,13,24,045,42,15,61,037,45*72
###2023-11-09 13:10:12.332088$GPGSV,2,2,07,18,78,277,47,23,50,316,45,24,50,134,45,,,,*4C
###2023-11-09 13:10:12.334655$GLGSV,2,1,05,70,49,019,35,71,48,291,48,80,19,089,43,85,56,202,48*6F
###2023-11-09 13:10:12.336259$GLGSV,2,2,05,86,54,306,48,,,,,,,,,,,,*56
###2023-11-09 13:10:12.338825$GAGSV,1,1,04,07,73,259,45,08,48,043,44,13,63,161,45,26,57,310,44*67
###2023-11-09 13:10:12.341393$GBGSV,2,1,06,11,22,180,39,14,65,009,45,24,21,132,41,26,23,080,44*6E
###2023-11-09 13:10:12.343320$GBGSV,2,2,06,28,43,286,47,33,59,305,48,,,,,,,,*69
###2023-11-09 13:10:12.344775$GNVTG,103.57,T,,M,4.22,N,7.81,K,A*29
###2023-11-09 13:10:12.427915$GNGGA,131012.60,3611.0497169,N,07544.8851778,W,1,24,0.6,0.521,M,-39.961,M,0.0,*68
###2023-11-09 13:10:12.430507$GPGSV,2,1,07,05,20,090,41,10,19,293,44,13,24,045,42,15,61,037,45*72
###2023-11-09 13:10:12.432781$GPGSV,2,2,07,18,78,277,47,23,50,316,45,24,50,134,46,,,,*4F
###2023-11-09 13:10:12.435362$GLGSV,2,1,05,70,49,019,35,71,48,291,47,80,19,089,43,85,56,202,49*61
###2023-11-09 13:10:12.436993$GLGSV,2,2,05,86,54,306,47,,,,,,,,,,,,*59
###2023-11-09 13:10:12.439570$GAGSV,1,1,04,07,73,259,45,08,48,043,44,13,63,161,45,26,57,310,44*67
###2023-11-09 13:10:12.442154$GBGSV,2,1,06,11,22,180,43,14,65,009,45,24,21,132,45,26,23,080,43*60
###2023-11-09 13:10:12.444094$GBGSV,2,2,06,28,43,286,47,33,59,305,48,,,,,,,,*69
###2023-11-09 13:10:12.445558$GNVTG,106.72,T,,M,4.20,N,7.78,K,A*2F
###2023-11-09 13:10:12.527772$GNGGA,131012.70,3611.0496898,N,07544.8850429,W,1,24,0.6,0.482,M,-39.961,M,0.0,*61
###2023-11-09 13:10:12.530377$GPGSV,2,1,07,05,20,090,41,10,19,293,44,13,24,045,39,15,61,037,45*7E
###2023-11-09 13:10:12.532647$GPGSV,2,2,07,18,78,277,47,23,50,316,44,24,50,134,46,,,,*4E
###2023-11-09 13:10:12.535241$GLGSV,2,1,05,70,49,019,35,71,48,291,49,80,19,089,43,85,56,202,49*6F
###2023-11-09 13:10:12.536848$GLGSV,2,2,05,86,54,306,47,,,,,,,,,,,,*59
###2023-11-09 13:10:12.539440$GAGSV,1,1,04,07,73,259,45,08,48,043,44,13,63,161,45,26,57,310,43*60
###2023-11-09 13:10:12.542025$GBGSV,2,1,06,11,22,180,43,14,65,009,44,24,21,132,46,26,23,080,42*63
###2023-11-09 13:10:12.543965$GBGSV,2,2,06,28,43,286,47,33,59,305,47,,,,,,,,*66
###2023-11-09 13:10:12.545434$GNVTG,100.59,T,,M,3.91,N,7.24,K,A*24
###2023-11-09 13:10:12.628273$GNGGA,131012.80,3611.0496873,N,07544.8849084,W,1,24,0.6,0.501,M,-39.961,M,0.0,*6A
###2023-11-09 13:10:12.630849$GPGSV,2,1,07,05,20,090,40,10,19,293,44,13,24,045,39,15,61,037,45*7F
###2023-11-09 13:10:12.633096$GPGSV,2,2,07,18,78,277,47,23,50,316,44,24,50,134,46,,,,*4E
###2023-11-09 13:10:12.635663$GLGSV,2,1,05,70,49,019,35,71,48,291,49,80,19,089,43,85,56,202,49*6F
###2023-11-09 13:10:12.637274$GLGSV,2,2,05,86,54,306,47,,,,,,,,,,,,*59
###2023-11-09 13:10:12.639832$GAGSV,1,1,04,07,73,259,45,08,48,043,43,13,63,161,45,26,57,310,43*67
###2023-11-09 13:10:12.642397$GBGSV,2,1,06,11,22,180,43,14,65,009,44,24,21,132,45,26,23,080,42*60
###2023-11-09 13:10:12.644317$GBGSV,2,2,06,28,43,286,47,33,59,305,47,,,,,,,,*66
###2023-11-09 13:10:12.645733$GNVTG,81.81,T,,M,4.02,N,7.45,K,A*13
###2023-11-09 13:10:12.727881$GNGGA,131012.90,3611.0497099,N,07544.8847717,W,1,24,0.6,0.544,M,-39.961,M,0.0,*64
###2023-11-09 13:10:12.730486$GPGSV,2,1,07,05,20,090,40,10,19,293,44,13,24,045,39,15,61,037,45*7F
###2023-11-09 13:10:12.732745$GPGSV,2,2,07,18,78,277,47,23,50,316,44,24,50,134,46,,,,*4E
###2023-11-09 13:10:12.735330$GLGSV,2,1,05,70,49,019,35,71,48,291,48,80,19,089,42,85,56,202,49*6F
###2023-11-09 13:10:12.736952$GLGSV,2,2,05,86,54,306,47,,,,,,,,,,,,*59
###2023-11-09 13:10:12.739527$GAGSV,1,1,04,07,73,259,45,08,48,043,44,13,63,161,45,26,57,310,44*67
###2023-11-09 13:10:12.742104$GBGSV,2,1,06,11,22,180,43,14,65,009,45,24,21,132,44,26,23,080,41*63
###2023-11-09 13:10:12.744043$GBGSV,2,2,06,28,43,286,48,33,59,305,48,,,,,,,,*66
###2023-11-09 13:10:12.745487$GNVTG,75.04,T,,M,4.12,N,7.63,K,A*10
###2023-11-09 13:10:12.831358$GNGGA,131013.00,3611.0497300,N,07544.8846312,W,1,24,0.6,0.572,M,-39.961,M,0.0,*6A
###2023-11-09 13:10:12.833948$GPGSV,2,1,07,05,20,090,38,10,19,293,45,13,24,045,41,15,61,037,45*7E
###2023-11-09 13:10:12.836203$GPGSV,2,2,07,18,78,277,47,23,50,316,45,24,50,134,45,,,,*4C
###2023-11-09 13:10:12.838802$GLGSV,2,1,05,70,49,019,35,71,48,291,49,80,19,089,42,85,56,202,48*6F
###2023-11-09 13:10:12.840407$GLGSV,2,2,05,86,54,306,48,,,,,,,,,,,,*56
###2023-11-09 13:10:12.842977$GAGSV,1,1,04,07,73,259,45,08,48,043,45,13,63,161,45,26,57,310,45*67
###2023-11-09 13:10:12.845553$GBGSV,2,1,06,11,22,180,41,14,65,009,45,24,21,132,42,26,23,080,42*64
###2023-11-09 13:10:12.847506$GBGSV,2,2,06,28,43,286,48,33,59,305,48,,,,,,,,*66
###2023-11-09 13:10:12.848935$GNVTG,84.20,T,,M,4.26,N,7.88,K,A*1A
###2023-11-09 13:10:12.929355$GNGGA,131013.10,3611.0497318,N,07544.8844843,W,1,24,0.6,0.554,M,-39.961,M,0.0,*6B
###2023-11-09 13:10:12.931927$GPGSV,2,1,07,05,20,090,40,10,19,293,45,13,24,045,42,15,61,037,45*72
###2023-11-09 13:10:12.934163$GPGSV,2,2,07,18,78,277,47,23,50,316,45,24,50,134,45,,,,*4C
###2023-11-09 13:10:12.936725$GLGSV,2,1,05,70,49,019,35,71,48,291,48,80,19,089,42,85,56,202,48*6E
###2023-11-09 13:10:12.938342$GLGSV,2,2,05,86,54,306,48,,,,,,,,,,,,*56
###2023-11-09 13:10:12.940914$GAGSV,1,1,04,07,73,259,45,08,48,043,45,13,63,161,45,26,57,310,45*67
###2023-11-09 13:10:12.943486$GBGSV,2,1,06,11,22,180,39,14,65,009,46,24,21,132,42,26,23,080,44*6E
###2023-11-09 13:10:12.945420$GBGSV,2,2,06,28,43,286,47,33,59,305,48,,,,,,,,*69
###2023-11-09 13:10:12.946841$GNVTG,93.41,T,,M,4.35,N,8.06,K,A*10
###2023-11-09 13:10:13.029408$GNGGA,131013.20,3611.0497162,N,07544.8843395,W,1,24,0.6,0.514,M,-39.961,M,0.0,*64
###2023-11-09 13:10:13.032291$GPGSV,2,1,07,05,20,090,40,10,19,293,45,13,24,045,43,15,61,037,45*73
###2023-11-09 13:10:13.034544$GPGSV,2,2,07,18,78,277,47,23,50,316,45,24,50,134,45,,,,*4C
###2023-11-09 13:10:13.037131$GLGSV,2,1,05,70,49,019,35,71,48,291,48,80,19,089,43,85,56,202,48*6F
###2023-11-09 13:10:13.038739$GLGSV,2,2,05,86,54,306,48,,,,,,,,,,,,*56
###2023-11-09 13:10:13.041299$GAGSV,1,1,04,07,73,259,45,08,48,043,45,13,63,161,45,26,57,310,45*67
###2023-11-09 13:10:13.043873$GBGSV,2,1,06,11,22,180,39,14,65,009,45,24,21,132,43,26,23,080,44*6C
###2023-11-09 13:10:13.045805$GBGSV,2,2,06,28,43,286,46,33,59,305,48,,,,,,,,*68
###2023-11-09 13:10:13.047284$GNVTG,101.21,T,,M,4.20,N,7.78,K,A*2E
###2023-11-09 13:10:13.128382$GNGGA,131013.30,3611.0496880,N,07544.8842001,W,1,24,0.6,0.465,M,-39.961,M,0.0,*69
###2023-11-09 13:10:13.130975$GPGSV,2,1,07,05,20,090,42,10,19,293,44,13,24,045,42,15,61,037,45*71
