###2023-11-09 13:07:48.249562$GNVTG,185.94,T,,M,2.94,N,5.44,K,A*28
###2023-11-09 13:07:48.330241$GNGGA,130748.50,3611.0492861,N,07544.9678543,W,1,24,0.6,0.696,M,-39.961,M,0.0,*67
###2023-11-09 13:07:48.332823$GPGSV,2,1,07,05,21,090,41,10,18,292,46,13,24,045,41,15,62,037,45*71
###2023-11-09 13:07:48.335069$GPGSV,2,2,07,18,77,281,46,23,50,315,47,24,49,136,44,,,,*41
###2023-11-09 13:07:48.337652$GLGSV,2,1,05,70,50,016,36,71,48,288,49,80,17,091,42,85,58,203,48*6B
###2023-11-09 13:07:48.339253$GLGSV,2,2,05,86,52,309,49,,,,,,,,,,,,*5E
###2023-11-09 13:07:48.341811$GAGSV,1,1,04,07,72,257,45,08,49,042,45,13,64,160,44,26,56,310,46*6D
###2023-11-09 13:07:48.344379$GBGSV,2,1,06,11,23,180,38,14,65,008,46,24,20,132,41,26,23,081,42*6A
###2023-11-09 13:07:48.346311$GBGSV,2,2,06,28,43,287,47,33,59,304,47,,,,,,,,*66
###2023-11-09 13:07:48.347791$GNVTG,175.56,T,,M,3.17,N,5.87,K,A*2C
###2023-11-09 13:07:48.430250$GNGGA,130748.60,3611.0491995,N,07544.9678502,W,1,24,0.6,0.704,M,-39.961,M,0.0,*62
###2023-11-09 13:07:48.432857$GPGSV,2,1,07,05,21,090,42,10,18,292,45,13,24,045,41,15,62,037,46*72
###2023-11-09 13:07:48.435113$GPGSV,2,2,07,18,77,281,46,23,50,315,46,24,49,136,45,,,,*41
###2023-11-09 13:07:48.437719$GLGSV,2,1,05,70,50,016,36,71,48,288,49,80,17,091,44,85,58,203,48*6D
###2023-11-09 13:07:48.439333$GLGSV,2,2,05,86,52,309,48,,,,,,,,,,,,*5F
###2023-11-09 13:07:48.441916$GAGSV,1,1,04,07,72,257,45,08,49,042,44,13,64,160,44,26,56,310,45*6F
###2023-11-09 13:07:48.444493$GBGSV,2,1,06,11,23,180,39,14,65,008,46,24,20,132,42,26,23,081,43*69
###2023-11-09 13:07:48.446425$GBGSV,2,2,06,28,43,287,47,33,59,304,47,,,,,,,,*66
###2023-11-09 13:07:48.447904$GNVTG,179.65,T,,M,3.07,N,5.69,K,A*21
###2023-11-09 13:07:48.531243$GNGGA,130748.70,3611.0491173,N,07544.9678593,W,1,24,0.6,0.700,M,-39.961,M,0.0,*6F
###2023-11-09 13:07:48.533841$GPGSV,2,1,07,05,21,090,43,10,18,292,44,13,24,045,42,15,62,037,46*71
###2023-11-09 13:07:48.536101$GPGSV,2,2,07,18,77,281,46,23,50,315,46,24,49,136,45,,,,*41
###2023-11-09 13:07:48.538693$GLGSV,2,1,05,70,50,016,36,71,48,288,48,80,17,091,45,85,58,203,48*6D
###2023-11-09 13:07:48.540308$GLGSV,2,2,05,86,52,309,48,,,,,,,,,,,,*5F
###2023-11-09 13:07:48.542880$GAGSV,1,1,04,07,72,257,45,08,49,042,45,13,64,160,44,26,56,310,45*6E
###2023-11-09 13:07:48.545456$GBGSV,2,1,06,11,23,180,40,14,65,008,46,24,20,132,43,26,23,081,43*66
###2023-11-09 13:07:48.547405$GBGSV,2,2,06,28,43,287,47,33,59,304,47,,,,,,,,*66
###2023-11-09 13:07:48.548867$GNVTG,190.65,T,,M,2.88,N,5.33,K,A*2F
###2023-11-09 13:07:48.630339$GNGGA,130748.80,3611.0490412,N,07544.9678864,W,1,24,0.6,0.698,M,-39.961,M,0.0,*66
###2023-11-09 13:07:48.632928$GPGSV,2,1,07,05,21,090,43,10,18,292,44,13,24,045,43,15,62,037,46*70
###2023-11-09 13:07:48.635176$GPGSV,2,2,07,18,77,281,46,23,50,315,46,24,49,136,45,,,,*41
###2023-11-09 13:07:48.637755$GLGSV,2,1,05,70,50,016,36,71,48,288,48,80,17,091,45,85,58,203,48*6D
###2023-11-09 13:07:48.639350$GLGSV,2,2,05,86,52,309,48,,,,,,,,,,,,*5F
###2023-11-09 13:07:48.641904$GAGSV,1,1,04,07,72,257,45,08,49,042,45,13,64,160,44,26,56,310,45*6E
###2023-11-09 13:07:48.644475$GBGSV,2,1,06,11,23,180,40,14,65,008,45,24,20,132,43,26,23,081,44*62
###2023-11-09 13:07:48.646406$GBGSV,2,2,06,28,43,287,47,33,59,304,47,,,,,,,,*66
###2023-11-09 13:07:48.647872$GNVTG,201.23,T,,M,2.82,N,5.22,K,A*2C
###2023-11-09 13:07:48.730977$GNGGA,130748.90,3611.0489728,N,07544.9679281,W,1,24,0.6,0.705,M,-39.961,M,0.0,*60
###2023-11-09 13:07:48.733572$GPGSV,2,1,07,05,21,090,43,10,18,292,44,13,24,045,42,15,62,037,46*71
###2023-11-09 13:07:48.735829$GPGSV,2,2,07,18,77,281,46,23,50,315,46,24,49,136,45,,,,*41
###2023-11-09 13:07:48.738447$GLGSV,2,1,05,70,50,016,36,71,48,288,48,80,17,091,44,85,58,203,48*6C
###2023-11-09 13:07:48.740073$GLGSV,2,2,05,86,52,309,48,,,,,,,,,,,,*5F
###2023-11-09 13:07:48.742657$GAGSV,1,1,04,07,72,257,45,08,49,042,45,13,64,160,44,26,56,310,45*6E
###2023-11-09 13:07:48.745235$GBGSV,2,1,06,11,23,180,40,14,65,008,45,24,20,132,43,26,23,081,44*62
###2023-11-09 13:07:48.747190$GBGSV,2,2,06,28,43,287,47,33,59,304,47,,,,,,,,*66
###2023-11-09 13:07:48.748657$GNVTG,211.63,T,,M,2.66,N,4.93,K,A*28
###2023-11-09 13:07:48.833366$GNGGA,130749.00,3611.0489095,N,07544.9679763,W,1,24,0.6,0.709,M,-39.961,M,0.0,*6C
###2023-11-09 13:07:48.835963$GPGSV,2,1,07,05,21,090,42,10,18,292,45,13,24,045,42,15,62,037,46*71
###2023-11-09 13:07:48.838234$GPGSV,2,2,07,18,77,281,46,23,50,315,46,24,49,136,45,,,,*41
###2023-11-09 13:07:48.840801$GLGSV,2,1,05,70,50,016,36,71,48,288,49,80,17,091,43,85,58,203,48*6A
###2023-11-09 13:07:48.842409$GLGSV,2,2,05,86,52,309,48,,,,,,,,,,,,*5F
###2023-11-09 13:07:48.844983$GAGSV,1,1,04,07,72,257,45,08,49,042,45,13,64,160,44,26,56,310,45*6E
###2023-11-09 13:07:48.847576$GBGSV,2,1,06,11,23,180,38,14,65,008,45,24,20,132,42,26,23,081,43*6B
###2023-11-09 13:07:48.849516$GBGSV,2,2,06,28,43,287,47,33,59,304,47,,,,,,,,*66
###2023-11-09 13:07:48.850984$GNVTG,211.66,T,,M,2.66,N,4.93,K,A*2D
###2023-11-09 13:07:48.931200$GNGGA,130749.10,3611.0488454,N,07544.9680203,W,1,24,0.6,0.710,M,-39.961,M,0.0,*68
###2023-11-09 13:07:48.933768$GPGSV,2,1,07,05,21,090,41,10,18,292,45,13,24,045,42,15,62,037,46*72
###2023-11-09 13:07:48.936015$GPGSV,2,2,07,18,77,281,46,23,50,315,46,24,49,136,44,,,,*40
###2023-11-09 13:07:48.938591$GLGSV,2,1,05,70,50,016,36,71,48,288,49,80,17,091,42,85,58,203,48*6B
###2023-11-09 13:07:48.940190$GLGSV,2,2,05,86,52,309,49,,,,,,,,,,,,*5E
###2023-11-09 13:07:48.942736$GAGSV,1,1,04,07,72,257,45,08,49,042,45,13,64,160,44,26,56,310,45*6E
###2023-11-09 13:07:48.945321$GBGSV,2,1,06,11,23,180,38,14,65,008,45,24,20,132,42,26,23,081,43*6B
###2023-11-09 13:07:48.947249$GBGSV,2,2,06,28,43,287,47,33,59,304,47,,,,,,,,*66
###2023-11-09 13:07:48.948710$GNVTG,206.41,T,,M,2.60,N,4.82,K,A*28
###2023-11-09 13:07:49.031245$GNGGA,130749.20,3611.0487788,N,07544.9680579,W,1,24,0.6,0.709,M,-39.961,M,0.0,*64
###2023-11-09 13:07:49.033853$GPGSV,2,1,07,05,21,090,41,10,18,292,45,13,24,045,42,15,62,037,46*72
###2023-11-09 13:07:49.036112$GPGSV,2,2,07,18,77,281,46,23,50,315,46,24,49,136,44,,,,*40
###2023-11-09 13:07:49.038711$GLGSV,2,1,05,70,50,016,36,71,48,288,49,80,17,091,42,85,58,203,48*6B
###2023-11-09 13:07:49.040334$GLGSV,2,2,05,86,52,309,49,,,,,,,,,,,,*5E
###2023-11-09 13:07:49.042923$GAGSV,1,1,04,07,72,257,45,08,49,042,45,13,64,160,44,26,56,310,46*6D
###2023-11-09 13:07:49.045506$GBGSV,2,1,06,11,23,180,36,14,65,008,45,24,20,132,41,26,23,081,43*66
###2023-11-09 13:07:49.047460$GBGSV,2,2,06,28,43,287,47,33,59,304,47,,,,,,,,*66
###2023-11-09 13:07:49.048928$GNVTG,202.84,T,,M,2.64,N,4.90,K,A*22
###2023-11-09 13:07:49.131986$GNGGA,130749.30,3611.0487089,N,07544.9680917,W,1,24,0.6,0.704,M,-39.961,M,0.0,*6A
###2023-11-09 13:07:49.134580$GPGSV,2,1,07,05,21,090,41,10,18,292,45,13,24,045,42,15,62,037,46*72
###2023-11-09 13:07:49.136843$GPGSV,2,2,07,18,77,281,46,23,50,315,46,24,49,136,44,,,,*40
###2023-11-09 13:07:49.139437$GLGSV,2,1,05,70,50,016,37,71,48,288,49,80,17,091,42,85,58,203,48*6A
###2023-11-09 13:07:49.141060$GLGSV,2,2,05,86,52,309,49,,,,,,,,,,,,*5E
###2023-11-09 13:07:49.143657$GAGSV,1,1,04,07,72,257,45,08,49,042,45,13,64,160,44,26,56,310,46*6D
###2023-11-09 13:07:49.146253$GBGSV,2,1,06,11,23,180,36,14,65,008,45,24,20,132,41,26,23,081,43*66
###2023-11-09 13:07:49.148206$GBGSV,2,2,06,28,43,287,47,33,59,304,47,,,,,,,,*66
###2023-11-09 13:07:49.149670$GNVTG,199.94,T,,M,2.74,N,5.08,K,A*23
###2023-11-09 13:07:49.230385$GNGGA,130749.40,3611.0486372,N,07544.9681255,W,1,24,0.6,0.686,M,-39.961,M,0.0,*6C
###2023-11-09 13:07:49.232965$GPGSV,2,1,07,05,21,090,41,10,18,292,45,13,24,045,42,15,62,037,46*72
###2023-11-09 13:07:49.235212$GPGSV,2,2,07,18,77,281,46,23,50,315,46,24,49,136,44,,,,*40
###2023-11-09 13:07:49.237797$GLGSV,2,1,05,70,50,016,37,71,48,288,48,80,17,091,43,85,58,203,48*6A
###2023-11-09 13:07:49.239413$GLGSV,2,2,05,86,52,309,49,,,,,,,,,,,,*5E
###2023-11-09 13:07:49.241979$GAGSV,1,1,04,07,72,257,45,08,49,042,46,13,64,160,44,26,56,310,45*6D
###2023-11-09 13:07:49.244550$GBGSV,2,1,06,11,23,180,38,14,65,008,45,24,20,132,41,26,23,081,43*68
###2023-11-09 13:07:49.246478$GBGSV,2,2,06,28,43,287,47,33,59,304,47,,,,,,,,*66
###2023-11-09 13:07:49.248254$GNVTG,201.64,T,,M,2.76,N,5.11,K,A*24
###2023-11-09 13:07:49.330510$GNGGA,130749.50,3611.0485687,N,07544.9681643,W,1,24,0.6,0.659,M,-39.961,M,0.0,*60
###2023-11-09 13:07:49.333129$GPGSV,2,1,07,05,21,090,42,10,18,292,44,13,24,045,42,15,62,037,46*70
###2023-11-09 13:07:49.335391$GPGSV,2,2,07,18,77,281,46,23,50,315,46,24,49,136,45,,,,*41
###2023-11-09 13:07:49.337991$GLGSV,2,1,05,70,50,016,37,71,48,288,47,80,17,091,44,85,58,203,48*62
###2023-11-09 13:07:49.339604$GLGSV,2,2,05,86,52,309,48,,,,,,,,,,,,*5F
###2023-11-09 13:07:49.342174$GAGSV,1,1,04,07,72,257,45,08,49,042,45,13,64,160,44,26,56,310,45*6E
###2023-11-09 13:07:49.344749$GBGSV,2,1,06,11,23,180,38,14,65,008,45,24,20,132,42,26,23,081,43*6B
###2023-11-09 13:07:49.346679$GBGSV,2,2,06,28,43,287,47,33,59,304,47,,,,,,,,*66
###2023-11-09 13:07:49.348154$GNVTG,207.50,T,,M,2.64,N,4.90,K,A*2E
