###2023-11-09 13:08:38.248089$GNVTG,112.79,T,,M,4.41,N,8.17,K,A*20
###2023-11-09 13:08:38.331115$GNGGA,130838.50,3611.0195660,N,07545.0160765,W,1,24,0.6,0.792,M,-39.962,M,0.0,*64
###2023-11-09 13:08:38.333712$GPGSV,2,1,07,05,20,090,41,10,19,293,44,13,24,045,42,15,61,037,45*72
###2023-11-09 13:08:38.335974$GPGSV,2,2,07,18,78,277,47,23,50,316,45,24,50,135,46,,,,*4E
###2023-11-09 13:08:38.338570$GLGSV,2,1,05,70,50,017,36,71,48,290,48,80,18,090,43,85,57,203,48*62
###2023-11-09 13:08:38.340181$GLGSV,2,2,05,86,53,308,48,,,,,,,,,,,,*5F
###2023-11-09 13:08:38.342744$GAGSV,1,1,04,07,72,258,45,08,48,043,44,13,64,160,44,26,57,310,44*60
###2023-11-09 13:08:38.345325$GBGSV,2,1,06,11,23,180,42,14,65,008,46,24,20,132,43,26,23,081,42*65
###2023-11-09 13:08:38.347279$GBGSV,2,2,06,28,43,287,47,33,59,304,47,,,,,,,,*66
###2023-11-09 13:08:38.348748$GNVTG,109.47,T,,M,4.45,N,8.24,K,A*23
###2023-11-09 13:08:38.430103$GNGGA,130838.60,3611.0195264,N,07545.0159311,W,1,24,0.6,0.797,M,-39.962,M,0.0,*6F
###2023-11-09 13:08:38.432690$GPGSV,2,1,07,05,20,090,41,10,19,293,44,13,24,045,42,15,61,037,45*72
###2023-11-09 13:08:38.434940$GPGSV,2,2,07,18,78,277,47,23,50,316,45,24,50,135,46,,,,*4E
###2023-11-09 13:08:38.437531$GLGSV,2,1,05,70,50,017,36,71,48,290,48,80,18,090,43,85,57,203,48*62
###2023-11-09 13:08:38.439129$GLGSV,2,2,05,86,53,308,47,,,,,,,,,,,,*50
###2023-11-09 13:08:38.441682$GAGSV,1,1,04,07,72,258,45,08,48,043,44,13,64,160,44,26,57,310,44*60
###2023-11-09 13:08:38.444260$GBGSV,2,1,06,11,23,180,42,14,65,008,45,24,20,132,43,26,23,081,42*66
###2023-11-09 13:08:38.446190$GBGSV,2,2,06,28,43,287,47,33,59,304,47,,,,,,,,*66
###2023-11-09 13:08:38.447667$GNVTG,108.11,T,,M,4.43,N,8.21,K,A*22
###2023-11-09 13:08:38.529002$GNGGA,130838.70,3611.0194903,N,07545.0157855,W,1,24,0.6,0.814,M,-39.962,M,0.0,*64
###2023-11-09 13:08:38.531604$GPGSV,2,1,07,05,20,090,41,10,19,293,44,13,24,045,42,15,61,037,45*72
###2023-11-09 13:08:38.533858$GPGSV,2,2,07,18,78,277,47,23,50,316,45,24,50,135,46,,,,*4E
###2023-11-09 13:08:38.536440$GLGSV,2,1,05,70,50,017,36,71,48,290,48,80,18,090,43,85,57,203,49*63
###2023-11-09 13:08:38.538072$GLGSV,2,2,05,86,53,308,47,,,,,,,,,,,,*50
###2023-11-09 13:08:38.540657$GAGSV,1,1,04,07,72,258,45,08,48,043,44,13,64,160,44,26,57,310,44*60
###2023-11-09 13:08:38.543253$GBGSV,2,1,06,11,23,180,42,14,65,008,45,24,20,132,43,26,23,081,42*66
###2023-11-09 13:08:38.545207$GBGSV,2,2,06,28,43,287,48,33,59,304,47,,,,,,,,*69
###2023-11-09 13:08:38.546685$GNVTG,106.31,T,,M,4.39,N,8.14,K,A*25
###2023-11-09 13:08:38.630127$GNGGA,130838.80,3611.0194570,N,07545.0156382,W,1,24,0.6,0.837,M,-39.962,M,0.0,*62
###2023-11-09 13:08:38.632740$GPGSV,2,1,07,05,20,090,41,10,19,293,44,13,24,045,42,15,61,037,45*72
###2023-11-09 13:08:38.635014$GPGSV,2,2,07,18,78,277,47,23,50,316,45,24,50,135,46,,,,*4E
###2023-11-09 13:08:38.637627$GLGSV,2,1,05,70,50,017,36,71,48,290,49,80,18,090,42,85,57,203,49*63
###2023-11-09 13:08:38.639244$GLGSV,2,2,05,86,53,308,47,,,,,,,,,,,,*50
###2023-11-09 13:08:38.641821$GAGSV,1,1,04,07,72,258,45,08,48,043,44,13,64,160,44,26,57,310,45*61
###2023-11-09 13:08:38.644414$GBGSV,2,1,06,11,23,180,42,14,65,008,45,24,20,132,43,26,23,081,43*67
###2023-11-09 13:08:38.646357$GBGSV,2,2,06,28,43,287,48,33,59,304,47,,,,,,,,*69
###2023-11-09 13:08:38.647842$GNVTG,105.42,T,,M,4.45,N,8.24,K,A*2A
###2023-11-09 13:08:38.729978$GNGGA,130838.90,3611.0194219,N,07545.0154889,W,1,24,0.6,0.857,M,-39.962,M,0.0,*6F
###2023-11-09 13:08:38.732558$GPGSV,2,1,07,05,20,090,41,10,19,293,44,13,24,045,42,15,61,037,45*72
###2023-11-09 13:08:38.734802$GPGSV,2,2,07,18,78,277,47,23,50,316,45,24,50,135,46,,,,*4E
###2023-11-09 13:08:38.737376$GLGSV,2,1,05,70,50,017,36,71,48,290,48,80,18,090,42,85,57,203,48*63
###2023-11-09 13:08:38.738981$GLGSV,2,2,05,86,53,308,47,,,,,,,,,,,,*50
###2023-11-09 13:08:38.741543$GAGSV,1,1,04,07,72,258,45,08,48,043,44,13,64,160,44,26,57,310,45*61
###2023-11-09 13:08:38.744118$GBGSV,2,1,06,11,23,180,42,14,65,008,45,24,20,132,43,26,23,081,43*67
###2023-11-09 13:08:38.746050$GBGSV,2,2,06,28,43,287,48,33,59,304,47,,,,,,,,*69
###2023-11-09 13:08:38.747526$GNVTG,107.36,T,,M,4.53,N,8.39,K,A*20
###2023-11-09 13:08:38.831997$GNGGA,130839.00,3611.0193844,N,07545.0153396,W,1,24,0.6,0.866,M,-39.962,M,0.0,*62
###2023-11-09 13:08:38.834594$GPGSV,2,1,07,05,20,090,41,10,19,293,44,13,24,045,42,15,61,037,45*72
###2023-11-09 13:08:38.836847$GPGSV,2,2,07,18,78,277,47,23,50,316,45,24,50,135,46,,,,*4E
###2023-11-09 13:08:38.839441$GLGSV,2,1,05,70,50,017,35,71,48,290,48,80,18,090,42,85,57,203,48*60
###2023-11-09 13:08:38.841049$GLGSV,2,2,05,86,53,308,47,,,,,,,,,,,,*50
###2023-11-09 13:08:38.843632$GAGSV,1,1,04,07,72,258,45,08,48,043,44,13,64,160,44,26,57,310,45*61
###2023-11-09 13:08:38.846222$GBGSV,2,1,06,11,23,180,42,14,65,008,45,24,20,132,43,26,23,081,43*67
###2023-11-09 13:08:38.848175$GBGSV,2,2,06,28,43,287,48,33,59,304,47,,,,,,,,*69
###2023-11-09 13:08:38.849647$GNVTG,107.65,T,,M,4.53,N,8.39,K,A*26
###2023-11-09 13:08:38.928129$GNGGA,130839.10,3611.0193495,N,07545.0151906,W,1,24,0.6,0.868,M,-39.962,M,0.0,*6C
###2023-11-09 13:08:38.930720$GPGSV,2,1,07,05,20,090,41,10,19,293,44,13,24,045,42,15,61,037,45*72
###2023-11-09 13:08:38.932986$GPGSV,2,2,07,18,78,277,47,23,50,316,45,24,50,135,46,,,,*4E
###2023-11-09 13:08:38.935574$GLGSV,2,1,05,70,50,017,35,71,48,290,48,80,18,090,42,85,57,203,48*60
###2023-11-09 13:08:38.937201$GLGSV,2,2,05,86,53,308,47,,,,,,,,,,,,*50
###2023-11-09 13:08:38.939777$GAGSV,1,1,04,07,72,258,45,08,48,043,44,13,64,160,44,26,57,310,45*61
###2023-11-09 13:08:38.942361$GBGSV,2,1,06,11,23,180,42,14,65,008,45,24,20,132,43,26,23,081,43*67
###2023-11-09 13:08:38.944301$GBGSV,2,2,06,28,43,287,48,33,59,304,47,,,,,,,,*69
###2023-11-09 13:08:38.945770$GNVTG,105.07,T,,M,4.47,N,8.28,K,A*25
###2023-11-09 13:08:39.030964$GNGGA,130839.20,3611.0193201,N,07545.0150402,W,1,24,0.6,0.870,M,-39.962,M,0.0,*65
###2023-11-09 13:08:39.033532$GPGSV,2,1,07,05,20,090,41,10,19,293,44,13,24,045,41,15,61,037,45*71
###2023-11-09 13:08:39.035774$GPGSV,2,2,07,18,78,277,47,23,50,316,45,24,50,135,46,,,,*4E
###2023-11-09 13:08:39.038356$GLGSV,2,1,05,70,50,017,35,71,48,290,48,80,18,090,41,85,57,203,49*62
###2023-11-09 13:08:39.039955$GLGSV,2,2,05,86,53,308,47,,,,,,,,,,,,*50
###2023-11-09 13:08:39.042524$GAGSV,1,1,04,07,72,258,45,08,48,043,45,13,64,160,44,26,57,310,45*60
###2023-11-09 13:08:39.045113$GBGSV,2,1,06,11,23,180,42,14,65,008,45,24,20,132,43,26,23,081,43*67
###2023-11-09 13:08:39.047050$GBGSV,2,2,06,28,43,287,48,33,59,304,47,,,,,,,,*69
###2023-11-09 13:08:39.048513$GNVTG,102.55,T,,M,4.49,N,8.32,K,A*20
###2023-11-09 13:08:39.127898$GNGGA,130839.30,3611.0192963,N,07545.0148868,W,1,24,0.6,0.868,M,-39.962,M,0.0,*6A
###2023-11-09 13:08:39.130509$GPGSV,2,1,07,05,20,090,40,10,19,293,44,13,24,045,41,15,61,037,45*70
###2023-11-09 13:08:39.132781$GPGSV,2,2,07,18,78,277,47,23,50,316,45,24,50,135,46,,,,*4E
###2023-11-09 13:08:39.135361$GLGSV,2,1,05,70,50,017,35,71,48,290,48,80,18,090,41,85,57,203,49*62
###2023-11-09 13:08:39.136990$GLGSV,2,2,05,86,53,308,47,,,,,,,,,,,,*50
###2023-11-09 13:08:39.139565$GAGSV,1,1,04,07,72,258,45,08,48,043,45,13,64,160,44,26,57,310,45*60
###2023-11-09 13:08:39.142151$GBGSV,2,1,06,11,23,180,42,14,65,008,45,24,20,132,43,26,23,081,43*67
###2023-11-09 13:08:39.144093$GBGSV,2,2,06,28,43,287,47,33,59,304,47,,,,,,,,*66
###2023-11-09 13:08:39.145531$GNVTG,99.63,T,,M,4.55,N,8.42,K,A*1C
###2023-11-09 13:08:39.229008$GNGGA,130839.40,3611.0192755,N,07545.0147298,W,1,24,0.6,0.853,M,-39.962,M,0.0,*64
###2023-11-09 13:08:39.231606$GPGSV,2,1,07,05,20,090,40,10,19,293,44,13,24,045,41,15,61,037,45*70
###2023-11-09 13:08:39.233861$GPGSV,2,2,07,18,78,277,47,23,50,316,45,24,50,135,46,,,,*4E
###2023-11-09 13:08:39.236429$GLGSV,2,1,05,70,50,017,35,71,48,290,48,80,18,090,41,85,57,203,48*63
###2023-11-09 13:08:39.238049$GLGSV,2,2,05,86,53,308,47,,,,,,,,,,,,*50
###2023-11-09 13:08:39.240627$GAGSV,1,1,04,07,72,258,45,08,48,043,45,13,64,160,44,26,57,310,45*60
###2023-11-09 13:08:39.243211$GBGSV,2,1,06,11,23,180,42,14,65,008,45,24,20,132,43,26,23,081,43*67
###2023-11-09 13:08:39.245151$GBGSV,2,2,06,28,43,287,47,33,59,304,47,,,,,,,,*66
###2023-11-09 13:08:39.246873$GNVTG,99.47,T,,M,4.67,N,8.64,K,A*1F
###2023-11-09 13:08:39.327880$GNGGA,130839.50,3611.0192543,N,07545.0145699,W,1,24,0.6,0.833,M,-39.962,M,0.0,*61
###2023-11-09 13:08:39.330463$GPGSV,2,1,07,05,20,090,40,10,19,293,44,13,24,045,41,15,61,037,45*70
###2023-11-09 13:08:39.332702$GPGSV,2,2,07,18,78,277,47,23,50,316,45,24,50,135,46,,,,*4E
###2023-11-09 13:08:39.335269$GLGSV,2,1,05,70,50,017,35,71,48,290,48,80,18,090,41,85,57,203,48*63
###2023-11-09 13:08:39.336875$GLGSV,2,2,05,86,53,308,47,,,,,,,,,,,,*50
###2023-11-09 13:08:39.339447$GAGSV,1,1,04,07,72,258,45,08,48,043,45,13,64,160,44,26,57,310,45*60
###2023-11-09 13:08:39.342019$GBGSV,2,1,06,11,23,180,42,14,65,008,45,24,20,132,43,26,23,081,43*67
###2023-11-09 13:08:39.343946$GBGSV,2,2,06,28,43,287,47,33,59,304,47,,,,,,,,*66
###2023-11-09 13:08:39.345369$GNVTG,99.37,T,,M,4.72,N,8.75,K,A*1C
