###2023-11-09 13:09:23.948346$GLGSV,2,2,05,86,53,308,47,,,,,,,,,,,,*50
###2023-11-09 13:09:23.950935$GAGSV,1,1,04,07,73,259,45,08,48,043,44,13,63,161,44,26,57,310,44*66
###2023-11-09 13:09:23.953518$GBGSV,2,1,06,11,23,180,40,14,65,008,45,24,20,132,43,26,23,081,43*65
###2023-11-09 13:09:23.955450$GBGSV,2,2,06,28,43,287,47,33,59,304,47,,,,,,,,*66
###2023-11-09 13:09:23.956875$GNVTG,90.05,T,,M,2.66,N,4.93,K,A*13
###2023-11-09 13:09:24.032846$GNGGA,130924.20,3611.0332162,N,07544.9503970,W,1,24,0.6,0.649,M,-39.961,M,0.0,*62
###2023-11-09 13:09:24.035422$GPGSV,2,1,07,05,20,090,41,10,19,293,44,13,24,045,41,15,61,037,45*71
###2023-11-09 13:09:24.037681$GPGSV,2,2,07,18,78,277,47,23,50,316,45,24,50,134,45,,,,*4C
###2023-11-09 13:09:24.040249$GLGSV,2,1,05,70,50,017,35,71,48,290,48,80,18,090,43,85,57,203,48*61
###2023-11-09 13:09:24.041858$GLGSV,2,2,05,86,53,308,48,,,,,,,,,,,,*5F
###2023-11-09 13:09:24.044408$GAGSV,1,1,04,07,73,259,45,08,48,043,45,13,63,161,44,26,57,310,44*67
###2023-11-09 13:09:24.046987$GBGSV,2,1,06,11,23,180,40,14,65,008,45,24,20,132,43,26,23,081,42*64
###2023-11-09 13:09:24.048912$GBGSV,2,2,06,28,43,287,47,33,59,304,47,,,,,,,,*66
###2023-11-09 13:09:24.050329$GNVTG,90.72,T,,M,2.72,N,5.04,K,A*19
###2023-11-09 13:09:24.131881$GNGGA,130924.30,3611.0332142,N,07544.9503040,W,1,24,0.6,0.657,M,-39.961,M,0.0,*64
###2023-11-09 13:09:24.134459$GPGSV,2,1,07,05,20,090,41,10,19,293,44,13,24,045,41,15,61,037,45*71
###2023-11-09 13:09:24.136718$GPGSV,2,2,07,18,78,277,47,23,50,316,45,24,50,134,46,,,,*4F
###2023-11-09 13:09:24.139319$GLGSV,2,1,05,70,50,017,35,71,48,290,48,80,18,090,43,85,57,203,48*61
###2023-11-09 13:09:24.140928$GLGSV,2,2,05,86,53,308,48,,,,,,,,,,,,*5F
###2023-11-09 13:09:24.143484$GAGSV,1,1,04,07,73,259,45,08,48,043,45,13,63,161,44,26,57,310,44*67
###2023-11-09 13:09:24.146044$GBGSV,2,1,06,11,23,180,40,14,65,008,45,24,20,132,43,26,23,081,42*64
###2023-11-09 13:09:24.147989$GBGSV,2,2,06,28,43,287,47,33,59,304,47,,,,,,,,*66
###2023-11-09 13:09:24.149415$GNVTG,91.03,T,,M,2.68,N,4.97,K,A*1E
###2023-11-09 13:09:24.231092$GNGGA,130924.40,3611.0332162,N,07544.9502107,W,1,24,0.6,0.659,M,-39.961,M,0.0,*6C
###2023-11-09 13:09:24.233668$GPGSV,2,1,07,05,20,090,41,10,19,293,44,13,24,045,41,15,61,037,45*71
###2023-11-09 13:09:24.235909$GPGSV,2,2,07,18,78,277,47,23,50,316,45,24,50,134,46,,,,*4F
###2023-11-09 13:09:24.238495$GLGSV,2,1,05,70,50,017,35,71,48,290,48,80,18,090,43,85,57,203,49*60
###2023-11-09 13:09:24.240099$GLGSV,2,2,05,86,53,308,48,,,,,,,,,,,,*5F
###2023-11-09 13:09:24.242659$GAGSV,1,1,04,07,73,259,45,08,48,043,45,13,63,161,44,26,57,310,44*67
###2023-11-09 13:09:24.245244$GBGSV,2,1,06,11,23,180,41,14,65,008,45,24,20,132,43,26,23,081,41*66
###2023-11-09 13:09:24.247186$GBGSV,2,2,06,28,43,287,47,33,59,304,47,,,,,,,,*66
###2023-11-09 13:09:24.248618$GNVTG,85.01,T,,M,2.76,N,5.11,K,A*19
###2023-11-09 13:09:24.341082$GNGGA,130924.50,3611.0332268,N,07544.9501145,W,1,24,0.6,0.658,M,-39.961,M,0.0,*60
###2023-11-09 13:09:24.343646$GPGSV,2,1,07,05,20,090,41,10,19,293,44,13,24,045,41,15,61,037,45*71
###2023-11-09 13:09:24.345877$GPGSV,2,2,07,18,78,277,47,23,50,316,45,24,50,134,46,,,,*4F
###2023-11-09 13:09:24.348455$GLGSV,2,1,05,70,50,017,35,71,48,290,48,80,18,090,42,85,57,203,49*61
###2023-11-09 13:09:24.350045$GLGSV,2,2,05,86,53,308,47,,,,,,,,,,,,*50
###2023-11-09 13:09:24.352591$GAGSV,1,1,04,07,73,259,45,08,48,043,44,13,63,161,45,26,57,310,45*66
###2023-11-09 13:09:24.355169$GBGSV,2,1,06,11,23,180,41,14,65,008,45,24,20,132,43,26,23,081,41*66
###2023-11-09 13:09:24.357127$GBGSV,2,2,06,28,43,287,47,33,59,304,47,,,,,,,,*66
###2023-11-09 13:09:24.358559$GNVTG,78.73,T,,M,2.90,N,5.36,K,A*13
###2023-11-09 13:09:24.429387$GNGGA,130924.60,3611.0332439,N,07544.9500163,W,1,24,0.6,0.652,M,-39.961,M,0.0,*6E
###2023-11-09 13:09:24.432002$GPGSV,2,1,07,05,20,090,41,10,19,293,44,13,24,045,41,15,61,037,45*71
###2023-11-09 13:09:24.434265$GPGSV,2,2,07,18,78,277,47,23,50,316,45,24,50,134,46,,,,*4F
###2023-11-09 13:09:24.436857$GLGSV,2,1,05,70,50,017,35,71,48,290,48,80,18,090,42,85,57,203,48*60
###2023-11-09 13:09:24.438481$GLGSV,2,2,05,86,53,308,47,,,,,,,,,,,,*50
###2023-11-09 13:09:24.441059$GAGSV,1,1,04,07,73,259,45,08,48,043,44,13,63,161,45,26,57,310,45*66
###2023-11-09 13:09:24.443646$GBGSV,2,1,06,11,23,180,41,14,65,008,45,24,20,132,43,26,23,081,41*66
###2023-11-09 13:09:24.445584$GBGSV,2,2,06,28,43,287,47,33,59,304,47,,,,,,,,*66
###2023-11-09 13:09:24.447031$GNVTG,76.09,T,,M,2.95,N,5.47,K,A*13
###2023-11-09 13:09:24.530999$GNGGA,130924.70,3611.0332613,N,07544.9499169,W,1,24,0.6,0.631,M,-39.961,M,0.0,*6B
###2023-11-09 13:09:24.533597$GPGSV,2,1,07,05,20,090,41,10,19,293,44,13,24,045,41,15,61,037,45*71
###2023-11-09 13:09:24.535854$GPGSV,2,2,07,18,78,277,47,23,50,316,45,24,50,134,46,,,,*4F
###2023-11-09 13:09:24.538456$GLGSV,2,1,05,70,50,017,35,71,48,290,48,80,18,090,42,85,57,203,48*60
###2023-11-09 13:09:24.540073$GLGSV,2,2,05,86,53,308,47,,,,,,,,,,,,*50
###2023-11-09 13:09:24.542655$GAGSV,1,1,04,07,73,259,45,08,48,043,44,13,63,161,45,26,57,310,45*66
###2023-11-09 13:09:24.545232$GBGSV,2,1,06,11,23,180,41,14,65,008,45,24,20,132,42,26,23,081,42*64
###2023-11-09 13:09:24.547175$GBGSV,2,2,06,28,43,287,47,33,59,304,47,,,,,,,,*66
###2023-11-09 13:09:24.548612$GNVTG,78.66,T,,M,2.99,N,5.54,K,A*1A
###2023-11-09 13:09:24.630969$GNGGA,130924.80,3611.0332752,N,07544.9498149,W,1,24,0.6,0.602,M,-39.961,M,0.0,*63
###2023-11-09 13:09:24.633528$GPGSV,2,1,07,05,20,090,41,10,19,293,44,13,24,045,41,15,61,037,45*71
###2023-11-09 13:09:24.635768$GPGSV,2,2,07,18,78,277,47,23,50,316,45,24,50,134,45,,,,*4C
###2023-11-09 13:09:24.638347$GLGSV,2,1,05,70,50,017,35,71,48,290,48,80,18,090,42,85,57,203,48*60
###2023-11-09 13:09:24.639944$GLGSV,2,2,05,86,53,308,47,,,,,,,,,,,,*50
###2023-11-09 13:09:24.642494$GAGSV,1,1,04,07,73,259,45,08,48,043,44,13,63,161,45,26,57,310,45*66
###2023-11-09 13:09:24.645059$GBGSV,2,1,06,11,23,180,41,14,65,008,45,24,20,132,42,26,23,081,43*65
###2023-11-09 13:09:24.646998$GBGSV,2,2,06,28,43,287,47,33,59,304,47,,,,,,,,*66
###2023-11-09 13:09:24.648417$GNVTG,81.14,T,,M,3.05,N,5.65,K,A*1F
###2023-11-09 13:09:24.731247$GNGGA,130924.90,3611.0332834,N,07544.9497107,W,1,24,0.6,0.565,M,-39.961,M,0.0,*6A
###2023-11-09 13:09:24.733846$GPGSV,2,1,07,05,20,090,41,10,19,293,44,13,24,045,41,15,61,037,45*71
###2023-11-09 13:09:24.736108$GPGSV,2,2,07,18,78,277,47,23,50,316,45,24,50,134,46,,,,*4F
###2023-11-09 13:09:24.738703$GLGSV,2,1,05,70,50,017,35,71,48,290,48,80,18,090,42,85,57,203,48*60
###2023-11-09 13:09:24.740319$GLGSV,2,2,05,86,53,308,47,,,,,,,,,,,,*50
###2023-11-09 13:09:24.742897$GAGSV,1,1,04,07,73,259,45,08,48,043,44,13,63,161,45,26,57,310,44*67
###2023-11-09 13:09:24.745480$GBGSV,2,1,06,11,23,180,41,14,65,008,45,24,20,132,42,26,23,081,43*65
###2023-11-09 13:09:24.747436$GBGSV,2,2,06,28,43,287,47,33,59,304,47,,,,,,,,*66
###2023-11-09 13:09:24.748873$GNVTG,86.92,T,,M,3.07,N,5.69,K,A*18
###2023-11-09 13:09:24.833352$GNGGA,130925.00,3611.0332865,N,07544.9496052,W,1,24,0.6,0.531,M,-39.961,M,0.0,*67
###2023-11-09 13:09:24.835947$GPGSV,2,1,07,05,20,090,41,10,19,293,43,13,24,045,41,15,61,037,45*76
###2023-11-09 13:09:24.838220$GPGSV,2,2,07,18,78,277,47,23,50,316,45,24,50,134,46,,,,*4F
###2023-11-09 13:09:24.840803$GLGSV,2,1,05,70,50,017,35,71,48,290,48,80,18,090,42,85,57,203,49*61
###2023-11-09 13:09:24.842417$GLGSV,2,2,05,86,53,308,47,,,,,,,,,,,,*50
###2023-11-09 13:09:24.844993$GAGSV,1,1,04,07,73,259,45,08,48,043,44,13,63,161,45,26,57,310,44*67
###2023-11-09 13:09:24.847593$GBGSV,2,1,06,11,23,180,41,14,65,008,45,24,20,132,43,26,23,081,43*64
###2023-11-09 13:09:24.849534$GBGSV,2,2,06,28,43,287,47,33,59,304,47,,,,,,,,*66
###2023-11-09 13:09:24.850963$GNVTG,88.10,T,,M,3.09,N,5.72,K,A*18
###2023-11-09 13:09:24.930978$GNGGA,130925.10,3611.0332920,N,07544.9494991,W,1,24,0.6,0.503,M,-39.961,M,0.0,*63
###2023-11-09 13:09:24.933568$GPGSV,2,1,07,05,20,090,41,10,19,293,43,13,24,045,41,15,61,037,45*76
###2023-11-09 13:09:24.935813$GPGSV,2,2,07,18,78,277,47,23,50,316,45,24,50,134,46,,,,*4F
###2023-11-09 13:09:24.938395$GLGSV,2,1,05,70,50,017,35,71,48,290,48,80,18,090,42,85,57,203,49*61
###2023-11-09 13:09:24.939998$GLGSV,2,2,05,86,53,308,47,,,,,,,,,,,,*50
###2023-11-09 13:09:24.942860$GAGSV,1,1,04,07,73,259,45,08,48,043,44,13,63,161,45,26,57,310,44*67
###2023-11-09 13:09:24.945438$GBGSV,2,1,06,11,23,180,42,14,65,008,45,24,20,132,43,26,23,081,43*67
###2023-11-09 13:09:24.947383$GBGSV,2,2,06,28,43,287,47,33,59,304,47,,,,,,,,*66
###2023-11-09 13:09:24.948810$GNVTG,84.00,T,,M,3.11,N,5.76,K,A*18
###2023-11-09 13:09:25.032980$GNGGA,130925.20,3611.0333053,N,07544.9493908,W,1,24,0.6,0.490,M,-39.961,M,0.0,*60
###2023-11-09 13:09:25.035581$GPGSV,2,1,07,05,20,090,41,10,19,293,43,13,24,045,41,15,61,037,45*76
###2023-11-09 13:09:25.037860$GPGSV,2,2,07,18,78,277,47,23,50,316,45,24,50,134,46,,,,*4F
###2023-11-09 13:09:25.040428$GLGSV,2,1,05,70,50,017,35,71,48,290,48,80,18,090,43,85,57,203,49*60
###2023-11-09 13:09:25.042031$GLGSV,2,2,05,86,53,308,47,,,,,,,,,,,,*50
