###2023-11-09 13:09:36.333522$GPGSV,2,1,07,05,20,090,41,10,19,293,44,13,24,045,43,15,61,037,45*73
###2023-11-09 13:09:36.335792$GPGSV,2,2,07,18,78,277,47,23,50,316,45,24,50,134,45,,,,*4C
###2023-11-09 13:09:36.338415$GLGSV,2,1,05,70,50,017,35,71,48,290,48,80,18,090,43,85,57,203,48*61
###2023-11-09 13:09:36.340018$GLGSV,2,2,05,86,53,308,47,,,,,,,,,,,,*50
###2023-11-09 13:09:36.342574$GAGSV,1,1,04,07,73,259,45,08,48,043,44,13,63,161,44,26,57,310,44*66
###2023-11-09 13:09:36.345138$GBGSV,2,1,06,11,22,180,41,14,65,009,45,24,20,132,44,26,23,081,43*63
###2023-11-09 13:09:36.347082$GBGSV,2,2,06,28,43,287,47,33,59,304,48,,,,,,,,*69
###2023-11-09 13:09:36.348510$GNVTG,92.61,T,,M,3.77,N,6.98,K,A*1B
###2023-11-09 13:09:36.429521$GNGGA,130936.60,3611.0342240,N,07544.9382164,W,1,24,0.6,0.550,M,-39.961,M,0.0,*68
###2023-11-09 13:09:36.432125$GPGSV,2,1,07,05,20,090,41,10,19,293,44,13,24,045,43,15,61,037,45*73
###2023-11-09 13:09:36.434386$GPGSV,2,2,07,18,78,277,47,23,50,316,45,24,50,134,45,,,,*4C
###2023-11-09 13:09:36.436974$GLGSV,2,1,05,70,50,017,35,71,48,290,48,80,18,090,44,85,57,203,48*66
###2023-11-09 13:09:36.438589$GLGSV,2,2,05,86,53,308,48,,,,,,,,,,,,*5F
###2023-11-09 13:09:36.441158$GAGSV,1,1,04,07,73,259,45,08,48,043,44,13,63,161,44,26,57,310,44*66
###2023-11-09 13:09:36.443744$GBGSV,2,1,06,11,22,180,41,14,65,009,45,24,20,132,44,26,23,081,43*63
###2023-11-09 13:09:36.445674$GBGSV,2,2,06,28,43,287,47,33,59,304,48,,,,,,,,*69
###2023-11-09 13:09:36.447114$GNVTG,98.88,T,,M,3.83,N,7.09,K,A*14
###2023-11-09 13:09:36.530637$GNGGA,130936.70,3611.0342045,N,07544.9380878,W,1,24,0.6,0.553,M,-39.961,M,0.0,*6B
###2023-11-09 13:09:36.533249$GPGSV,2,1,07,05,20,090,42,10,19,293,44,13,24,045,43,15,61,037,46*73
###2023-11-09 13:09:36.535512$GPGSV,2,2,07,18,78,277,47,23,50,316,45,24,50,134,45,,,,*4C
###2023-11-09 13:09:36.538113$GLGSV,2,1,05,70,50,017,36,71,48,290,48,80,18,090,44,85,57,203,48*65
###2023-11-09 13:09:36.539727$GLGSV,2,2,05,86,53,308,48,,,,,,,,,,,,*5F
###2023-11-09 13:09:36.542296$GAGSV,1,1,04,07,73,259,45,08,48,043,44,13,63,161,44,26,57,310,44*66
###2023-11-09 13:09:36.544883$GBGSV,2,1,06,11,22,180,41,14,65,009,45,24,20,132,44,26,23,081,43*63
###2023-11-09 13:09:36.546817$GBGSV,2,2,06,28,43,287,48,33,59,304,48,,,,,,,,*66
###2023-11-09 13:09:36.548299$GNVTG,101.66,T,,M,3.83,N,7.09,K,A*25
###2023-11-09 13:09:36.629501$GNGGA,130936.80,3611.0341834,N,07544.9379564,W,1,24,0.6,0.562,M,-39.961,M,0.0,*6D
###2023-11-09 13:09:36.632083$GPGSV,2,1,07,05,20,090,42,10,19,293,44,13,24,045,43,15,61,037,46*73
###2023-11-09 13:09:36.634330$GPGSV,2,2,07,18,78,277,47,23,50,316,46,24,50,134,45,,,,*4F
###2023-11-09 13:09:36.636913$GLGSV,2,1,05,70,50,017,35,71,48,290,48,80,18,090,44,85,57,203,48*66
###2023-11-09 13:09:36.638519$GLGSV,2,2,05,86,53,308,48,,,,,,,,,,,,*5F
###2023-11-09 13:09:36.641073$GAGSV,1,1,04,07,73,259,45,08,48,043,44,13,63,161,44,26,57,310,45*67
###2023-11-09 13:09:36.643640$GBGSV,2,1,06,11,22,180,42,14,65,009,45,24,20,132,44,26,23,081,43*60
###2023-11-09 13:09:36.645570$GBGSV,2,2,06,28,43,287,47,33,59,304,48,,,,,,,,*69
###2023-11-09 13:09:36.647044$GNVTG,100.09,T,,M,4.00,N,7.42,K,A*2E
###2023-11-09 13:09:36.729531$GNGGA,130936.90,3611.0341665,N,07544.9378165,W,1,24,0.6,0.586,M,-39.961,M,0.0,*68
###2023-11-09 13:09:36.732140$GPGSV,2,1,07,05,20,090,42,10,19,293,44,13,24,045,41,15,61,037,45*72
###2023-11-09 13:09:36.734406$GPGSV,2,2,07,18,78,277,47,23,50,316,46,24,50,134,45,,,,*4F
###2023-11-09 13:09:36.737026$GLGSV,2,1,05,70,50,017,35,71,48,290,48,80,18,090,43,85,57,203,48*61
###2023-11-09 13:09:36.738637$GLGSV,2,2,05,86,53,308,48,,,,,,,,,,,,*5F
###2023-11-09 13:09:36.741195$GAGSV,1,1,04,07,73,259,45,08,48,043,44,13,63,161,44,26,57,310,45*67
###2023-11-09 13:09:36.743768$GBGSV,2,1,06,11,22,180,42,14,65,009,45,24,20,132,44,26,23,081,43*60
###2023-11-09 13:09:36.745697$GBGSV,2,2,06,28,43,287,47,33,59,304,48,,,,,,,,*69
###2023-11-09 13:09:36.747139$GNVTG,96.36,T,,M,4.26,N,7.88,K,A*1E
###2023-11-09 13:09:36.833869$GNGGA,130937.00,3611.0341551,N,07544.9376667,W,1,24,0.6,0.612,M,-39.961,M,0.0,*61
###2023-11-09 13:09:36.836456$GPGSV,2,1,07,05,20,090,41,10,19,293,43,13,24,045,41,15,61,037,45*76
###2023-11-09 13:09:36.838726$GPGSV,2,2,07,18,78,277,47,23,50,316,46,24,50,134,46,,,,*4C
###2023-11-09 13:09:36.841301$GLGSV,2,1,05,70,50,017,35,71,48,290,48,80,18,090,43,85,57,203,48*61
###2023-11-09 13:09:36.842904$GLGSV,2,2,05,86,53,308,47,,,,,,,,,,,,*50
###2023-11-09 13:09:36.845463$GAGSV,1,1,04,07,73,259,45,08,48,043,44,13,63,161,44,26,57,310,45*67
###2023-11-09 13:09:36.848041$GBGSV,2,1,06,11,22,180,43,14,65,009,45,24,20,132,44,26,23,081,43*61
###2023-11-09 13:09:36.849973$GBGSV,2,2,06,28,43,287,47,33,59,304,48,,,,,,,,*69
###2023-11-09 13:09:36.851400$GNVTG,93.94,T,,M,4.55,N,8.42,K,A*1E
###2023-11-09 13:09:36.930102$GNGGA,130937.10,3611.0341474,N,07544.9375047,W,1,24,0.6,0.633,M,-39.961,M,0.0,*62
###2023-11-09 13:09:36.932675$GPGSV,2,1,07,05,20,090,41,10,19,293,43,13,24,045,41,15,61,037,45*76
###2023-11-09 13:09:36.934915$GPGSV,2,2,07,18,78,277,47,23,50,316,45,24,50,134,45,,,,*4C
###2023-11-09 13:09:36.937614$GLGSV,2,1,05,70,50,017,35,71,48,290,49,80,18,090,43,85,57,203,48*60
###2023-11-09 13:09:36.939223$GLGSV,2,2,05,86,53,308,47,,,,,,,,,,,,*50
###2023-11-09 13:09:36.941783$GAGSV,1,1,04,07,73,259,45,08,48,043,44,13,63,161,44,26,57,310,45*67
###2023-11-09 13:09:36.944352$GBGSV,2,1,06,11,22,180,43,14,65,009,45,24,20,132,44,26,23,081,43*61
###2023-11-09 13:09:36.946275$GBGSV,2,2,06,28,43,287,47,33,59,304,47,,,,,,,,*66
###2023-11-09 13:09:36.947718$GNVTG,92.34,T,,M,4.96,N,9.18,K,A*14
###2023-11-09 13:09:37.031860$GNGGA,130937.20,3611.0341381,N,07544.9373307,W,1,24,0.6,0.635,M,-39.961,M,0.0,*6B
###2023-11-09 13:09:37.034454$GPGSV,2,1,07,05,20,090,41,10,19,293,43,13,24,045,41,15,61,037,45*76
###2023-11-09 13:09:37.036703$GPGSV,2,2,07,18,78,277,47,23,50,316,45,24,50,134,45,,,,*4C
###2023-11-09 13:09:37.039290$GLGSV,2,1,05,70,50,017,35,71,48,290,49,80,18,090,43,85,57,203,48*60
###2023-11-09 13:09:37.040900$GLGSV,2,2,05,86,53,308,47,,,,,,,,,,,,*50
###2023-11-09 13:09:37.043461$GAGSV,1,1,04,07,73,259,45,08,48,043,44,13,63,161,44,26,57,310,45*67
###2023-11-09 13:09:37.046032$GBGSV,2,1,06,11,22,180,41,14,65,009,45,24,20,132,43,26,23,081,43*64
###2023-11-09 13:09:37.047976$GBGSV,2,2,06,28,43,287,47,33,59,304,47,,,,,,,,*66
###2023-11-09 13:09:37.049403$GNVTG,94.61,T,,M,5.25,N,9.72,K,A*17
###2023-11-09 13:09:37.130723$GNGGA,130937.30,3611.0341215,N,07544.9371468,W,1,24,0.6,0.616,M,-39.961,M,0.0,*6B
###2023-11-09 13:09:37.133293$GPGSV,2,1,07,05,20,090,41,10,19,293,44,13,24,045,42,15,61,037,45*72
###2023-11-09 13:09:37.135534$GPGSV,2,2,07,18,78,277,47,23,50,316,45,24,50,134,45,,,,*4C
###2023-11-09 13:09:37.138120$GLGSV,2,1,05,70,50,017,35,71,48,290,49,80,18,090,43,85,57,203,48*60
###2023-11-09 13:09:37.139733$GLGSV,2,2,05,86,53,308,48,,,,,,,,,,,,*5F
###2023-11-09 13:09:37.142297$GAGSV,1,1,04,07,73,259,45,08,48,043,44,13,63,161,44,26,57,310,45*67
###2023-11-09 13:09:37.144872$GBGSV,2,1,06,11,22,180,41,14,65,009,45,24,20,132,43,26,23,081,43*64
###2023-11-09 13:09:37.146800$GBGSV,2,2,06,28,43,287,47,33,59,304,48,,,,,,,,*69
###2023-11-09 13:09:37.148277$GNVTG,97.56,T,,M,5.58,N,10.33,K,A*27
###2023-11-09 13:09:37.229487$GNGGA,130937.40,3611.0340968,N,07544.9369485,W,1,24,0.6,0.592,M,-39.961,M,0.0,*69
###2023-11-09 13:09:37.232061$GPGSV,2,1,07,05,20,090,41,10,19,293,44,13,24,045,43,15,61,037,45*73
###2023-11-09 13:09:37.234299$GPGSV,2,2,07,18,78,277,47,23,50,316,45,24,50,134,45,,,,*4C
###2023-11-09 13:09:37.236857$GLGSV,2,1,05,70,50,017,35,71,48,290,49,80,18,090,43,85,57,203,48*60
###2023-11-09 13:09:37.238468$GLGSV,2,2,05,86,53,308,48,,,,,,,,,,,,*5F
###2023-11-09 13:09:37.241019$GAGSV,1,1,04,07,73,259,45,08,48,043,44,13,63,161,45,26,57,310,45*66
###2023-11-09 13:09:37.243580$GBGSV,2,1,06,11,22,180,41,14,65,009,45,24,20,132,43,26,23,081,43*64
###2023-11-09 13:09:37.245500$GBGSV,2,2,06,28,43,287,47,33,59,304,48,,,,,,,,*69
###2023-11-09 13:09:37.246966$GNVTG,99.33,T,,M,6.12,N,11.34,K,A*21
###2023-11-09 13:09:37.330619$GNGGA,130937.50,3611.0340691,N,07544.9367323,W,1,24,0.6,0.560,M,-39.961,M,0.0,*69
###2023-11-09 13:09:37.333504$GPGSV,2,1,07,05,20,090,41,10,19,293,44,13,24,045,42,15,61,037,46*71
###2023-11-09 13:09:37.335768$GPGSV,2,2,07,18,78,277,47,23,50,316,45,24,50,134,46,,,,*4F
###2023-11-09 13:09:37.338364$GLGSV,2,1,05,70,50,017,35,71,48,290,48,80,18,090,43,85,57,203,49*60
###2023-11-09 13:09:37.339983$GLGSV,2,2,05,86,53,308,47,,,,,,,,,,,,*50
###2023-11-09 13:09:37.342551$GAGSV,1,1,04,07,73,259,45,08,48,043,44,13,63,161,45,26,57,310,45*66
###2023-11-09 13:09:37.345122$GBGSV,2,1,06,11,22,180,41,14,65,009,45,24,20,132,43,26,23,081,43*64
###2023-11-09 13:09:37.347063$GBGSV,2,2,06,28,43,287,47,33,59,304,47,,,,,,,,*66
###2023-11-09 13:09:37.348527$GNVTG,98.33,T,,M,6.65,N,12.31,K,A*26
###2023-11-09 13:09:37.430622$GNGGA,130937.60,3611.0340377,N,07544.9365004,W,1,24,0.6,0.521,M,-39.961,M,0.0,*66
###2023-11-09 13:09:37.433212$GPGSV,2,1,07,05,20,090,41,10,19,293,44,13,24,045,41,15,61,037,45*71
