###2023-11-09 13:10:10.928381$GNGGA,131011.10,3611.0498693,N,07544.8871998,W,1,24,0.6,0.588,M,-39.961,M,0.0,*60
###2023-11-09 13:10:10.931006$GPGSV,2,1,07,05,20,090,41,10,19,293,44,13,24,045,42,15,61,037,45*72
###2023-11-09 13:10:10.933268$GPGSV,2,2,07,18,78,277,47,23,50,316,45,24,50,134,46,,,,*4F
###2023-11-09 13:10:10.935843$GLGSV,2,1,05,70,49,019,35,71,48,291,48,80,19,089,43,85,56,202,48*6F
###2023-11-09 13:10:10.937470$GLGSV,2,2,05,86,54,306,48,,,,,,,,,,,,*56
###2023-11-09 13:10:10.940047$GAGSV,1,1,04,07,73,259,46,08,48,043,44,13,63,161,44,26,57,310,45*64
###2023-11-09 13:10:10.942627$GBGSV,2,1,06,11,22,180,41,14,65,009,46,24,21,132,43,26,23,080,43*67
###2023-11-09 13:10:10.944568$GBGSV,2,2,06,28,43,286,48,33,59,305,47,,,,,,,,*69
###2023-11-09 13:10:10.946008$GNVTG,97.86,T,,M,3.73,N,6.91,K,A*1A
###2023-11-09 13:10:11.030609$GNGGA,131011.20,3611.0498504,N,07544.8870733,W,1,24,0.6,0.592,M,-39.961,M,0.0,*6B
###2023-11-09 13:10:11.033201$GPGSV,2,1,07,05,20,090,41,10,19,293,44,13,24,045,42,15,61,037,45*72
###2023-11-09 13:10:11.035446$GPGSV,2,2,07,18,78,277,47,23,50,316,45,24,50,134,46,,,,*4F
###2023-11-09 13:10:11.038048$GLGSV,2,1,05,70,49,019,36,71,48,291,48,80,19,089,43,85,56,202,48*6C
###2023-11-09 13:10:11.039671$GLGSV,2,2,05,86,54,306,48,,,,,,,,,,,,*56
###2023-11-09 13:10:11.042254$GAGSV,1,1,04,07,73,259,46,08,48,043,44,13,63,161,44,26,57,310,45*64
###2023-11-09 13:10:11.044843$GBGSV,2,1,06,11,22,180,41,14,65,009,45,24,21,132,43,26,23,080,43*64
###2023-11-09 13:10:11.046777$GBGSV,2,2,06,28,43,286,48,33,59,305,47,,,,,,,,*69
###2023-11-09 13:10:11.048250$GNVTG,103.47,T,,M,3.81,N,7.06,K,A*29
###2023-11-09 13:10:11.127626$GNGGA,131011.30,3611.0498261,N,07544.8869457,W,1,24,0.6,0.581,M,-39.961,M,0.0,*65
###2023-11-09 13:10:11.130206$GPGSV,2,1,07,05,20,090,40,10,19,293,44,13,24,045,41,15,61,037,44*71
###2023-11-09 13:10:11.132449$GPGSV,2,2,07,18,78,277,47,23,50,316,45,24,50,134,46,,,,*4F
###2023-11-09 13:10:11.135010$GLGSV,2,1,05,70,49,019,36,71,48,291,48,80,19,089,43,85,56,202,48*6C
###2023-11-09 13:10:11.136614$GLGSV,2,2,05,86,54,306,48,,,,,,,,,,,,*56
###2023-11-09 13:10:11.139180$GAGSV,1,1,04,07,73,259,46,08,48,043,44,13,63,161,44,26,57,310,45*64
###2023-11-09 13:10:11.141747$GBGSV,2,1,06,11,22,180,43,14,65,009,45,24,21,132,43,26,23,080,42*67
###2023-11-09 13:10:11.143668$GBGSV,2,2,06,28,43,286,48,33,59,305,47,,,,,,,,*69
###2023-11-09 13:10:11.145118$GNVTG,103.18,T,,M,3.89,N,7.20,K,A*2F
###2023-11-09 13:10:11.226735$GNGGA,131011.40,3611.0498062,N,07544.8868159,W,1,24,0.6,0.577,M,-39.961,M,0.0,*60
###2023-11-09 13:10:11.229376$GPGSV,2,1,07,05,20,090,39,10,19,293,44,13,24,045,40,15,61,037,44*7E
###2023-11-09 13:10:11.231641$GPGSV,2,2,07,18,78,277,47,23,50,316,45,24,50,134,46,,,,*4F
###2023-11-09 13:10:11.234205$GLGSV,2,1,05,70,49,019,35,71,48,291,48,80,19,089,42,85,56,202,49*6F
###2023-11-09 13:10:11.235808$GLGSV,2,2,05,86,54,306,47,,,,,,,,,,,,*59
###2023-11-09 13:10:11.238395$GAGSV,1,1,04,07,73,259,46,08,48,043,44,13,63,161,45,26,57,310,44*64
###2023-11-09 13:10:11.240977$GBGSV,2,1,06,11,22,180,43,14,65,009,45,24,21,132,44,26,23,080,41*63
###2023-11-09 13:10:11.242921$GBGSV,2,2,06,28,43,286,48,33,59,305,47,,,,,,,,*69
###2023-11-09 13:10:11.244351$GNVTG,98.62,T,,M,3.87,N,7.16,K,A*1A
###2023-11-09 13:10:11.328376$GNGGA,131011.50,3611.0497989,N,07544.8866868,W,1,24,0.6,0.583,M,-39.961,M,0.0,*6C
###2023-11-09 13:10:11.330955$GPGSV,2,1,07,05,20,090,39,10,19,293,44,13,24,045,40,15,61,037,44*7E
###2023-11-09 13:10:11.333197$GPGSV,2,2,07,18,78,277,47,23,50,316,45,24,50,134,46,,,,*4F
###2023-11-09 13:10:11.335766$GLGSV,2,1,05,70,49,019,35,71,48,291,49,80,19,089,42,85,56,202,49*6E
###2023-11-09 13:10:11.337383$GLGSV,2,2,05,86,54,306,47,,,,,,,,,,,,*59
###2023-11-09 13:10:11.339956$GAGSV,1,1,04,07,73,259,46,08,48,043,44,13,63,161,45,26,57,310,44*64
###2023-11-09 13:10:11.342540$GBGSV,2,1,06,11,22,180,43,14,65,009,44,24,21,132,44,26,23,080,41*62
###2023-11-09 13:10:11.344481$GBGSV,2,2,06,28,43,286,48,33,59,305,47,,,,,,,,*69
###2023-11-09 13:10:11.345910$GNVTG,89.53,T,,M,3.75,N,6.95,K,A*1F
###2023-11-09 13:10:11.427250$GNGGA,131011.60,3611.0498048,N,07544.8865551,W,1,24,0.6,0.602,M,-39.961,M,0.0,*6A
###2023-11-09 13:10:11.429833$GPGSV,2,1,07,05,20,090,39,10,19,293,44,13,24,045,40,15,61,037,45*7F
###2023-11-09 13:10:11.432085$GPGSV,2,2,07,18,78,277,47,23,50,316,45,24,50,134,46,,,,*4F
###2023-11-09 13:10:11.434656$GLGSV,2,1,05,70,49,019,35,71,48,291,49,80,19,089,42,85,56,202,49*6E
###2023-11-09 13:10:11.436254$GLGSV,2,2,05,86,54,306,47,,,,,,,,,,,,*59
###2023-11-09 13:10:11.438820$GAGSV,1,1,04,07,73,259,46,08,48,043,44,13,63,161,45,26,57,310,44*64
###2023-11-09 13:10:11.441386$GBGSV,2,1,06,11,22,180,42,14,65,009,45,24,21,132,44,26,23,080,41*62
###2023-11-09 13:10:11.443314$GBGSV,2,2,06,28,43,286,48,33,59,305,47,,,,,,,,*69
###2023-11-09 13:10:11.444733$GNVTG,84.77,T,,M,3.98,N,7.38,K,A*11
###2023-11-09 13:10:11.527773$GNGGA,131011.70,3611.0498098,N,07544.8864184,W,1,24,0.6,0.616,M,-39.961,M,0.0,*6E
###2023-11-09 13:10:11.530368$GPGSV,2,1,07,05,20,090,39,10,19,293,44,13,24,045,42,15,61,037,45*7D
###2023-11-09 13:10:11.532616$GPGSV,2,2,07,18,78,277,47,23,50,316,45,24,50,134,46,,,,*4F
###2023-11-09 13:10:11.535183$GLGSV,2,1,05,70,49,019,35,71,48,291,49,80,19,089,42,85,56,202,48*6F
###2023-11-09 13:10:11.536796$GLGSV,2,2,05,86,54,306,47,,,,,,,,,,,,*59
###2023-11-09 13:10:11.539384$GAGSV,1,1,04,07,73,259,46,08,48,043,44,13,63,161,45,26,57,310,44*64
###2023-11-09 13:10:11.541968$GBGSV,2,1,06,11,22,180,41,14,65,009,45,24,21,132,43,26,23,080,43*64
###2023-11-09 13:10:11.543904$GBGSV,2,2,06,28,43,286,48,33,59,305,47,,,,,,,,*69
###2023-11-09 13:10:11.545330$GNVTG,90.40,T,,M,4.06,N,7.52,K,A*1C
###2023-11-09 13:10:11.627751$GNGGA,131011.80,3611.0497988,N,07544.8862806,W,1,24,0.6,0.607,M,-39.961,M,0.0,*63
###2023-11-09 13:10:11.630339$GPGSV,2,1,07,05,20,090,41,10,19,293,44,13,24,045,42,15,61,037,45*72
###2023-11-09 13:10:11.632590$GPGSV,2,2,07,18,78,277,47,23,50,316,45,24,50,134,45,,,,*4C
###2023-11-09 13:10:11.635154$GLGSV,2,1,05,70,49,019,35,71,48,291,48,80,19,089,43,85,56,202,48*6F
###2023-11-09 13:10:11.636764$GLGSV,2,2,05,86,54,306,49,,,,,,,,,,,,*57
###2023-11-09 13:10:11.639345$GAGSV,1,1,04,07,73,259,46,08,48,043,44,13,63,161,45,26,57,310,45*65
###2023-11-09 13:10:11.641918$GBGSV,2,1,06,11,22,180,41,14,65,009,45,24,21,132,42,26,23,080,43*65
###2023-11-09 13:10:11.643853$GBGSV,2,2,06,28,43,286,48,33,59,305,48,,,,,,,,*66
###2023-11-09 13:10:11.645317$GNVTG,101.08,T,,M,4.10,N,7.60,K,A*2F
###2023-11-09 13:10:11.727523$GNGGA,131011.90,3611.0497715,N,07544.8861457,W,1,24,0.6,0.595,M,-39.961,M,0.0,*6B
###2023-11-09 13:10:11.730114$GPGSV,2,1,07,05,20,090,41,10,19,293,44,13,24,045,43,15,61,037,45*73
###2023-11-09 13:10:11.732363$GPGSV,2,2,07,18,78,277,47,23,50,316,45,24,50,134,46,,,,*4F
###2023-11-09 13:10:11.734923$GLGSV,2,1,05,70,49,019,35,71,48,291,48,80,19,089,43,85,56,202,48*6F
###2023-11-09 13:10:11.736522$GLGSV,2,2,05,86,54,306,49,,,,,,,,,,,,*57
###2023-11-09 13:10:11.739118$GAGSV,1,1,04,07,73,259,46,08,48,043,44,13,63,161,44,26,57,310,45*64
###2023-11-09 13:10:11.741693$GBGSV,2,1,06,11,22,180,41,14,65,009,45,24,21,132,43,26,23,080,43*64
###2023-11-09 13:10:11.743640$GBGSV,2,2,06,28,43,286,47,33,59,305,47,,,,,,,,*66
###2023-11-09 13:10:11.745106$GNVTG,106.96,T,,M,4.06,N,7.52,K,A*29
###2023-11-09 13:10:11.832380$GNGGA,131012.00,3611.0497426,N,07544.8860172,W,1,24,0.6,0.589,M,-39.961,M,0.0,*6C
###2023-11-09 13:10:11.834987$GPGSV,2,1,07,05,20,090,41,10,19,293,44,13,24,045,42,15,61,037,45*72
###2023-11-09 13:10:11.837261$GPGSV,2,2,07,18,78,277,47,23,50,316,45,24,50,134,46,,,,*4F
###2023-11-09 13:10:11.839824$GLGSV,2,1,05,70,49,019,35,71,48,291,49,80,19,089,43,85,56,202,49*6F
###2023-11-09 13:10:11.841432$GLGSV,2,2,05,86,54,306,48,,,,,,,,,,,,*56
###2023-11-09 13:10:11.844007$GAGSV,1,1,04,07,73,259,46,08,48,043,44,13,63,161,45,26,57,310,44*64
###2023-11-09 13:10:11.846570$GBGSV,2,1,06,11,22,180,42,14,65,009,45,24,21,132,44,26,23,080,42*61
###2023-11-09 13:10:11.848518$GBGSV,2,2,06,28,43,286,47,33,59,305,47,,,,,,,,*66
###2023-11-09 13:10:11.849985$GNVTG,104.10,T,,M,3.77,N,6.98,K,A*23
###2023-11-09 13:10:11.932742$GNGGA,131012.10,3611.0497312,N,07544.8858881,W,1,24,0.6,0.611,M,-39.961,M,0.0,*61
###2023-11-09 13:10:11.935335$GPGSV,2,1,07,05,20,090,41,10,19,293,44,13,24,045,39,15,61,037,44*7F
###2023-11-09 13:10:11.937621$GPGSV,2,2,07,18,78,277,47,23,50,316,45,24,50,134,46,,,,*4F
###2023-11-09 13:10:11.940204$GLGSV,2,1,05,70,49,019,35,71,48,291,49,80,19,089,43,85,56,202,48*6E
###2023-11-09 13:10:11.941814$GLGSV,2,2,05,86,54,306,48,,,,,,,,,,,,*56
###2023-11-09 13:10:11.944381$GAGSV,1,1,04,07,73,259,46,08,48,043,44,13,63,161,45,26,57,310,44*64
###2023-11-09 13:10:11.946968$GBGSV,2,1,06,11,22,180,42,14,65,009,45,24,21,132,44,26,23,080,42*61
###2023-11-09 13:10:11.948902$GBGSV,2,2,06,28,43,286,47,33,59,305,47,,,,,,,,*66
###2023-11-09 13:10:11.950332$GNVTG,88.80,T,,M,3.89,N,7.20,K,A*1C
###2023-11-09 13:10:12.029357$GNGGA,131012.20,3611.0497435,N,07544.8857515,W,1,24,0.6,0.650,M,-39.961,M,0.0,*6A
