###2023-11-09 13:06:43.542339$GAGSV,1,1,04,07,72,255,45,08,49,042,44,13,64,160,44,26,56,311,45*6C
###2023-11-09 13:06:43.544905$GBGSV,2,1,06,11,24,180,42,14,65,006,45,24,19,133,44,26,23,082,43*61
###2023-11-09 13:06:43.546825$GBGSV,2,2,06,28,43,289,47,33,58,302,47,,,,,,,,*6F
###2023-11-09 13:06:43.548268$GNVTG,30.46,T,,M,1.30,N,2.41,K,A*17
###2023-11-09 13:06:43.629887$GNGGA,130643.80,3611.0447545,N,07544.9788519,W,1,24,0.6,0.924,M,-39.961,M,0.0,*64
###2023-11-09 13:06:43.632484$GPGSV,2,1,07,05,21,090,41,10,18,292,42,13,24,045,41,15,62,037,46*76
###2023-11-09 13:06:43.634746$GPGSV,2,2,07,18,77,281,47,23,50,315,45,24,49,136,46,,,,*40
###2023-11-09 13:06:43.637326$GLGSV,2,1,05,70,50,016,35,71,48,288,48,80,17,091,43,85,58,203,48*68
###2023-11-09 13:06:43.638942$GLGSV,2,2,05,86,52,309,47,,,,,,,,,,,,*50
###2023-11-09 13:06:43.641521$GAGSV,1,1,04,07,72,255,45,08,49,042,44,13,64,160,44,26,56,311,45*6C
###2023-11-09 13:06:43.644106$GBGSV,2,1,06,11,24,180,42,14,65,006,45,24,19,133,44,26,23,082,43*61
###2023-11-09 13:06:43.646043$GBGSV,2,2,06,28,43,289,47,33,58,302,47,,,,,,,,*6F
###2023-11-09 13:06:43.647492$GNVTG,27.00,T,,M,1.44,N,2.66,K,A*15
###2023-11-09 13:06:43.729880$GNGGA,130643.90,3611.0447918,N,07544.9788310,W,1,24,0.6,0.934,M,-39.961,M,0.0,*6F
###2023-11-09 13:06:43.732455$GPGSV,2,1,07,05,21,090,41,10,18,292,42,13,24,045,41,15,62,037,45*75
###2023-11-09 13:06:43.734698$GPGSV,2,2,07,18,77,281,47,23,50,315,45,24,49,136,46,,,,*40
###2023-11-09 13:06:43.737282$GLGSV,2,1,05,70,50,016,35,71,48,288,48,80,17,091,43,85,58,203,48*68
###2023-11-09 13:06:43.738882$GLGSV,2,2,05,86,52,309,47,,,,,,,,,,,,*50
###2023-11-09 13:06:43.741435$GAGSV,1,1,04,07,72,255,45,08,49,042,44,13,64,160,44,26,56,311,45*6C
###2023-11-09 13:06:43.744011$GBGSV,2,1,06,11,24,180,42,14,65,006,45,24,19,133,44,26,23,082,43*61
###2023-11-09 13:06:43.745942$GBGSV,2,2,06,28,43,289,47,33,58,302,47,,,,,,,,*6F
###2023-11-09 13:06:43.747381$GNVTG,22.95,T,,M,1.48,N,2.74,K,A*13
###2023-11-09 13:06:43.830861$GNGGA,130644.00,3611.0448303,N,07544.9788124,W,1,24,0.6,0.941,M,-39.961,M,0.0,*69
###2023-11-09 13:06:43.833456$GPGSV,2,1,07,05,21,090,41,10,18,292,42,13,24,045,41,15,62,037,45*75
###2023-11-09 13:06:43.835679$GPGSV,2,2,07,18,77,281,47,23,50,315,45,24,49,136,46,,,,*40
###2023-11-09 13:06:43.838257$GLGSV,2,1,05,70,50,016,35,71,48,288,48,80,17,091,43,85,58,203,48*68
###2023-11-09 13:06:43.839863$GLGSV,2,2,05,86,52,309,47,,,,,,,,,,,,*50
###2023-11-09 13:06:43.842414$GAGSV,1,1,04,07,72,255,45,08,49,042,44,13,64,160,44,26,56,311,45*6C
###2023-11-09 13:06:43.844980$GBGSV,2,1,06,11,24,180,42,14,65,006,45,24,19,133,44,26,23,082,43*61
###2023-11-09 13:06:43.846928$GBGSV,2,2,06,28,43,289,47,33,58,302,47,,,,,,,,*6F
###2023-11-09 13:06:43.848348$GNVTG,21.48,T,,M,1.44,N,2.66,K,A*1F
###2023-11-09 13:06:43.942612$GNGGA,130644.10,3611.0448669,N,07544.9787952,W,1,24,0.6,0.947,M,-39.961,M,0.0,*61
###2023-11-09 13:06:43.945201$GPGSV,2,1,07,05,21,090,42,10,18,292,42,13,24,045,42,15,62,037,45*75
###2023-11-09 13:06:43.947474$GPGSV,2,2,07,18,77,281,47,23,50,315,45,24,49,136,46,,,,*40
###2023-11-09 13:06:43.950045$GLGSV,2,1,05,70,50,016,35,71,48,288,48,80,17,091,44,85,58,203,48*6F
###2023-11-09 13:06:43.951648$GLGSV,2,2,05,86,52,309,47,,,,,,,,,,,,*50
###2023-11-09 13:06:43.954221$GAGSV,1,1,04,07,72,255,45,08,49,042,44,13,64,160,44,26,56,311,45*6C
###2023-11-09 13:06:43.956803$GBGSV,2,1,06,11,24,180,42,14,65,006,45,24,19,133,44,26,23,082,43*61
###2023-11-09 13:06:43.958754$GBGSV,2,2,06,28,43,289,47,33,58,302,47,,,,,,,,*6F
###2023-11-09 13:06:43.960193$GNVTG,21.33,T,,M,1.34,N,2.48,K,A*18
###2023-11-09 13:06:44.032871$GNGGA,130644.20,3611.0449004,N,07544.9787802,W,1,24,0.6,0.948,M,-39.961,M,0.0,*65
###2023-11-09 13:06:44.035477$GPGSV,2,1,07,05,21,090,42,10,18,292,43,13,24,045,42,15,62,037,45*74
###2023-11-09 13:06:44.037752$GPGSV,2,2,07,18,77,281,47,23,50,315,45,24,49,136,46,,,,*40
###2023-11-09 13:06:44.040321$GLGSV,2,1,05,70,50,016,35,71,48,288,48,80,17,091,44,85,58,203,48*6F
###2023-11-09 13:06:44.041932$GLGSV,2,2,05,86,52,309,48,,,,,,,,,,,,*5F
###2023-11-09 13:06:44.044494$GAGSV,1,1,04,07,72,255,45,08,49,042,44,13,64,160,44,26,56,311,45*6C
###2023-11-09 13:06:44.047077$GBGSV,2,1,06,11,24,180,42,14,65,006,45,24,19,133,43,26,23,082,43*66
###2023-11-09 13:06:44.049006$GBGSV,2,2,06,28,43,289,47,33,58,302,47,,,,,,,,*6F
###2023-11-09 13:06:44.050430$GNVTG,19.42,T,,M,1.21,N,2.23,K,A*1C
###2023-11-09 13:06:44.133581$GNGGA,130644.30,3611.0449315,N,07544.9787670,W,1,24,0.6,0.945,M,-39.961,M,0.0,*61
###2023-11-09 13:06:44.136154$GPGSV,2,1,07,05,21,090,42,10,18,292,43,13,24,045,42,15,62,037,45*74
###2023-11-09 13:06:44.138413$GPGSV,2,2,07,18,77,281,47,23,50,315,46,24,49,136,46,,,,*43
###2023-11-09 13:06:44.140970$GLGSV,2,1,05,70,50,016,35,71,48,288,48,80,17,091,44,85,58,203,48*6F
###2023-11-09 13:06:44.142562$GLGSV,2,2,05,86,52,309,48,,,,,,,,,,,,*5F
###2023-11-09 13:06:44.145107$GAGSV,1,1,04,07,72,255,45,08,49,042,45,13,64,160,44,26,56,311,45*6D
###2023-11-09 13:06:44.147662$GBGSV,2,1,06,11,24,180,42,14,65,006,45,24,19,133,43,26,23,082,43*66
###2023-11-09 13:06:44.149578$GBGSV,2,2,06,28,43,289,47,33,58,302,47,,,,,,,,*6F
###2023-11-09 13:06:44.151011$GNVTG,20.33,T,,M,1.13,N,2.09,K,A*19
###2023-11-09 13:06:44.228985$GNGGA,130644.40,3611.0449615,N,07544.9787532,W,1,24,0.6,0.945,M,-39.961,M,0.0,*66
###2023-11-09 13:06:44.231555$GPGSV,2,1,07,05,21,090,41,10,18,292,44,13,24,045,42,15,62,037,45*70
###2023-11-09 13:06:44.233798$GPGSV,2,2,07,18,77,281,47,23,50,315,46,24,49,136,46,,,,*43
###2023-11-09 13:06:44.236355$GLGSV,2,1,05,70,50,016,35,71,48,288,48,80,17,091,44,85,58,203,48*6F
###2023-11-09 13:06:44.237969$GLGSV,2,2,05,86,52,309,47,,,,,,,,,,,,*50
###2023-11-09 13:06:44.240534$GAGSV,1,1,04,07,72,255,45,08,49,042,45,13,64,160,44,26,56,311,45*6D
###2023-11-09 13:06:44.243099$GBGSV,2,1,06,11,24,180,42,14,65,006,45,24,19,133,43,26,23,082,43*66
###2023-11-09 13:06:44.245015$GBGSV,2,2,06,28,43,289,47,33,58,302,48,,,,,,,,*60
###2023-11-09 13:06:44.246440$GNVTG,21.88,T,,M,1.15,N,2.12,K,A*14
###2023-11-09 13:06:44.331970$GNGGA,130644.50,3611.0449926,N,07544.9787396,W,1,24,0.6,0.942,M,-39.961,M,0.0,*67
###2023-11-09 13:06:44.334553$GPGSV,2,1,07,05,21,090,41,10,18,292,44,13,24,045,42,15,62,037,45*70
###2023-11-09 13:06:44.336791$GPGSV,2,2,07,18,77,281,47,23,50,315,45,24,49,136,46,,,,*40
###2023-11-09 13:06:44.339367$GLGSV,2,1,05,70,50,016,35,71,48,288,48,80,17,091,44,85,58,203,48*6F
###2023-11-09 13:06:44.340970$GLGSV,2,2,05,86,52,309,47,,,,,,,,,,,,*50
###2023-11-09 13:06:44.343519$GAGSV,1,1,04,07,72,255,45,08,49,042,44,13,64,160,44,26,56,311,45*6C
###2023-11-09 13:06:44.346083$GBGSV,2,1,06,11,24,180,42,14,65,006,45,24,19,133,43,26,23,082,43*66
###2023-11-09 13:06:44.348036$GBGSV,2,2,06,28,43,289,47,33,58,302,48,,,,,,,,*60
###2023-11-09 13:06:44.349466$GNVTG,18.88,T,,M,1.21,N,2.23,K,A*1B
###2023-11-09 13:06:44.429511$GNGGA,130644.60,3611.0450268,N,07544.9787259,W,1,24,0.6,0.939,M,-39.961,M,0.0,*63
###2023-11-09 13:06:44.432089$GPGSV,2,1,07,05,21,090,41,10,18,292,44,13,24,045,42,15,62,037,45*70
###2023-11-09 13:06:44.434325$GPGSV,2,2,07,18,77,281,47,23,50,315,45,24,49,136,46,,,,*40
###2023-11-09 13:06:44.436887$GLGSV,2,1,05,70,50,016,35,71,48,288,48,80,17,091,43,85,58,203,48*68
###2023-11-09 13:06:44.438499$GLGSV,2,2,05,86,52,309,47,,,,,,,,,,,,*50
###2023-11-09 13:06:44.441049$GAGSV,1,1,04,07,72,255,45,08,49,042,44,13,64,160,44,26,56,311,45*6C
###2023-11-09 13:06:44.443611$GBGSV,2,1,06,11,24,180,42,14,65,006,45,24,19,133,43,26,23,082,43*66
###2023-11-09 13:06:44.445532$GBGSV,2,2,06,28,43,289,47,33,58,302,48,,,,,,,,*60
###2023-11-09 13:06:44.446966$GNVTG,18.75,T,,M,1.34,N,2.48,K,A*10
###2023-11-09 13:06:44.528997$GNGGA,130644.70,3611.0450641,N,07544.9787103,W,1,24,0.6,0.936,M,-39.961,M,0.0,*6E
###2023-11-09 13:06:44.531590$GPGSV,2,1,07,05,21,090,41,10,18,292,43,13,24,045,41,15,62,037,45*74
###2023-11-09 13:06:44.533847$GPGSV,2,2,07,18,77,281,47,23,50,315,45,24,49,136,46,,,,*40
###2023-11-09 13:06:44.536424$GLGSV,2,1,05,70,50,016,35,71,48,288,48,80,17,091,43,85,58,203,48*68
###2023-11-09 13:06:44.538052$GLGSV,2,2,05,86,52,309,47,,,,,,,,,,,,*50
###2023-11-09 13:06:44.540639$GAGSV,1,1,04,07,72,255,45,08,49,042,44,13,64,160,44,26,56,311,45*6C
###2023-11-09 13:06:44.543519$GBGSV,2,1,06,11,24,180,42,14,65,006,45,24,19,133,43,26,23,082,43*66
###2023-11-09 13:06:44.545473$GBGSV,2,2,06,28,43,289,47,33,58,302,47,,,,,,,,*6F
###2023-11-09 13:06:44.546932$GNVTG,20.12,T,,M,1.44,N,2.66,K,A*11
###2023-11-09 13:06:44.630864$GNGGA,130644.80,3611.0451011,N,07544.9786941,W,1,24,0.6,0.932,M,-39.961,M,0.0,*68
###2023-11-09 13:06:44.633449$GPGSV,2,1,07,05,21,090,41,10,18,292,43,13,24,045,41,15,62,037,45*74
###2023-11-09 13:06:44.635703$GPGSV,2,2,07,18,77,281,47,23,50,315,45,24,49,136,46,,,,*40
###2023-11-09 13:06:44.638297$GLGSV,2,1,05,70,50,016,35,71,48,288,48,80,17,091,43,85,58,203,48*68
###2023-11-09 13:06:44.639917$GLGSV,2,2,05,86,52,309,47,,,,,,,,,,,,*50
###2023-11-09 13:06:44.642478$GAGSV,1,1,04,07,72,255,45,08,49,042,44,13,64,160,44,26,56,311,45*6C
