###2023-11-09 13:10:27.631129$GNGGA,131027.80,3611.0569633,N,07544.8692880,W,1,24,0.6,0.682,M,-39.960,M,0.0,*6A
###2023-11-09 13:10:27.633740$GPGSV,2,1,07,05,20,091,44,10,19,294,42,13,23,045,43,15,60,038,45*7F
###2023-11-09 13:10:27.635998$GPGSV,2,2,07,18,78,277,46,23,50,316,45,24,50,134,46,,,,*4E
###2023-11-09 13:10:27.638592$GLGSV,2,1,05,70,49,019,36,71,48,291,49,80,19,089,45,85,56,202,48*6B
###2023-11-09 13:10:27.640201$GLGSV,2,2,05,86,54,306,48,,,,,,,,,,,,*56
###2023-11-09 13:10:27.642775$GAGSV,1,1,04,07,73,259,45,08,48,043,45,13,63,161,45,26,57,310,44*66
###2023-11-09 13:10:27.645358$GBGSV,2,1,06,11,22,180,42,14,65,009,45,24,21,132,44,26,23,080,45*66
###2023-11-09 13:10:27.647300$GBGSV,2,2,06,28,43,286,47,33,59,305,46,,,,,,,,*67
###2023-11-09 13:10:27.648761$GNVTG,339.74,T,,M,3.81,N,7.06,K,A*22
###2023-11-09 13:10:27.731253$GNGGA,131027.90,3611.0570636,N,07544.8693304,W,1,24,0.6,0.675,M,-39.960,M,0.0,*68
###2023-11-09 13:10:27.733868$GPGSV,2,1,07,05,20,091,44,10,19,294,42,13,23,045,42,15,60,038,45*7E
###2023-11-09 13:10:27.736133$GPGSV,2,2,07,18,78,277,46,23,50,316,45,24,50,134,46,,,,*4E
###2023-11-09 13:10:27.738735$GLGSV,2,1,05,70,49,019,36,71,48,291,48,80,19,089,45,85,56,202,48*6A
###2023-11-09 13:10:27.740350$GLGSV,2,2,05,86,54,306,48,,,,,,,,,,,,*56
###2023-11-09 13:10:27.742919$GAGSV,1,1,04,07,73,259,45,08,48,043,44,13,63,161,45,26,57,310,44*67
###2023-11-09 13:10:27.745489$GBGSV,2,1,06,11,22,180,42,14,65,009,45,24,21,132,44,26,23,080,45*66
###2023-11-09 13:10:27.747443$GBGSV,2,2,06,28,43,286,47,33,59,305,46,,,,,,,,*67
###2023-11-09 13:10:27.748909$GNVTG,342.82,T,,M,3.85,N,7.13,K,A*27
###2023-11-09 13:10:27.834265$GNGGA,131028.00,3611.0571652,N,07544.8693709,W,1,24,0.6,0.669,M,-39.960,M,0.0,*69
###2023-11-09 13:10:27.836846$GPGSV,2,1,07,05,20,091,44,10,19,294,42,13,23,045,42,15,60,038,45*7E
###2023-11-09 13:10:27.839119$GPGSV,2,2,07,18,78,277,46,23,50,316,45,24,50,134,46,,,,*4E
###2023-11-09 13:10:27.841693$GLGSV,2,1,05,70,49,019,36,71,48,291,48,80,19,089,45,85,56,202,47*65
###2023-11-09 13:10:27.843307$GLGSV,2,2,05,86,54,306,48,,,,,,,,,,,,*56
###2023-11-09 13:10:27.845900$GAGSV,1,1,04,07,73,259,45,08,48,043,44,13,63,161,45,26,57,310,44*67
###2023-11-09 13:10:27.848552$GBGSV,2,1,06,11,22,180,42,14,65,009,45,24,21,132,44,26,23,080,45*66
###2023-11-09 13:10:27.850505$GBGSV,2,2,06,28,43,286,47,33,59,305,46,,,,,,,,*67
###2023-11-09 13:10:27.851971$GNVTG,341.77,T,,M,3.85,N,7.13,K,A*2E
###2023-11-09 13:10:27.934231$GNGGA,131028.10,3611.0572638,N,07544.8694171,W,1,24,0.6,0.659,M,-39.960,M,0.0,*6A
###2023-11-09 13:10:27.936812$GPGSV,2,1,07,05,20,091,44,10,19,294,42,13,23,045,43,15,60,038,45*7F
###2023-11-09 13:10:27.939076$GPGSV,2,2,07,18,78,277,46,23,50,316,45,24,50,134,46,,,,*4E
###2023-11-09 13:10:27.941635$GLGSV,2,1,05,70,49,019,36,71,48,291,48,80,19,089,46,85,56,202,47*66
###2023-11-09 13:10:27.943237$GLGSV,2,2,05,86,54,306,48,,,,,,,,,,,,*56
###2023-11-09 13:10:27.945795$GAGSV,1,1,04,07,73,259,45,08,48,043,44,13,63,161,45,26,57,310,44*67
###2023-11-09 13:10:27.948368$GBGSV,2,1,06,11,22,180,42,14,65,009,45,24,21,132,44,26,23,080,45*66
###2023-11-09 13:10:27.950290$GBGSV,2,2,06,28,43,286,47,33,59,305,47,,,,,,,,*66
###2023-11-09 13:10:27.951742$GNVTG,337.20,T,,M,3.75,N,6.95,K,A*2D
###2023-11-09 13:10:28.033252$GNGGA,131028.20,3611.0573563,N,07544.8694720,W,1,24,0.6,0.647,M,-39.960,M,0.0,*68
###2023-11-09 13:10:28.035867$GPGSV,2,1,07,05,20,091,44,10,19,294,42,13,23,045,43,15,60,038,45*7F
###2023-11-09 13:10:28.038144$GPGSV,2,2,07,18,78,277,46,23,50,316,45,24,50,134,46,,,,*4E
###2023-11-09 13:10:28.040721$GLGSV,2,1,05,70,49,019,36,71,48,291,48,80,19,089,46,85,56,202,47*66
###2023-11-09 13:10:28.042339$GLGSV,2,2,05,86,54,306,48,,,,,,,,,,,,*56
###2023-11-09 13:10:28.044911$GAGSV,1,1,04,07,73,259,45,08,48,043,45,13,63,161,45,26,57,310,44*66
###2023-11-09 13:10:28.047512$GBGSV,2,1,06,11,22,180,40,14,65,009,45,24,21,132,44,26,23,080,46*67
###2023-11-09 13:10:28.049457$GBGSV,2,2,06,28,43,286,47,33,59,305,47,,,,,,,,*66
###2023-11-09 13:10:28.050922$GNVTG,331.82,T,,M,3.65,N,6.77,K,A*2E
###2023-11-09 13:10:28.132125$GNGGA,131028.30,3611.0574447,N,07544.8695323,W,1,24,0.6,0.639,M,-39.960,M,0.0,*66
###2023-11-09 13:10:28.134713$GPGSV,2,1,07,05,20,091,44,10,19,294,42,13,23,045,43,15,60,038,45*7F
###2023-11-09 13:10:28.136983$GPGSV,2,2,07,18,78,277,46,23,50,316,45,24,50,134,46,,,,*4E
###2023-11-09 13:10:28.139560$GLGSV,2,1,05,70,49,019,36,71,48,291,48,80,19,089,46,85,56,202,47*66
###2023-11-09 13:10:28.141162$GLGSV,2,2,05,86,54,306,48,,,,,,,,,,,,*56
###2023-11-09 13:10:28.143731$GAGSV,1,1,04,07,73,259,45,08,48,043,45,13,63,161,45,26,57,310,44*66
###2023-11-09 13:10:28.146316$GBGSV,2,1,06,11,22,180,41,14,65,009,45,24,21,132,44,26,23,080,46*66
###2023-11-09 13:10:28.148271$GBGSV,2,2,06,28,43,286,47,33,59,305,47,,,,,,,,*66
###2023-11-09 13:10:28.149748$GNVTG,329.97,T,,M,3.65,N,6.77,K,A*23
###2023-11-09 13:10:28.231237$GNGGA,131028.40,3611.0575310,N,07544.8695962,W,1,24,0.6,0.631,M,-39.960,M,0.0,*62
###2023-11-09 13:10:28.233820$GPGSV,2,1,07,05,20,091,43,10,19,294,42,13,23,045,43,15,60,038,45*78
###2023-11-09 13:10:28.236065$GPGSV,2,2,07,18,78,277,46,23,50,316,45,24,50,134,46,,,,*4E
###2023-11-09 13:10:28.238648$GLGSV,2,1,05,70,49,019,36,71,48,291,48,80,19,089,45,85,56,202,48*6A
###2023-11-09 13:10:28.240259$GLGSV,2,2,05,86,54,306,48,,,,,,,,,,,,*56
###2023-11-09 13:10:28.242822$GAGSV,1,1,04,07,73,259,45,08,48,043,44,13,63,161,45,26,57,310,45*66
###2023-11-09 13:10:28.245395$GBGSV,2,1,06,11,22,180,42,14,65,009,45,24,21,132,44,26,23,080,45*66
###2023-11-09 13:10:28.247337$GBGSV,2,2,06,28,43,286,47,33,59,305,47,,,,,,,,*66
###2023-11-09 13:10:28.248799$GNVTG,327.94,T,,M,3.63,N,6.73,K,A*2C
###2023-11-09 13:10:28.331375$GNGGA,131028.50,3611.0576163,N,07544.8696594,W,1,24,0.6,0.621,M,-39.960,M,0.0,*61
###2023-11-09 13:10:28.333976$GPGSV,2,1,07,05,20,091,43,10,19,294,42,13,23,045,41,15,60,038,45*7A
###2023-11-09 13:10:28.336231$GPGSV,2,2,07,18,78,277,46,23,50,316,45,24,50,134,46,,,,*4E
###2023-11-09 13:10:28.338837$GLGSV,2,1,05,70,49,019,36,71,48,291,48,80,19,089,45,85,56,202,48*6A
###2023-11-09 13:10:28.340451$GLGSV,2,2,05,86,54,306,48,,,,,,,,,,,,*56
###2023-11-09 13:10:28.343018$GAGSV,1,1,04,07,73,259,45,08,48,043,44,13,63,161,45,26,57,310,45*66
###2023-11-09 13:10:28.345596$GBGSV,2,1,06,11,22,180,43,14,65,009,45,24,21,132,44,26,23,080,45*67
###2023-11-09 13:10:28.347580$GBGSV,2,2,06,28,43,286,47,33,59,305,47,,,,,,,,*66
###2023-11-09 13:10:28.349065$GNVTG,329.98,T,,M,3.58,N,6.62,K,A*26
###2023-11-09 13:10:28.432219$GNGGA,131028.60,3611.0577043,N,07544.8697153,W,1,24,0.6,0.619,M,-39.960,M,0.0,*65
###2023-11-09 13:10:28.434805$GPGSV,2,1,07,05,20,091,43,10,19,294,43,13,23,045,41,15,60,038,45*7B
###2023-11-09 13:10:28.437086$GPGSV,2,2,07,18,78,277,46,23,50,316,45,24,50,134,46,,,,*4E
###2023-11-09 13:10:28.439673$GLGSV,2,1,05,70,49,019,36,71,48,291,48,80,19,089,45,85,56,202,48*6A
###2023-11-09 13:10:28.441274$GLGSV,2,2,05,86,54,306,48,,,,,,,,,,,,*56
###2023-11-09 13:10:28.443858$GAGSV,1,1,04,07,73,259,46,08,48,043,44,13,63,161,45,26,57,310,45*65
###2023-11-09 13:10:28.446434$GBGSV,2,1,06,11,22,180,43,14,65,009,45,24,21,132,44,26,23,080,45*67
###2023-11-09 13:10:28.448378$GBGSV,2,2,06,28,43,286,47,33,59,305,47,,,,,,,,*66
###2023-11-09 13:10:28.449841$GNVTG,334.93,T,,M,3.62,N,6.70,K,A*2B
###2023-11-09 13:10:28.531236$GNGGA,131028.70,3611.0577970,N,07544.8697665,W,1,24,0.6,0.620,M,-39.960,M,0.0,*65
###2023-11-09 13:10:28.533805$GPGSV,2,1,07,05,20,091,43,10,19,294,43,13,23,045,41,15,60,038,45*7B
###2023-11-09 13:10:28.536044$GPGSV,2,2,07,18,78,277,46,23,50,316,45,24,50,134,46,,,,*4E
###2023-11-09 13:10:28.538626$GLGSV,2,1,05,70,49,019,36,71,48,291,48,80,19,089,45,85,56,202,48*6A
###2023-11-09 13:10:28.540223$GLGSV,2,2,05,86,54,306,48,,,,,,,,,,,,*56
###2023-11-09 13:10:28.542773$GAGSV,1,1,04,07,73,259,45,08,48,043,44,13,63,161,45,26,57,310,45*66
###2023-11-09 13:10:28.545330$GBGSV,2,1,06,11,22,180,43,14,65,009,45,24,21,132,44,26,23,080,45*67
###2023-11-09 13:10:28.547263$GBGSV,2,2,06,28,43,286,47,33,59,305,47,,,,,,,,*66
###2023-11-09 13:10:28.548718$GNVTG,336.50,T,,M,3.75,N,6.95,K,A*2B
###2023-11-09 13:10:28.631266$GNGGA,131028.80,3611.0578903,N,07544.8698214,W,1,24,0.6,0.616,M,-39.960,M,0.0,*69
###2023-11-09 13:10:28.633864$GPGSV,2,1,07,05,20,091,43,10,19,294,43,13,23,045,41,15,60,038,45*7B
###2023-11-09 13:10:28.636131$GPGSV,2,2,07,18,78,277,46,23,50,316,45,24,50,134,46,,,,*4E
###2023-11-09 13:10:28.638723$GLGSV,2,1,05,70,49,019,36,71,48,291,48,80,19,089,46,85,56,202,48*69
###2023-11-09 13:10:28.640334$GLGSV,2,2,05,86,54,306,48,,,,,,,,,,,,*56
###2023-11-09 13:10:28.642904$GAGSV,1,1,04,07,73,259,45,08,48,043,44,13,63,161,45,26,57,310,45*66
###2023-11-09 13:10:28.645491$GBGSV,2,1,06,11,22,180,42,14,65,009,45,24,21,132,45,26,23,080,46*64
###2023-11-09 13:10:28.647439$GBGSV,2,2,06,28,43,286,47,33,59,305,47,,,,,,,,*66
###2023-11-09 13:10:28.648904$GNVTG,332.29,T,,M,3.71,N,6.88,K,A*29
###2023-11-09 13:10:28.732249$GNGGA,131028.90,3611.0579786,N,07544.8698830,W,1,24,0.6,0.618,M,-39.960,M,0.0,*68
