###2023-11-09 13:08:24.943036$GAGSV,1,1,04,07,72,258,45,08,48,043,45,13,64,160,45,26,57,310,45*61
###2023-11-09 13:08:24.945651$GBGSV,2,1,06,11,23,180,40,14,65,008,45,24,20,132,43,26,23,081,45*63
###2023-11-09 13:08:24.947618$GBGSV,2,2,06,28,43,287,46,33,59,304,47,,,,,,,,*67
###2023-11-09 13:08:24.949094$GNVTG,225.83,T,,M,4.59,N,8.50,K,A*28
###2023-11-09 13:08:25.031385$GNGGA,130825.20,3611.0335862,N,07545.0175889,W,1,24,0.6,0.744,M,-39.962,M,0.0,*69
###2023-11-09 13:08:25.033988$GPGSV,2,1,07,05,20,090,42,10,19,293,44,13,24,045,42,15,62,037,46*71
###2023-11-09 13:08:25.036240$GPGSV,2,2,07,18,77,281,46,23,50,315,46,24,49,136,45,,,,*41
###2023-11-09 13:08:25.038833$GLGSV,2,1,05,70,50,017,37,71,48,290,48,80,18,090,44,85,57,203,48*64
###2023-11-09 13:08:25.040444$GLGSV,2,2,05,86,53,308,48,,,,,,,,,,,,*5F
###2023-11-09 13:08:25.043006$GAGSV,1,1,04,07,72,258,44,08,48,043,45,13,64,160,44,26,57,310,45*61
###2023-11-09 13:08:25.045578$GBGSV,2,1,06,11,23,180,39,14,65,008,45,24,20,132,42,26,23,081,44*6D
###2023-11-09 13:08:25.047523$GBGSV,2,2,06,28,43,287,47,33,59,304,47,,,,,,,,*66
###2023-11-09 13:08:25.048990$GNVTG,220.78,T,,M,4.61,N,8.53,K,A*21
###2023-11-09 13:08:25.130356$GNGGA,130825.30,3611.0334838,N,07545.0176854,W,1,24,0.6,0.735,M,-39.962,M,0.0,*63
###2023-11-09 13:08:25.132960$GPGSV,2,1,07,05,20,090,42,10,19,293,44,13,24,045,42,15,62,037,46*71
###2023-11-09 13:08:25.135216$GPGSV,2,2,07,18,77,281,46,23,50,315,46,24,49,136,45,,,,*41
###2023-11-09 13:08:25.137816$GLGSV,2,1,05,70,50,017,37,71,48,290,48,80,18,090,44,85,57,203,48*64
###2023-11-09 13:08:25.139424$GLGSV,2,2,05,86,53,308,48,,,,,,,,,,,,*5F
###2023-11-09 13:08:25.141989$GAGSV,1,1,04,07,72,258,44,08,48,043,45,13,64,160,44,26,57,310,45*61
###2023-11-09 13:08:25.144568$GBGSV,2,1,06,11,23,180,39,14,65,008,45,24,20,132,42,26,23,081,43*6A
###2023-11-09 13:08:25.146504$GBGSV,2,2,06,28,43,287,47,33,59,304,48,,,,,,,,*69
###2023-11-09 13:08:25.147981$GNVTG,214.46,T,,M,4.67,N,8.64,K,A*29
###2023-11-09 13:08:25.229381$GNGGA,130825.40,3611.0333737,N,07545.0177686,W,1,24,0.6,0.722,M,-39.962,M,0.0,*65
###2023-11-09 13:08:25.231972$GPGSV,2,1,07,05,20,090,42,10,19,293,44,13,24,045,40,15,62,037,46*73
###2023-11-09 13:08:25.234225$GPGSV,2,2,07,18,77,281,46,23,50,315,46,24,49,136,45,,,,*41
###2023-11-09 13:08:25.236791$GLGSV,2,1,05,70,50,017,37,71,48,290,48,80,18,090,44,85,57,203,48*64
###2023-11-09 13:08:25.238405$GLGSV,2,2,05,86,53,308,48,,,,,,,,,,,,*5F
###2023-11-09 13:08:25.240968$GAGSV,1,1,04,07,72,258,44,08,48,043,45,13,64,160,44,26,57,310,45*61
###2023-11-09 13:08:25.243545$GBGSV,2,1,06,11,23,180,39,14,65,008,45,24,20,132,42,26,23,081,43*6A
###2023-11-09 13:08:25.245486$GBGSV,2,2,06,28,43,287,47,33,59,304,48,,,,,,,,*69
###2023-11-09 13:08:25.246957$GNVTG,209.23,T,,M,4.63,N,8.57,K,A*22
###2023-11-09 13:08:25.329398$GNGGA,130825.50,3611.0332609,N,07545.0178443,W,1,24,0.6,0.704,M,-39.962,M,0.0,*69
###2023-11-09 13:08:25.331999$GPGSV,2,1,07,05,20,090,42,10,19,293,44,13,24,045,42,15,62,037,46*71
###2023-11-09 13:08:25.334256$GPGSV,2,2,07,18,77,281,46,23,50,315,46,24,49,136,46,,,,*42
###2023-11-09 13:08:25.336832$GLGSV,2,1,05,70,50,017,37,71,48,290,47,80,18,090,44,85,57,203,48*6B
###2023-11-09 13:08:25.338460$GLGSV,2,2,05,86,53,308,48,,,,,,,,,,,,*5F
###2023-11-09 13:08:25.341019$GAGSV,1,1,04,07,72,258,44,08,48,043,45,13,64,160,44,26,57,310,45*61
###2023-11-09 13:08:25.343602$GBGSV,2,1,06,11,23,180,40,14,65,008,45,24,20,132,43,26,23,081,44*62
###2023-11-09 13:08:25.345538$GBGSV,2,2,06,28,43,287,46,33,59,304,48,,,,,,,,*68
###2023-11-09 13:08:25.347015$GNVTG,208.52,T,,M,4.61,N,8.53,K,A*23
###2023-11-09 13:08:25.430353$GNGGA,130825.60,3611.0331483,N,07545.0179205,W,1,24,0.6,0.683,M,-39.962,M,0.0,*62
###2023-11-09 13:08:25.432928$GPGSV,2,1,07,05,20,090,42,10,19,293,43,13,24,045,42,15,62,037,46*76
###2023-11-09 13:08:25.435174$GPGSV,2,2,07,18,77,281,46,23,50,315,45,24,49,136,46,,,,*41
###2023-11-09 13:08:25.437786$GLGSV,2,1,05,70,50,017,37,71,48,290,47,80,18,090,45,85,57,203,48*6A
###2023-11-09 13:08:25.439401$GLGSV,2,2,05,86,53,308,48,,,,,,,,,,,,*5F
###2023-11-09 13:08:25.441967$GAGSV,1,1,04,07,72,258,44,08,48,043,45,13,64,160,44,26,57,310,45*61
###2023-11-09 13:08:25.444537$GBGSV,2,1,06,11,23,180,40,14,65,008,45,24,20,132,43,26,23,081,44*62
###2023-11-09 13:08:25.446468$GBGSV,2,2,06,28,43,287,46,33,59,304,47,,,,,,,,*67
###2023-11-09 13:08:25.447952$GNVTG,209.52,T,,M,4.63,N,8.57,K,A*24
###2023-11-09 13:08:25.530361$GNGGA,130825.70,3611.0330368,N,07545.0180013,W,1,24,0.6,0.667,M,-39.962,M,0.0,*69
###2023-11-09 13:08:25.532950$GPGSV,2,1,07,05,20,090,43,10,19,293,43,13,24,045,42,15,62,037,46*77
###2023-11-09 13:08:25.535200$GPGSV,2,2,07,18,77,281,46,23,50,315,45,24,49,136,46,,,,*41
###2023-11-09 13:08:25.537784$GLGSV,2,1,05,70,50,017,37,71,48,290,47,80,18,090,45,85,57,203,48*6A
###2023-11-09 13:08:25.539387$GLGSV,2,2,05,86,53,308,47,,,,,,,,,,,,*50
###2023-11-09 13:08:25.541944$GAGSV,1,1,04,07,72,258,44,08,48,043,44,13,64,160,44,26,57,310,45*60
###2023-11-09 13:08:25.544509$GBGSV,2,1,06,11,23,180,40,14,65,008,45,24,20,132,44,26,23,081,44*65
###2023-11-09 13:08:25.546434$GBGSV,2,2,06,28,43,287,46,33,59,304,47,,,,,,,,*67
###2023-11-09 13:08:25.547904$GNVTG,211.81,T,,M,4.68,N,8.68,K,A*24
###2023-11-09 13:08:25.629522$GNGGA,130825.80,3611.0329270,N,07545.0180883,W,1,24,0.6,0.654,M,-39.962,M,0.0,*67
###2023-11-09 13:08:25.632112$GPGSV,2,1,07,05,20,090,43,10,19,293,43,13,24,045,42,15,62,037,46*77
###2023-11-09 13:08:25.634366$GPGSV,2,2,07,18,77,281,46,23,50,315,45,24,49,136,46,,,,*41
###2023-11-09 13:08:25.636962$GLGSV,2,1,05,70,50,017,36,71,48,290,47,80,18,090,45,85,57,203,48*6B
###2023-11-09 13:08:25.638579$GLGSV,2,2,05,86,53,308,47,,,,,,,,,,,,*50
###2023-11-09 13:08:25.641155$GAGSV,1,1,04,07,72,258,44,08,48,043,45,13,64,160,44,26,57,310,45*61
###2023-11-09 13:08:25.643744$GBGSV,2,1,06,11,23,180,40,14,65,008,45,24,20,132,44,26,23,081,44*65
###2023-11-09 13:08:25.645685$GBGSV,2,2,06,28,43,287,46,33,59,304,47,,,,,,,,*67
###2023-11-09 13:08:25.647166$GNVTG,214.09,T,,M,4.72,N,8.75,K,A*26
###2023-11-09 13:08:25.730366$GNGGA,130825.90,3611.0328194,N,07545.0181813,W,1,24,0.6,0.637,M,-39.962,M,0.0,*63
###2023-11-09 13:08:25.732959$GPGSV,2,1,07,05,20,090,43,10,19,293,43,13,24,045,41,15,62,037,46*74
###2023-11-09 13:08:25.735227$GPGSV,2,2,07,18,77,281,46,23,50,315,45,24,49,136,46,,,,*41
###2023-11-09 13:08:25.737831$GLGSV,2,1,05,70,50,017,36,71,48,290,47,80,18,090,45,85,57,203,48*6B
###2023-11-09 13:08:25.739447$GLGSV,2,2,05,86,53,308,48,,,,,,,,,,,,*5F
###2023-11-09 13:08:25.742028$GAGSV,1,1,04,07,72,258,44,08,48,043,45,13,64,160,44,26,57,310,45*61
###2023-11-09 13:08:25.744618$GBGSV,2,1,06,11,23,180,40,14,65,008,45,24,20,132,44,26,23,081,44*65
###2023-11-09 13:08:25.746559$GBGSV,2,2,06,28,43,287,46,33,59,304,47,,,,,,,,*67
###2023-11-09 13:08:25.748044$GNVTG,216.29,T,,M,4.74,N,8.78,K,A*2D
###2023-11-09 13:08:25.836721$GNGGA,130826.00,3611.0327134,N,07545.0182724,W,1,24,0.6,0.616,M,-39.962,M,0.0,*67
###2023-11-09 13:08:25.839309$GPGSV,2,1,07,05,20,090,42,10,19,293,45,13,24,045,41,15,62,037,46*73
###2023-11-09 13:08:25.841547$GPGSV,2,2,07,18,77,281,46,23,50,315,46,24,49,136,45,,,,*41
###2023-11-09 13:08:25.844117$GLGSV,2,1,05,70,50,017,36,71,48,290,48,80,18,090,44,85,57,203,48*65
###2023-11-09 13:08:25.845717$GLGSV,2,2,05,86,53,308,48,,,,,,,,,,,,*5F
###2023-11-09 13:08:25.848304$GAGSV,1,1,04,07,72,258,44,08,48,043,45,13,64,160,44,26,57,310,45*61
###2023-11-09 13:08:25.850881$GBGSV,2,1,06,11,23,180,39,14,65,008,45,24,20,132,44,26,23,081,43*6C
###2023-11-09 13:08:25.852830$GBGSV,2,2,06,28,43,287,47,33,59,304,47,,,,,,,,*66
###2023-11-09 13:08:25.854312$GNVTG,213.70,T,,M,4.57,N,8.46,K,A*28
###2023-11-09 13:08:25.930376$GNGGA,130826.10,3611.0326048,N,07545.0183523,W,1,24,0.6,0.612,M,-39.962,M,0.0,*6D
###2023-11-09 13:08:25.932972$GPGSV,2,1,07,05,20,090,42,10,19,293,45,13,24,045,42,15,62,037,46*70
###2023-11-09 13:08:25.935232$GPGSV,2,2,07,18,77,281,46,23,50,315,46,24,49,136,45,,,,*41
###2023-11-09 13:08:25.937839$GLGSV,2,1,05,70,50,017,36,71,48,290,49,80,18,090,44,85,57,203,48*64
###2023-11-09 13:08:25.939455$GLGSV,2,2,05,86,53,308,48,,,,,,,,,,,,*5F
###2023-11-09 13:08:25.942330$GAGSV,1,1,04,07,72,258,44,08,48,043,45,13,64,160,44,26,57,310,45*61
###2023-11-09 13:08:25.944933$GBGSV,2,1,06,11,23,180,39,14,65,008,45,24,20,132,43,26,23,081,43*6B
###2023-11-09 13:08:25.946888$GBGSV,2,2,06,28,43,287,47,33,59,304,48,,,,,,,,*69
###2023-11-09 13:08:25.948386$GNVTG,208.56,T,,M,4.55,N,8.42,K,A*20
###2023-11-09 13:08:26.031891$GNGGA,130826.20,3611.0324924,N,07545.0184197,W,1,24,0.6,0.627,M,-39.962,M,0.0,*65
###2023-11-09 13:08:26.034501$GPGSV,2,1,07,05,20,090,42,10,19,293,45,13,24,045,42,15,62,037,46*70
###2023-11-09 13:08:26.036775$GPGSV,2,2,07,18,77,281,46,23,50,315,46,24,49,136,45,,,,*41
###2023-11-09 13:08:26.039384$GLGSV,2,1,05,70,50,017,36,71,48,290,49,80,18,090,43,85,57,203,49*62
###2023-11-09 13:08:26.041010$GLGSV,2,2,05,86,53,308,48,,,,,,,,,,,,*5F
###2023-11-09 13:08:26.043592$GAGSV,1,1,04,07,72,258,44,08,48,043,45,13,64,160,43,26,57,310,45*66
