###2023-11-09 13:09:03.849238$GBGSV,2,2,06,28,43,287,47,33,59,304,47,,,,,,,,*66
###2023-11-09 13:09:03.850697$GNVTG,81.98,T,,M,5.00,N,9.25,K,A*10
###2023-11-09 13:09:03.932463$GNGGA,130904.10,3611.0229958,N,07544.9729672,W,1,24,0.6,0.716,M,-39.962,M,0.0,*66
###2023-11-09 13:09:03.935044$GPGSV,2,1,07,05,20,090,40,10,19,293,45,13,24,045,40,15,61,037,45*70
###2023-11-09 13:09:03.937309$GPGSV,2,2,07,18,78,277,47,23,50,316,45,24,50,135,46,,,,*4E
###2023-11-09 13:09:03.939883$GLGSV,2,1,05,70,50,017,35,71,48,290,48,80,18,090,42,85,57,203,48*60
###2023-11-09 13:09:03.941488$GLGSV,2,2,05,86,53,308,47,,,,,,,,,,,,*50
###2023-11-09 13:09:03.944052$GAGSV,1,1,04,07,73,259,46,08,48,043,45,13,64,160,45,26,57,310,45*62
###2023-11-09 13:09:03.946619$GBGSV,2,1,06,11,23,180,41,14,65,008,45,24,20,132,42,26,23,081,41*67
###2023-11-09 13:09:03.948571$GBGSV,2,2,06,28,43,287,47,33,59,304,47,,,,,,,,*66
###2023-11-09 13:09:03.949998$GNVTG,84.10,T,,M,5.00,N,9.25,K,A*15
###2023-11-09 13:09:04.031510$GNGGA,130904.20,3611.0230067,N,07544.9727965,W,1,24,0.6,0.744,M,-39.962,M,0.0,*68
###2023-11-09 13:09:04.034116$GPGSV,2,1,07,05,20,090,40,10,19,293,45,13,24,045,40,15,61,037,45*70
###2023-11-09 13:09:04.036378$GPGSV,2,2,07,18,78,277,47,23,50,316,45,24,50,135,46,,,,*4E
###2023-11-09 13:09:04.038987$GLGSV,2,1,05,70,50,017,35,71,48,290,48,80,18,090,42,85,57,203,48*60
###2023-11-09 13:09:04.040611$GLGSV,2,2,05,86,53,308,47,,,,,,,,,,,,*50
###2023-11-09 13:09:04.043187$GAGSV,1,1,04,07,73,259,46,08,48,043,45,13,64,160,45,26,57,310,45*62
###2023-11-09 13:09:04.045774$GBGSV,2,1,06,11,23,180,41,14,65,008,45,24,20,132,42,26,23,081,41*67
###2023-11-09 13:09:04.047737$GBGSV,2,2,06,28,43,287,47,33,59,304,47,,,,,,,,*66
###2023-11-09 13:09:04.049172$GNVTG,86.86,T,,M,4.94,N,9.14,K,A*16
###2023-11-09 13:09:04.130373$GNGGA,130904.30,3611.0230119,N,07544.9726290,W,1,24,0.6,0.768,M,-39.962,M,0.0,*6F
###2023-11-09 13:09:04.132978$GPGSV,2,1,07,05,20,090,40,10,19,293,44,13,24,045,40,15,61,037,45*71
###2023-11-09 13:09:04.135250$GPGSV,2,2,07,18,78,277,47,23,50,316,45,24,50,135,46,,,,*4E
###2023-11-09 13:09:04.137857$GLGSV,2,1,05,70,50,017,35,71,48,290,48,80,18,090,43,85,57,203,48*61
###2023-11-09 13:09:04.139475$GLGSV,2,2,05,86,53,308,47,,,,,,,,,,,,*50
###2023-11-09 13:09:04.142051$GAGSV,1,1,04,07,73,259,46,08,48,043,45,13,64,160,45,26,57,310,45*62
###2023-11-09 13:09:04.144639$GBGSV,2,1,06,11,23,180,41,14,65,008,45,24,20,132,43,26,23,081,41*66
###2023-11-09 13:09:04.146583$GBGSV,2,2,06,28,43,287,47,33,59,304,47,,,,,,,,*66
###2023-11-09 13:09:04.148024$GNVTG,88.54,T,,M,4.84,N,8.96,K,A*1D
###2023-11-09 13:09:04.229244$GNGGA,130904.40,3611.0230151,N,07544.9724666,W,1,24,0.6,0.797,M,-39.962,M,0.0,*6B
###2023-11-09 13:09:04.231823$GPGSV,2,1,07,05,20,090,40,10,19,293,44,13,24,045,40,15,61,037,45*71
###2023-11-09 13:09:04.234080$GPGSV,2,2,07,18,78,277,47,23,50,316,45,24,50,135,46,,,,*4E
###2023-11-09 13:09:04.236656$GLGSV,2,1,05,70,50,017,35,71,48,290,48,80,18,090,43,85,57,203,48*61
###2023-11-09 13:09:04.238278$GLGSV,2,2,05,86,53,308,47,,,,,,,,,,,,*50
###2023-11-09 13:09:04.240864$GAGSV,1,1,04,07,73,259,46,08,48,043,44,13,64,160,45,26,57,310,45*63
###2023-11-09 13:09:04.243443$GBGSV,2,1,06,11,23,180,41,14,65,008,45,24,20,132,43,26,23,081,41*66
###2023-11-09 13:09:04.245378$GBGSV,2,2,06,28,43,287,47,33,59,304,47,,,,,,,,*66
###2023-11-09 13:09:04.246805$GNVTG,88.42,T,,M,4.63,N,8.57,K,A*1E
###2023-11-09 13:09:04.329408$GNGGA,130904.50,3611.0230195,N,07544.9723115,W,1,24,0.6,0.837,M,-39.962,M,0.0,*63
###2023-11-09 13:09:04.332028$GPGSV,2,1,07,05,20,090,40,10,19,293,44,13,24,045,40,15,61,037,45*71
###2023-11-09 13:09:04.334296$GPGSV,2,2,07,18,78,277,47,23,50,316,45,24,50,135,46,,,,*4E
###2023-11-09 13:09:04.336880$GLGSV,2,1,05,70,50,017,35,71,48,290,48,80,18,090,43,85,57,203,48*61
###2023-11-09 13:09:04.338502$GLGSV,2,2,05,86,53,308,47,,,,,,,,,,,,*50
###2023-11-09 13:09:04.341076$GAGSV,1,1,04,07,73,259,45,08,48,043,43,13,64,160,45,26,57,310,44*66
###2023-11-09 13:09:04.343667$GBGSV,2,1,06,11,23,180,41,14,65,008,45,24,20,132,43,26,23,081,41*66
###2023-11-09 13:09:04.345617$GBGSV,2,2,06,28,43,287,47,33,59,304,47,,,,,,,,*66
###2023-11-09 13:09:04.347068$GNVTG,87.34,T,,M,4.41,N,8.17,K,A*14
###2023-11-09 13:09:04.430246$GNGGA,130904.60,3611.0230259,N,07544.9721616,W,1,24,0.6,0.892,M,-39.962,M,0.0,*6A
###2023-11-09 13:09:04.432846$GPGSV,2,1,07,05,20,090,40,10,19,293,44,13,24,045,40,15,61,037,45*71
###2023-11-09 13:09:04.435116$GPGSV,2,2,07,18,78,277,47,23,50,316,45,24,50,135,46,,,,*4E
###2023-11-09 13:09:04.437724$GLGSV,2,1,05,70,50,017,35,71,48,290,48,80,18,090,43,85,57,203,49*60
###2023-11-09 13:09:04.439334$GLGSV,2,2,05,86,53,308,48,,,,,,,,,,,,*5F
###2023-11-09 13:09:04.441924$GAGSV,1,1,04,07,73,259,46,08,48,043,43,13,64,160,45,26,57,310,45*64
###2023-11-09 13:09:04.444512$GBGSV,2,1,06,11,23,180,42,14,65,008,45,24,20,132,43,26,23,081,41*65
###2023-11-09 13:09:04.446460$GBGSV,2,2,06,28,43,287,47,33,59,304,47,,,,,,,,*66
###2023-11-09 13:09:04.447914$GNVTG,86.42,T,,M,4.33,N,8.03,K,A*14
###2023-11-09 13:09:04.529495$GNGGA,130904.70,3611.0230367,N,07544.9720156,W,1,24,0.6,0.947,M,-39.962,M,0.0,*6C
###2023-11-09 13:09:04.532084$GPGSV,2,1,07,05,20,090,40,10,19,293,44,13,24,045,40,15,61,037,45*71
###2023-11-09 13:09:04.534334$GPGSV,2,2,07,18,78,277,47,23,50,316,45,24,50,135,46,,,,*4E
###2023-11-09 13:09:04.536897$GLGSV,2,1,05,70,50,017,35,71,48,290,48,80,18,090,43,85,57,203,48*61
###2023-11-09 13:09:04.538512$GLGSV,2,2,05,86,53,308,48,,,,,,,,,,,,*5F
###2023-11-09 13:09:04.541078$GAGSV,1,1,04,07,73,259,46,08,48,043,44,13,64,160,45,26,57,310,44*62
###2023-11-09 13:09:04.543655$GBGSV,2,1,06,11,23,180,41,14,65,008,45,24,20,132,42,26,23,081,41*67
###2023-11-09 13:09:04.545586$GBGSV,2,2,06,28,43,287,47,33,59,304,47,,,,,,,,*66
###2023-11-09 13:09:04.547024$GNVTG,82.75,T,,M,4.22,N,7.81,K,A*11
###2023-11-09 13:09:04.629393$GNGGA,130904.80,3611.0230492,N,07544.9718704,W,1,24,0.6,0.983,M,-39.962,M,0.0,*6C
###2023-11-09 13:09:04.632005$GPGSV,2,1,07,05,20,090,40,10,19,293,44,13,24,045,40,15,61,037,46*72
###2023-11-09 13:09:04.634273$GPGSV,2,2,07,18,78,277,47,23,50,316,45,24,50,135,46,,,,*4E
###2023-11-09 13:09:04.636873$GLGSV,2,1,05,70,50,017,35,71,48,290,48,80,18,090,41,85,57,203,48*63
###2023-11-09 13:09:04.638506$GLGSV,2,2,05,86,53,308,48,,,,,,,,,,,,*5F
###2023-11-09 13:09:04.641080$GAGSV,1,1,04,07,73,259,46,08,48,043,44,13,64,160,45,26,57,310,45*63
###2023-11-09 13:09:04.643663$GBGSV,2,1,06,11,23,180,41,14,65,008,44,24,20,132,42,26,23,081,41*66
###2023-11-09 13:09:04.645615$GBGSV,2,2,06,28,43,287,47,33,59,304,47,,,,,,,,*66
###2023-11-09 13:09:04.647059$GNVTG,84.80,T,,M,4.30,N,7.96,K,A*18
###2023-11-09 13:09:04.729501$GNGGA,130904.90,3611.0230547,N,07544.9717218,W,1,24,0.6,0.995,M,-39.962,M,0.0,*64
###2023-11-09 13:09:04.732103$GPGSV,2,1,07,05,20,090,40,10,19,293,44,13,24,045,40,15,61,037,46*72
###2023-11-09 13:09:04.734363$GPGSV,2,2,07,18,78,277,47,23,50,316,45,24,50,135,46,,,,*4E
###2023-11-09 13:09:04.736951$GLGSV,2,1,05,70,50,017,35,71,48,290,48,80,18,090,42,85,57,203,48*60
###2023-11-09 13:09:04.738564$GLGSV,2,2,05,86,53,308,48,,,,,,,,,,,,*5F
###2023-11-09 13:09:04.741137$GAGSV,1,1,04,07,73,259,46,08,48,043,44,13,64,160,45,26,57,310,45*63
###2023-11-09 13:09:04.743725$GBGSV,2,1,06,11,23,180,40,14,65,008,44,24,20,132,42,26,23,081,41*67
###2023-11-09 13:09:04.745667$GBGSV,2,2,06,28,43,287,47,33,59,304,47,,,,,,,,*66
###2023-11-09 13:09:04.747108$GNVTG,89.50,T,,M,4.37,N,8.10,K,A*1E
###2023-11-09 13:09:04.832469$GNGGA,130905.00,3611.0230520,N,07544.9715722,W,1,24,0.6,0.981,M,-39.962,M,0.0,*66
###2023-11-09 13:09:04.835039$GPGSV,2,1,07,05,20,090,40,10,19,293,44,13,24,045,40,15,61,037,46*72
###2023-11-09 13:09:04.837300$GPGSV,2,2,07,18,78,277,47,23,50,316,46,24,50,135,46,,,,*4D
###2023-11-09 13:09:04.839864$GLGSV,2,1,05,70,50,017,35,71,48,290,48,80,18,090,43,85,57,203,48*61
###2023-11-09 13:09:04.841462$GLGSV,2,2,05,86,53,308,48,,,,,,,,,,,,*5F
###2023-11-09 13:09:04.844023$GAGSV,1,1,04,07,73,259,46,08,48,043,44,13,64,160,44,26,57,310,45*62
###2023-11-09 13:09:04.846602$GBGSV,2,1,06,11,23,180,40,14,65,008,45,24,20,132,42,26,23,081,41*66
###2023-11-09 13:09:04.848534$GBGSV,2,2,06,28,43,287,47,33,59,304,47,,,,,,,,*66
###2023-11-09 13:09:04.850260$GNVTG,92.70,T,,M,4.35,N,8.06,K,A*13
###2023-11-09 13:09:04.930367$GNGGA,130905.10,3611.0230487,N,07544.9714242,W,1,24,0.6,0.958,M,-39.962,M,0.0,*6D
###2023-11-09 13:09:04.932973$GPGSV,2,1,07,05,20,090,40,10,19,293,45,13,24,045,40,15,61,037,46*73
###2023-11-09 13:09:04.935250$GPGSV,2,2,07,18,78,277,47,23,50,316,46,24,50,135,46,,,,*4D
###2023-11-09 13:09:04.937851$GLGSV,2,1,05,70,50,017,35,71,48,290,48,80,18,090,43,85,57,203,49*60
###2023-11-09 13:09:04.939463$GLGSV,2,2,05,86,53,308,48,,,,,,,,,,,,*5F
###2023-11-09 13:09:04.942040$GAGSV,1,1,04,07,73,259,46,08,48,043,44,13,64,160,44,26,57,310,45*62
###2023-11-09 13:09:04.944620$GBGSV,2,1,06,11,23,180,41,14,65,008,45,24,20,132,43,26,23,081,41*66
###2023-11-09 13:09:04.946563$GBGSV,2,2,06,28,43,287,47,33,59,304,47,,,,,,,,*66
