###2023-11-09 13:08:07.147337$GBGSV,2,2,06,28,43,287,46,33,59,304,46,,,,,,,,*66
###2023-11-09 13:08:07.148833$GNVTG,244.46,T,,M,5.00,N,9.25,K,A*28
###2023-11-09 13:08:07.238002$GNGGA,130807.40,3611.0436049,N,07544.9934937,W,1,24,0.6,1.188,M,-39.962,M,0.0,*6C
###2023-11-09 13:08:07.240594$GPGSV,2,1,07,05,21,090,45,10,18,292,41,13,24,045,40,15,62,037,46*70
###2023-11-09 13:08:07.242850$GPGSV,2,2,07,18,77,281,46,23,50,315,44,24,49,136,47,,,,*41
###2023-11-09 13:08:07.245420$GLGSV,2,1,05,70,50,017,36,71,48,290,48,80,18,090,46,85,58,203,48*68
###2023-11-09 13:08:07.247033$GLGSV,2,2,05,86,52,309,47,,,,,,,,,,,,*50
###2023-11-09 13:08:07.249605$GAGSV,1,1,04,07,72,258,44,08,49,042,45,13,64,160,45,26,56,310,44*60
###2023-11-09 13:08:07.252198$GBGSV,2,1,06,11,23,180,42,14,65,008,45,24,20,132,45,26,23,081,45*67
###2023-11-09 13:08:07.254155$GBGSV,2,2,06,28,43,287,46,33,59,304,46,,,,,,,,*66
###2023-11-09 13:08:07.255636$GNVTG,248.53,T,,M,5.03,N,9.32,K,A*25
###2023-11-09 13:08:07.329767$GNGGA,130807.50,3611.0435530,N,07544.9936525,W,1,24,0.6,1.197,M,-39.962,M,0.0,*66
###2023-11-09 13:08:07.332359$GPGSV,2,1,07,05,21,090,44,10,18,292,43,13,24,045,41,15,62,037,46*72
###2023-11-09 13:08:07.334619$GPGSV,2,2,07,18,77,281,46,23,50,315,45,24,49,136,47,,,,*40
###2023-11-09 13:08:07.337207$GLGSV,2,1,05,70,50,017,36,71,48,290,48,80,18,090,46,85,58,203,48*68
###2023-11-09 13:08:07.338821$GLGSV,2,2,05,86,52,309,47,,,,,,,,,,,,*50
###2023-11-09 13:08:07.341396$GAGSV,1,1,04,07,72,258,44,08,49,042,45,13,64,160,45,26,56,310,44*60
###2023-11-09 13:08:07.343984$GBGSV,2,1,06,11,23,180,42,14,65,008,45,24,20,132,44,26,23,081,45*66
###2023-11-09 13:08:07.345934$GBGSV,2,2,06,28,43,287,47,33,59,304,46,,,,,,,,*67
###2023-11-09 13:08:07.347429$GNVTG,247.80,T,,M,4.94,N,9.14,K,A*2F
###2023-11-09 13:08:07.430883$GNGGA,130807.60,3611.0434970,N,07544.9938080,W,1,24,0.6,1.204,M,-39.962,M,0.0,*61
###2023-11-09 13:08:07.433492$GPGSV,2,1,07,05,21,090,43,10,18,292,44,13,24,045,41,15,62,037,46*72
###2023-11-09 13:08:07.435762$GPGSV,2,2,07,18,77,281,46,23,50,315,45,24,49,136,46,,,,*41
###2023-11-09 13:08:07.438390$GLGSV,2,1,05,70,50,017,36,71,48,290,49,80,18,090,45,85,58,203,48*6A
###2023-11-09 13:08:07.440000$GLGSV,2,2,05,86,52,309,48,,,,,,,,,,,,*5F
###2023-11-09 13:08:07.442581$GAGSV,1,1,04,07,72,258,44,08,49,042,45,13,64,160,44,26,56,310,45*60
###2023-11-09 13:08:07.445169$GBGSV,2,1,06,11,23,180,41,14,65,008,45,24,20,132,43,26,23,081,44*63
###2023-11-09 13:08:07.447141$GBGSV,2,2,06,28,43,287,47,33,59,304,47,,,,,,,,*66
###2023-11-09 13:08:07.448615$GNVTG,244.47,T,,M,4.98,N,9.22,K,A*2E
###2023-11-09 13:08:07.530740$GNGGA,130807.70,3611.0434343,N,07544.9939606,W,1,24,0.6,1.207,M,-39.962,M,0.0,*60
###2023-11-09 13:08:07.533325$GPGSV,2,1,07,05,21,090,43,10,18,292,44,13,24,045,41,15,62,037,46*72
###2023-11-09 13:08:07.535564$GPGSV,2,2,07,18,77,281,46,23,50,315,45,24,49,136,46,,,,*41
###2023-11-09 13:08:07.538152$GLGSV,2,1,05,70,50,017,37,71,48,290,49,80,18,090,45,85,58,203,48*6B
###2023-11-09 13:08:07.539753$GLGSV,2,2,05,86,52,309,48,,,,,,,,,,,,*5F
###2023-11-09 13:08:07.542315$GAGSV,1,1,04,07,72,258,44,08,49,042,45,13,64,160,44,26,56,310,46*63
###2023-11-09 13:08:07.544871$GBGSV,2,1,06,11,23,180,39,14,65,008,45,24,20,132,42,26,23,081,44*6D
###2023-11-09 13:08:07.546787$GBGSV,2,2,06,28,43,287,47,33,59,304,47,,,,,,,,*66
###2023-11-09 13:08:07.548251$GNVTG,241.82,T,,M,4.98,N,9.22,K,A*22
###2023-11-09 13:08:07.628771$GNGGA,130807.80,3611.0433661,N,07544.9941085,W,1,24,0.6,1.217,M,-39.962,M,0.0,*6E
###2023-11-09 13:08:07.631373$GPGSV,2,1,07,05,21,090,43,10,18,292,44,13,24,045,41,15,62,037,46*72
###2023-11-09 13:08:07.633626$GPGSV,2,2,07,18,77,281,46,23,50,315,45,24,49,136,45,,,,*42
###2023-11-09 13:08:07.636204$GLGSV,2,1,05,70,50,017,37,71,48,290,49,80,18,090,44,85,58,203,47*65
###2023-11-09 13:08:07.637819$GLGSV,2,2,05,86,52,309,48,,,,,,,,,,,,*5F
###2023-11-09 13:08:07.640385$GAGSV,1,1,04,07,72,258,44,08,49,042,45,13,64,160,44,26,56,310,45*60
###2023-11-09 13:08:07.642948$GBGSV,2,1,06,11,23,180,39,14,65,008,45,24,20,132,42,26,23,081,44*6D
###2023-11-09 13:08:07.644878$GBGSV,2,2,06,28,43,287,47,33,59,304,47,,,,,,,,*66
###2023-11-09 13:08:07.646347$GNVTG,239.10,T,,M,4.96,N,9.18,K,A*21
###2023-11-09 13:08:07.729873$GNGGA,130807.90,3611.0432941,N,07544.9942545,W,1,24,0.6,1.209,M,-39.962,M,0.0,*66
###2023-11-09 13:08:07.732450$GPGSV,2,1,07,05,21,090,43,10,18,292,44,13,24,045,41,15,62,037,46*72
###2023-11-09 13:08:07.734695$GPGSV,2,2,07,18,77,281,46,23,50,315,45,24,49,136,46,,,,*41
###2023-11-09 13:08:07.737275$GLGSV,2,1,05,70,50,017,37,71,48,290,49,80,18,090,45,85,58,203,48*6B
###2023-11-09 13:08:07.738880$GLGSV,2,2,05,86,52,309,48,,,,,,,,,,,,*5F
###2023-11-09 13:08:07.741432$GAGSV,1,1,04,07,72,258,44,08,49,042,45,13,64,160,44,26,56,310,45*60
###2023-11-09 13:08:07.743996$GBGSV,2,1,06,11,23,180,41,14,65,008,45,24,20,132,43,26,23,081,44*63
###2023-11-09 13:08:07.745920$GBGSV,2,2,06,28,43,287,47,33,59,304,47,,,,,,,,*66
###2023-11-09 13:08:07.747403$GNVTG,238.40,T,,M,5.00,N,9.25,K,A*25
###2023-11-09 13:08:07.831708$GNGGA,130808.00,3611.0432224,N,07544.9944015,W,1,24,0.6,1.191,M,-39.962,M,0.0,*6C
###2023-11-09 13:08:07.834285$GPGSV,2,1,07,05,21,090,43,10,18,292,44,13,24,045,41,15,62,037,46*72
###2023-11-09 13:08:07.836525$GPGSV,2,2,07,18,77,281,46,23,50,315,45,24,49,136,46,,,,*41
###2023-11-09 13:08:07.839108$GLGSV,2,1,05,70,50,017,36,71,48,290,49,80,18,090,45,85,58,203,48*6A
###2023-11-09 13:08:07.840706$GLGSV,2,2,05,86,52,309,48,,,,,,,,,,,,*5F
###2023-11-09 13:08:07.843261$GAGSV,1,1,04,07,72,258,44,08,49,042,45,13,64,160,45,26,56,310,45*61
###2023-11-09 13:08:07.845823$GBGSV,2,1,06,11,23,180,41,14,65,008,45,24,20,132,44,26,23,081,44*64
###2023-11-09 13:08:07.847769$GBGSV,2,2,06,28,43,287,47,33,59,304,47,,,,,,,,*66
###2023-11-09 13:08:07.849242$GNVTG,239.64,T,,M,5.00,N,9.25,K,A*22
###2023-11-09 13:08:07.937869$GNGGA,130808.10,3611.0431557,N,07544.9945507,W,1,24,0.6,1.177,M,-39.962,M,0.0,*62
###2023-11-09 13:08:07.940463$GPGSV,2,1,07,05,21,090,43,10,18,292,44,13,24,045,41,15,62,037,46*72
###2023-11-09 13:08:07.942706$GPGSV,2,2,07,18,77,281,46,23,50,315,45,24,49,136,47,,,,*40
###2023-11-09 13:08:07.945263$GLGSV,2,1,05,70,50,017,36,71,48,290,48,80,18,090,46,85,58,203,48*68
###2023-11-09 13:08:07.946864$GLGSV,2,2,05,86,52,309,47,,,,,,,,,,,,*50
###2023-11-09 13:08:07.949440$GAGSV,1,1,04,07,72,258,44,08,49,042,45,13,64,160,45,26,56,310,45*61
###2023-11-09 13:08:07.952011$GBGSV,2,1,06,11,23,180,41,14,65,008,45,24,20,132,44,26,23,081,44*64
###2023-11-09 13:08:07.953940$GBGSV,2,2,06,28,43,287,46,33,59,304,47,,,,,,,,*67
###2023-11-09 13:08:07.955401$GNVTG,242.67,T,,M,4.94,N,9.14,K,A*23
###2023-11-09 13:08:08.033967$GNGGA,130808.20,3611.0430930,N,07544.9947034,W,1,24,0.6,1.172,M,-39.962,M,0.0,*6F
###2023-11-09 13:08:08.036548$GPGSV,2,1,07,05,21,090,44,10,18,292,43,13,24,045,41,15,62,037,46*72
###2023-11-09 13:08:08.038820$GPGSV,2,2,07,18,77,281,46,23,50,315,45,24,49,136,47,,,,*40
###2023-11-09 13:08:08.041391$GLGSV,2,1,05,70,50,017,36,71,48,290,48,80,18,090,46,85,58,203,48*68
###2023-11-09 13:08:08.042990$GLGSV,2,2,05,86,52,309,47,,,,,,,,,,,,*50
###2023-11-09 13:08:08.045543$GAGSV,1,1,04,07,72,258,44,08,49,042,45,13,64,160,45,26,56,310,44*60
###2023-11-09 13:08:08.048122$GBGSV,2,1,06,11,23,180,42,14,65,008,45,24,20,132,45,26,23,081,44*66
###2023-11-09 13:08:08.050053$GBGSV,2,2,06,28,43,287,46,33,59,304,47,,,,,,,,*67
###2023-11-09 13:08:08.051518$GNVTG,243.58,T,,M,5.03,N,9.32,K,A*25
###2023-11-09 13:08:08.134485$GNGGA,130808.30,3611.0430317,N,07544.9948577,W,1,24,0.6,1.170,M,-39.962,M,0.0,*6E
###2023-11-09 13:08:08.137083$GPGSV,2,1,07,05,21,090,44,10,18,292,43,13,24,045,41,15,62,037,46*72
###2023-11-09 13:08:08.139353$GPGSV,2,2,07,18,77,281,46,23,50,315,45,24,49,136,47,,,,*40
###2023-11-09 13:08:08.141947$GLGSV,2,1,05,70,50,017,36,71,48,290,48,80,18,090,46,85,58,203,48*68
###2023-11-09 13:08:08.143556$GLGSV,2,2,05,86,52,309,47,,,,,,,,,,,,*50
###2023-11-09 13:08:08.146104$GAGSV,1,1,04,07,72,258,44,08,49,042,45,13,64,160,45,26,56,310,44*60
###2023-11-09 13:08:08.148685$GBGSV,2,1,06,11,23,180,41,14,65,008,45,24,20,132,45,26,23,081,44*65
###2023-11-09 13:08:08.150914$GBGSV,2,2,06,28,43,287,46,33,59,304,47,,,,,,,,*67
###2023-11-09 13:08:08.152406$GNVTG,244.18,T,,M,4.98,N,9.22,K,A*24
###2023-11-09 13:08:08.229883$GNGGA,130808.40,3611.0429685,N,07544.9950102,W,1,24,0.6,1.169,M,-39.962,M,0.0,*68
###2023-11-09 13:08:08.232485$GPGSV,2,1,07,05,21,090,44,10,18,292,44,13,24,045,41,15,62,037,46*75
###2023-11-09 13:08:08.234735$GPGSV,2,2,07,18,77,281,46,23,50,315,45,24,49,136,47,,,,*40
###2023-11-09 13:08:08.237314$GLGSV,2,1,05,70,50,017,36,71,48,290,48,80,18,090,46,85,58,203,48*68
###2023-11-09 13:08:08.238922$GLGSV,2,2,05,86,52,309,47,,,,,,,,,,,,*50
###2023-11-09 13:08:08.241489$GAGSV,1,1,04,07,72,258,44,08,49,042,45,13,64,160,45,26,56,310,44*60
###2023-11-09 13:08:08.244067$GBGSV,2,1,06,11,23,180,41,14,65,008,45,24,20,132,44,26,23,081,44*64
###2023-11-09 13:08:08.245998$GBGSV,2,2,06,28,43,287,46,33,59,304,47,,,,,,,,*67
