###2023-11-09 13:06:21.334755$GPGSV,2,2,07,18,77,282,47,23,49,314,46,24,49,137,45,,,,*4B
###2023-11-09 13:06:21.337369$GLGSV,2,1,05,70,50,016,36,71,48,288,49,80,17,091,42,85,58,203,49*6A
###2023-11-09 13:06:21.338979$GLGSV,2,2,05,86,52,309,48,,,,,,,,,,,,*5F
###2023-11-09 13:06:21.341542$GAGSV,1,1,04,07,72,255,45,08,49,042,43,13,64,160,45,26,56,311,45*6A
###2023-11-09 13:06:21.344112$GBGSV,2,1,06,11,24,180,40,14,65,006,45,24,19,133,42,26,23,082,42*64
###2023-11-09 13:06:21.346030$GBGSV,2,2,06,28,43,289,47,33,58,302,47,,,,,,,,*6F
###2023-11-09 13:06:21.347505$GNVTG,328.36,T,,M,1.13,N,2.09,K,A*27
###2023-11-09 13:06:21.430496$GNGGA,130621.60,3611.0407025,N,07544.9807049,W,1,24,0.6,1.358,M,-39.961,M,0.0,*61
###2023-11-09 13:06:21.433099$GPGSV,2,1,07,05,21,090,40,10,17,292,41,13,25,045,42,15,62,036,46*78
###2023-11-09 13:06:21.435355$GPGSV,2,2,07,18,77,282,47,23,49,314,46,24,49,137,45,,,,*4B
###2023-11-09 13:06:21.437949$GLGSV,2,1,05,70,50,016,36,71,48,288,49,80,17,091,43,85,58,203,48*6A
###2023-11-09 13:06:21.439571$GLGSV,2,2,05,86,52,309,48,,,,,,,,,,,,*5F
###2023-11-09 13:06:21.442132$GAGSV,1,1,04,07,72,255,45,08,49,042,43,13,64,160,45,26,56,311,45*6A
###2023-11-09 13:06:21.444700$GBGSV,2,1,06,11,24,180,40,14,65,006,45,24,19,133,42,26,23,082,42*64
###2023-11-09 13:06:21.446638$GBGSV,2,2,06,28,43,289,46,33,58,302,47,,,,,,,,*6E
###2023-11-09 13:06:21.448111$GNVTG,331.65,T,,M,1.03,N,1.91,K,A*2A
###2023-11-09 13:06:21.531599$GNGGA,130621.70,3611.0407273,N,07544.9807232,W,1,24,0.6,1.359,M,-39.961,M,0.0,*6E
###2023-11-09 13:06:21.534171$GPGSV,2,1,07,05,21,090,41,10,17,292,41,13,25,045,42,15,62,036,46*79
###2023-11-09 13:06:21.536428$GPGSV,2,2,07,18,77,282,47,23,49,314,46,24,49,137,45,,,,*4B
###2023-11-09 13:06:21.539025$GLGSV,2,1,05,70,50,016,36,71,48,288,49,80,17,091,43,85,58,203,48*6A
###2023-11-09 13:06:21.540636$GLGSV,2,2,05,86,52,309,48,,,,,,,,,,,,*5F
###2023-11-09 13:06:21.543213$GAGSV,1,1,04,07,72,255,45,08,49,042,44,13,64,160,45,26,56,311,45*6D
###2023-11-09 13:06:21.545790$GBGSV,2,1,06,11,24,180,40,14,65,006,45,24,19,133,42,26,23,082,43*65
###2023-11-09 13:06:21.547744$GBGSV,2,2,06,28,43,289,46,33,58,302,47,,,,,,,,*6E
###2023-11-09 13:06:21.549210$GNVTG,327.65,T,,M,0.99,N,1.84,K,A*2B
###2023-11-09 13:06:21.630635$GNGGA,130621.80,3611.0407485,N,07544.9807437,W,1,24,0.6,1.355,M,-39.961,M,0.0,*61
###2023-11-09 13:06:21.633243$GPGSV,2,1,07,05,21,090,42,10,17,292,42,13,25,045,42,15,62,036,46*79
###2023-11-09 13:06:21.635489$GPGSV,2,2,07,18,77,282,47,23,49,314,45,24,49,137,46,,,,*4B
###2023-11-09 13:06:21.638077$GLGSV,2,1,05,70,50,016,35,71,48,288,48,80,17,091,44,85,58,203,48*6F
###2023-11-09 13:06:21.639692$GLGSV,2,2,05,86,52,309,47,,,,,,,,,,,,*50
###2023-11-09 13:06:21.642251$GAGSV,1,1,04,07,72,255,45,08,49,042,45,13,64,160,45,26,56,311,45*6C
###2023-11-09 13:06:21.644823$GBGSV,2,1,06,11,24,180,40,14,65,006,45,24,19,133,42,26,23,082,43*65
###2023-11-09 13:06:21.646765$GBGSV,2,2,06,28,43,289,46,33,58,302,47,,,,,,,,*6E
###2023-11-09 13:06:21.648232$GNVTG,327.65,T,,M,0.91,N,1.69,K,A*20
###2023-11-09 13:06:21.729523$GNGGA,130621.90,3611.0407617,N,07544.9807683,W,1,24,0.6,1.338,M,-39.961,M,0.0,*6F
###2023-11-09 13:06:21.732138$GPGSV,2,1,07,05,21,090,42,10,17,292,42,13,25,045,42,15,62,036,46*79
###2023-11-09 13:06:21.734385$GPGSV,2,2,07,18,77,282,47,23,49,314,45,24,49,137,46,,,,*4B
###2023-11-09 13:06:21.736994$GLGSV,2,1,05,70,50,016,35,71,48,288,48,80,17,091,44,85,58,203,48*6F
###2023-11-09 13:06:21.738612$GLGSV,2,2,05,86,52,309,46,,,,,,,,,,,,*51
###2023-11-09 13:06:21.741183$GAGSV,1,1,04,07,72,255,45,08,49,042,45,13,64,160,45,26,56,311,45*6C
###2023-11-09 13:06:21.743766$GBGSV,2,1,06,11,24,180,40,14,65,006,45,24,19,133,42,26,23,082,43*65
###2023-11-09 13:06:21.745708$GBGSV,2,2,06,28,43,289,46,33,58,302,47,,,,,,,,*6E
###2023-11-09 13:06:21.747187$GNVTG,327.65,T,,M,0.82,N,1.51,K,A*29
###2023-11-09 13:06:21.832495$GNGGA,130622.00,3611.0407670,N,07544.9807967,W,1,24,0.6,1.309,M,-39.961,M,0.0,*63
###2023-11-09 13:06:21.835088$GPGSV,2,1,07,05,21,090,42,10,17,292,43,13,25,045,42,15,62,036,46*78
###2023-11-09 13:06:21.837366$GPGSV,2,2,07,18,77,282,47,23,49,314,45,24,49,137,46,,,,*4B
###2023-11-09 13:06:21.839947$GLGSV,2,1,05,70,50,016,35,71,48,288,48,80,17,091,44,85,58,203,48*6F
###2023-11-09 13:06:21.841558$GLGSV,2,2,05,86,52,309,46,,,,,,,,,,,,*51
###2023-11-09 13:06:21.844136$GAGSV,1,1,04,07,72,255,45,08,49,042,45,13,64,160,45,26,56,311,45*6C
###2023-11-09 13:06:21.846726$GBGSV,2,1,06,11,24,180,40,14,65,006,45,24,19,133,42,26,23,082,43*65
###2023-11-09 13:06:21.848677$GBGSV,2,2,06,28,43,289,46,33,58,302,47,,,,,,,,*6E
###2023-11-09 13:06:21.850150$GNVTG,327.65,T,,M,0.84,N,1.55,K,A*2B
###2023-11-09 13:06:21.936478$GNGGA,130622.10,3611.0407693,N,07544.9808246,W,1,24,0.6,1.277,M,-39.961,M,0.0,*60
###2023-11-09 13:06:21.939063$GPGSV,2,1,07,05,21,090,41,10,17,292,44,13,25,045,42,15,62,036,46*7C
###2023-11-09 13:06:21.941303$GPGSV,2,2,07,18,77,282,47,23,49,314,45,24,49,137,46,,,,*4B
###2023-11-09 13:06:21.943856$GLGSV,2,1,05,70,50,016,35,71,48,288,48,80,17,091,44,85,58,203,48*6F
###2023-11-09 13:06:21.945451$GLGSV,2,2,05,86,52,309,47,,,,,,,,,,,,*50
###2023-11-09 13:06:21.948015$GAGSV,1,1,04,07,72,255,45,08,49,042,45,13,64,160,45,26,56,311,45*6C
###2023-11-09 13:06:21.950591$GBGSV,2,1,06,11,24,180,41,14,65,006,45,24,19,133,41,26,23,082,42*66
###2023-11-09 13:06:21.952555$GBGSV,2,2,06,28,43,289,47,33,58,302,47,,,,,,,,*6F
###2023-11-09 13:06:21.954032$GNVTG,327.65,T,,M,0.74,N,1.37,K,A*20
###2023-11-09 13:06:22.034230$GNGGA,130622.20,3611.0407726,N,07544.9808461,W,1,24,0.6,1.251,M,-39.961,M,0.0,*6B
###2023-11-09 13:06:22.036819$GPGSV,2,1,07,05,21,090,40,10,17,292,44,13,25,045,42,15,62,036,46*7D
###2023-11-09 13:06:22.039084$GPGSV,2,2,07,18,77,282,47,23,49,314,46,24,49,137,46,,,,*48
###2023-11-09 13:06:22.041669$GLGSV,2,1,05,70,50,016,35,71,48,288,48,80,17,091,43,85,58,203,48*68
###2023-11-09 13:06:22.043284$GLGSV,2,2,05,86,52,309,47,,,,,,,,,,,,*50
###2023-11-09 13:06:22.045867$GAGSV,1,1,04,07,72,255,45,08,49,042,44,13,64,160,45,26,56,311,45*6D
###2023-11-09 13:06:22.048462$GBGSV,2,1,06,11,24,180,41,14,65,006,45,24,19,133,41,26,23,082,41*65
###2023-11-09 13:06:22.050395$GBGSV,2,2,06,28,43,289,47,33,58,302,47,,,,,,,,*6F
###2023-11-09 13:06:22.051864$GNVTG,327.65,T,,M,0.51,N,0.94,K,A*2F
###2023-11-09 13:06:22.133507$GNGGA,130622.30,3611.0407789,N,07544.9808580,W,1,23,0.6,1.234,M,-39.961,M,0.0,*65
###2023-11-09 13:06:22.136099$GPGSV,2,1,07,05,21,090,40,10,17,292,44,13,25,045,42,15,62,036,46*7D
###2023-11-09 13:06:22.138376$GPGSV,2,2,07,18,77,282,47,23,49,314,46,24,49,137,46,,,,*48
###2023-11-09 13:06:22.140949$GLGSV,1,1,04,71,48,288,48,80,17,091,43,85,58,203,49,86,52,309,47*68
###2023-11-09 13:06:22.143522$GAGSV,1,1,04,07,72,255,45,08,49,042,44,13,64,160,44,26,56,311,45*6C
###2023-11-09 13:06:22.146096$GBGSV,2,1,06,11,24,180,41,14,65,006,45,24,19,133,41,26,23,082,41*65
###2023-11-09 13:06:22.148047$GBGSV,2,2,06,28,43,289,47,33,58,302,47,,,,,,,,*6F
###2023-11-09 13:06:22.149517$GNVTG,327.65,T,,M,0.37,N,0.68,K,A*2C
###2023-11-09 13:06:22.231234$GNGGA,130622.40,3611.0407881,N,07544.9808639,W,1,24,0.6,1.213,M,-39.961,M,0.0,*66
###2023-11-09 13:06:22.233839$GPGSV,2,1,07,05,21,090,40,10,17,292,44,13,25,045,42,15,62,036,46*7D
###2023-11-09 13:06:22.236095$GPGSV,2,2,07,18,77,282,47,23,49,314,46,24,49,137,45,,,,*4B
###2023-11-09 13:06:22.238683$GLGSV,2,1,05,70,50,016,35,71,48,288,48,80,17,091,43,85,58,203,48*68
###2023-11-09 13:06:22.240286$GLGSV,2,2,05,86,52,309,47,,,,,,,,,,,,*50
###2023-11-09 13:06:22.242842$GAGSV,1,1,04,07,72,255,45,08,49,042,44,13,64,160,44,26,56,311,45*6C
###2023-11-09 13:06:22.245419$GBGSV,2,1,06,11,24,180,41,14,65,006,45,24,19,133,41,26,23,082,41*65
###2023-11-09 13:06:22.247358$GBGSV,2,2,06,28,43,289,47,33,58,302,47,,,,,,,,*6F
###2023-11-09 13:06:22.248821$GNVTG,327.65,T,,M,0.41,N,0.76,K,A*22
###2023-11-09 13:06:22.331744$GNGGA,130622.50,3611.0407967,N,07544.9808692,W,1,24,0.6,1.187,M,-39.961,M,0.0,*61
###2023-11-09 13:06:22.334339$GPGSV,2,1,07,05,21,090,40,10,17,292,44,13,25,045,42,15,62,036,46*7D
###2023-11-09 13:06:22.336600$GPGSV,2,2,07,18,77,282,47,23,49,314,46,24,49,137,45,,,,*4B
###2023-11-09 13:06:22.339513$GLGSV,2,1,05,70,50,016,35,71,48,288,48,80,17,091,43,85,58,203,48*68
###2023-11-09 13:06:22.341143$GLGSV,2,2,05,86,52,309,47,,,,,,,,,,,,*50
###2023-11-09 13:06:22.343707$GAGSV,1,1,04,07,72,255,45,08,49,042,44,13,64,160,44,26,56,311,45*6C
###2023-11-09 13:06:22.346276$GBGSV,2,1,06,11,24,180,41,14,65,006,45,24,19,133,41,26,23,082,43*67
###2023-11-09 13:06:22.348218$GBGSV,2,2,06,28,43,289,47,33,58,302,47,,,,,,,,*6F
###2023-11-09 13:06:22.349687$GNVTG,327.65,T,,M,0.31,N,0.58,K,A*29
###2023-11-09 13:06:22.432718$GNGGA,130622.60,3611.0407990,N,07544.9808765,W,1,24,0.6,1.159,M,-39.961,M,0.0,*60
###2023-11-09 13:06:22.435317$GPGSV,2,1,07,05,21,090,40,10,17,292,44,13,25,045,42,15,62,036,46*7D
###2023-11-09 13:06:22.437588$GPGSV,2,2,07,18,77,282,47,23,49,314,46,24,49,137,45,,,,*4B
###2023-11-09 13:06:22.440160$GLGSV,2,1,05,70,50,016,35,71,48,288,48,80,17,091,43,85,58,203,48*68
