###2023-11-09 13:09:41.850265$GNVTG,83.23,T,,M,6.12,N,11.34,K,A*2B
###2023-11-09 13:09:41.933166$GNGGA,130942.10,3611.0340147,N,07544.9244111,W,1,24,0.6,0.451,M,-39.961,M,0.0,*63
###2023-11-09 13:09:41.935775$GPGSV,2,1,07,05,20,090,41,10,19,293,44,13,24,045,41,15,61,037,45*71
###2023-11-09 13:09:41.938067$GPGSV,2,2,07,18,78,277,46,23,50,316,45,24,50,134,45,,,,*4D
###2023-11-09 13:09:41.940654$GLGSV,2,1,05,70,50,017,35,71,48,290,49,80,18,090,44,85,57,203,49*66
###2023-11-09 13:09:41.942274$GLGSV,2,2,05,86,53,308,48,,,,,,,,,,,,*5F
###2023-11-09 13:09:41.944851$GAGSV,1,1,04,07,73,259,45,08,48,043,44,13,63,161,45,26,57,310,45*66
###2023-11-09 13:09:41.947464$GBGSV,2,1,06,11,22,180,42,14,65,009,45,24,21,132,43,26,23,080,41*65
###2023-11-09 13:09:41.949427$GBGSV,2,2,06,28,43,287,47,33,59,304,47,,,,,,,,*66
###2023-11-09 13:09:41.950914$GNVTG,80.68,T,,M,6.08,N,11.27,K,A*2E
###2023-11-09 13:09:42.031006$GNGGA,130942.20,3611.0340451,N,07544.9242041,W,1,24,0.6,0.468,M,-39.961,M,0.0,*6A
###2023-11-09 13:09:42.033606$GPGSV,2,1,07,05,20,090,41,10,19,293,44,13,24,045,41,15,61,037,45*71
###2023-11-09 13:09:42.035854$GPGSV,2,2,07,18,78,277,46,23,50,316,45,24,50,134,45,,,,*4D
###2023-11-09 13:09:42.038464$GLGSV,2,1,05,70,50,017,36,71,48,290,49,80,18,090,44,85,57,203,49*65
###2023-11-09 13:09:42.040071$GLGSV,2,2,05,86,53,308,49,,,,,,,,,,,,*5E
###2023-11-09 13:09:42.042625$GAGSV,1,1,04,07,73,259,45,08,48,043,44,13,63,161,45,26,57,310,45*66
###2023-11-09 13:09:42.045193$GBGSV,2,1,06,11,22,180,42,14,65,009,45,24,21,132,43,26,23,080,41*65
###2023-11-09 13:09:42.047134$GBGSV,2,2,06,28,43,287,47,33,59,304,47,,,,,,,,*66
###2023-11-09 13:09:42.048592$GNVTG,78.61,T,,M,6.18,N,11.45,K,A*25
###2023-11-09 13:09:42.129990$GNGGA,130942.30,3611.0340790,N,07544.9239960,W,1,24,0.6,0.476,M,-39.961,M,0.0,*6C
###2023-11-09 13:09:42.132588$GPGSV,2,1,07,05,20,090,41,10,19,293,44,13,24,045,41,15,61,037,45*71
###2023-11-09 13:09:42.134847$GPGSV,2,2,07,18,78,277,46,23,50,316,45,24,50,134,45,,,,*4D
###2023-11-09 13:09:42.137559$GLGSV,2,1,05,70,50,017,36,71,48,290,49,80,18,090,44,85,57,203,49*65
###2023-11-09 13:09:42.139178$GLGSV,2,2,05,86,53,308,49,,,,,,,,,,,,*5E
###2023-11-09 13:09:42.141736$GAGSV,1,1,04,07,73,259,45,08,48,043,44,13,63,161,45,26,57,310,45*66
###2023-11-09 13:09:42.144307$GBGSV,2,1,06,11,22,180,42,14,65,009,45,24,21,132,43,26,23,080,41*65
###2023-11-09 13:09:42.146236$GBGSV,2,2,06,28,43,287,47,33,59,304,47,,,,,,,,*66
###2023-11-09 13:09:42.147717$GNVTG,78.67,T,,M,6.20,N,11.48,K,A*25
###2023-11-09 13:09:42.228135$GNGGA,130942.40,3611.0341126,N,07544.9237872,W,1,24,0.6,0.468,M,-39.961,M,0.0,*62
###2023-11-09 13:09:42.230741$GPGSV,2,1,07,05,20,090,41,10,19,293,44,13,24,045,41,15,61,037,45*71
###2023-11-09 13:09:42.233001$GPGSV,2,2,07,18,78,277,46,23,50,316,45,24,50,134,46,,,,*4E
###2023-11-09 13:09:42.235582$GLGSV,2,1,05,70,50,017,36,71,48,290,49,80,18,090,44,85,57,203,49*65
###2023-11-09 13:09:42.237204$GLGSV,2,2,05,86,53,308,49,,,,,,,,,,,,*5E
###2023-11-09 13:09:42.239770$GAGSV,1,1,04,07,73,259,45,08,48,043,44,13,63,161,45,26,57,310,45*66
###2023-11-09 13:09:42.242340$GBGSV,2,1,06,11,22,180,41,14,65,009,45,24,21,132,43,26,23,080,42*65
###2023-11-09 13:09:42.244279$GBGSV,2,2,06,28,43,287,47,33,59,304,47,,,,,,,,*66
###2023-11-09 13:09:42.245742$GNVTG,79.06,T,,M,6.22,N,11.52,K,A*2A
###2023-11-09 13:09:42.328233$GNGGA,130942.50,3611.0341448,N,07544.9235804,W,1,24,0.6,0.454,M,-39.961,M,0.0,*62
###2023-11-09 13:09:42.330812$GPGSV,2,1,07,05,20,090,41,10,19,293,44,13,24,045,41,15,61,037,45*71
###2023-11-09 13:09:42.333055$GPGSV,2,2,07,18,78,277,46,23,50,316,45,24,50,134,46,,,,*4E
###2023-11-09 13:09:42.335621$GLGSV,2,1,05,70,50,017,36,71,48,290,49,80,18,090,44,85,57,203,49*65
###2023-11-09 13:09:42.337235$GLGSV,2,2,05,86,53,308,48,,,,,,,,,,,,*5F
###2023-11-09 13:09:42.339791$GAGSV,1,1,04,07,73,259,45,08,48,043,44,13,63,161,45,26,57,310,45*66
###2023-11-09 13:09:42.342350$GBGSV,2,1,06,11,22,180,41,14,65,009,45,24,21,132,43,26,23,080,42*65
###2023-11-09 13:09:42.344272$GBGSV,2,2,06,28,43,287,47,33,59,304,47,,,,,,,,*66
###2023-11-09 13:09:42.345728$GNVTG,79.26,T,,M,6.08,N,11.27,K,A*22
###2023-11-09 13:09:42.426754$GNGGA,130942.60,3611.0341767,N,07544.9233750,W,1,24,0.6,0.446,M,-39.961,M,0.0,*64
###2023-11-09 13:09:42.429395$GPGSV,2,1,07,05,20,090,41,10,19,293,44,13,24,045,41,15,61,037,45*71
###2023-11-09 13:09:42.431651$GPGSV,2,2,07,18,78,277,46,23,50,316,45,24,50,134,46,,,,*4E
###2023-11-09 13:09:42.434215$GLGSV,2,1,05,70,50,017,36,71,48,290,49,80,18,090,44,85,57,203,49*65
###2023-11-09 13:09:42.435816$GLGSV,2,2,05,86,53,308,49,,,,,,,,,,,,*5E
###2023-11-09 13:09:42.438390$GAGSV,1,1,04,07,73,259,45,08,48,043,44,13,63,161,45,26,57,310,45*66
###2023-11-09 13:09:42.440971$GBGSV,2,1,06,11,22,180,41,14,65,009,44,24,21,132,43,26,23,080,41*67
###2023-11-09 13:09:42.442905$GBGSV,2,2,06,28,43,287,45,33,59,304,47,,,,,,,,*64
###2023-11-09 13:09:42.444370$GNVTG,79.16,T,,M,6.14,N,11.38,K,A*22
###2023-11-09 13:09:42.528171$GNGGA,130942.70,3611.0342088,N,07544.9231691,W,1,24,0.6,0.450,M,-39.961,M,0.0,*69
###2023-11-09 13:09:42.530771$GPGSV,2,1,07,05,20,090,41,10,19,293,44,13,24,045,41,15,61,037,45*71
###2023-11-09 13:09:42.533028$GPGSV,2,2,07,18,78,277,46,23,50,316,45,24,50,134,46,,,,*4E
###2023-11-09 13:09:42.535610$GLGSV,2,1,05,70,50,017,36,71,48,290,49,80,18,090,44,85,57,203,49*65
###2023-11-09 13:09:42.537237$GLGSV,2,2,05,86,53,308,49,,,,,,,,,,,,*5E
###2023-11-09 13:09:42.539812$GAGSV,1,1,04,07,73,259,45,08,48,043,44,13,63,161,45,26,57,310,45*66
###2023-11-09 13:09:42.542387$GBGSV,2,1,06,11,22,180,41,14,65,009,44,24,21,132,43,26,23,080,41*67
###2023-11-09 13:09:42.544324$GBGSV,2,2,06,28,43,287,46,33,59,304,46,,,,,,,,*66
###2023-11-09 13:09:42.545789$GNVTG,79.11,T,,M,6.10,N,11.30,K,A*29
###2023-11-09 13:09:42.628111$GNGGA,130942.80,3611.0342427,N,07544.9229649,W,1,24,0.6,0.464,M,-39.961,M,0.0,*6C
###2023-11-09 13:09:42.630689$GPGSV,2,1,07,05,20,090,41,10,19,293,44,13,24,045,39,15,61,037,45*7E
###2023-11-09 13:09:42.632926$GPGSV,2,2,07,18,78,277,46,23,50,316,45,24,50,134,46,,,,*4E
###2023-11-09 13:09:42.635482$GLGSV,2,1,05,70,50,017,36,71,48,290,49,80,18,090,44,85,57,203,49*65
###2023-11-09 13:09:42.637085$GLGSV,2,2,05,86,53,308,49,,,,,,,,,,,,*5E
###2023-11-09 13:09:42.639643$GAGSV,1,1,04,07,73,259,45,08,48,043,44,13,63,161,45,26,57,310,45*66
###2023-11-09 13:09:42.642211$GBGSV,2,1,06,11,22,180,41,14,65,009,44,24,21,132,43,26,23,080,41*67
###2023-11-09 13:09:42.644135$GBGSV,2,2,06,28,43,287,46,33,59,304,46,,,,,,,,*66
###2023-11-09 13:09:42.645590$GNVTG,78.00,T,,M,6.05,N,11.20,K,A*2D
###2023-11-09 13:09:42.728139$GNGGA,130942.90,3611.0342786,N,07544.9227651,W,1,24,0.6,0.492,M,-39.961,M,0.0,*6B
###2023-11-09 13:09:42.730738$GPGSV,2,1,07,05,20,090,41,10,19,293,44,13,24,045,39,15,61,037,45*7E
###2023-11-09 13:09:42.732987$GPGSV,2,2,07,18,78,277,46,23,50,316,45,24,50,134,46,,,,*4E
###2023-11-09 13:09:42.735567$GLGSV,2,1,05,70,50,017,36,71,48,290,49,80,18,090,44,85,57,203,50*6D
###2023-11-09 13:09:42.737187$GLGSV,2,2,05,86,53,308,49,,,,,,,,,,,,*5E
###2023-11-09 13:09:42.739754$GAGSV,1,1,04,07,73,259,45,08,48,043,44,13,63,161,45,26,57,310,45*66
###2023-11-09 13:09:42.742339$GBGSV,2,1,06,11,22,180,41,14,65,009,44,24,21,132,43,26,23,080,41*67
###2023-11-09 13:09:42.744278$GBGSV,2,2,06,28,43,287,46,33,59,304,46,,,,,,,,*66
###2023-11-09 13:09:42.745749$GNVTG,77.24,T,,M,5.89,N,10.91,K,A*28
###2023-11-09 13:09:42.833386$GNGGA,130943.00,3611.0343196,N,07544.9225713,W,1,24,0.6,0.534,M,-39.961,M,0.0,*6D
###2023-11-09 13:09:42.835977$GPGSV,2,1,07,05,20,090,41,10,19,293,44,13,24,045,39,15,61,037,46*7D
###2023-11-09 13:09:42.838247$GPGSV,2,2,07,18,78,277,46,23,50,316,45,24,50,134,46,,,,*4E
###2023-11-09 13:09:42.840829$GLGSV,2,1,05,70,50,017,36,71,48,290,49,80,18,090,44,85,57,203,50*6D
###2023-11-09 13:09:42.842440$GLGSV,2,2,05,86,53,308,49,,,,,,,,,,,,*5E
###2023-11-09 13:09:42.845007$GAGSV,1,1,04,07,73,259,45,08,48,043,44,13,63,161,45,26,57,310,45*66
###2023-11-09 13:09:42.847610$GBGSV,2,1,06,11,22,180,41,14,65,009,44,24,21,132,42,26,23,080,41*66
###2023-11-09 13:09:42.849542$GBGSV,2,2,06,28,43,287,46,33,59,304,46,,,,,,,,*66
###2023-11-09 13:09:42.851326$GNVTG,73.80,T,,M,5.79,N,10.73,K,A*21
###2023-11-09 13:09:42.929134$GNGGA,130943.10,3611.0343683,N,07544.9223814,W,1,24,0.6,0.584,M,-39.961,M,0.0,*6A
###2023-11-09 13:09:42.931721$GPGSV,2,1,07,05,20,090,41,10,19,293,44,13,24,045,39,15,61,037,46*7D
###2023-11-09 13:09:42.933965$GPGSV,2,2,07,18,78,277,46,23,50,316,45,24,50,134,45,,,,*4D
###2023-11-09 13:09:42.936523$GLGSV,2,1,05,70,50,017,36,71,48,290,49,80,18,090,44,85,57,203,50*6D
###2023-11-09 13:09:42.938129$GLGSV,2,2,05,86,53,308,49,,,,,,,,,,,,*5E
###2023-11-09 13:09:42.940693$GAGSV,1,1,04,07,73,259,45,08,48,043,44,13,63,161,45,26,57,310,45*66
###2023-11-09 13:09:42.943266$GBGSV,2,1,06,11,22,180,41,14,65,009,44,24,21,132,42,26,23,080,41*66
###2023-11-09 13:09:42.945198$GBGSV,2,2,06,28,43,286,46,33,59,304,46,,,,,,,,*67
###2023-11-09 13:09:42.946657$GNVTG,71.27,T,,M,5.83,N,10.80,K,A*27
