###2023-11-09 13:07:38.136490$GNGGA,130738.30,3611.0568188,N,07544.9764561,W,1,24,0.6,0.746,M,-39.961,M,0.0,*6C
###2023-11-09 13:07:38.139100$GPGSV,2,1,07,05,21,090,42,10,18,292,43,13,24,045,41,15,62,037,46*74
###2023-11-09 13:07:38.141353$GPGSV,2,2,07,18,77,281,47,23,50,315,45,24,49,136,45,,,,*43
###2023-11-09 13:07:38.143912$GLGSV,2,1,05,70,50,016,36,71,48,288,48,80,17,091,44,85,58,203,47*63
###2023-11-09 13:07:38.145502$GLGSV,2,2,05,86,52,309,47,,,,,,,,,,,,*50
###2023-11-09 13:07:38.148070$GAGSV,1,1,04,07,72,257,45,08,49,042,44,13,64,160,44,26,56,310,45*6F
###2023-11-09 13:07:38.150636$GBGSV,2,1,06,11,23,180,41,14,65,008,46,24,19,133,42,26,23,082,41*6C
###2023-11-09 13:07:38.152587$GBGSV,2,2,06,28,43,289,46,33,58,302,47,,,,,,,,*6E
###2023-11-09 13:07:38.154031$GNVTG,77.30,T,,M,2.27,N,4.21,K,A*10
###2023-11-09 13:07:38.231756$GNGGA,130738.40,3611.0568331,N,07544.9763801,W,1,24,0.6,0.734,M,-39.961,M,0.0,*62
###2023-11-09 13:07:38.234336$GPGSV,2,1,07,05,21,090,40,10,18,292,43,13,24,045,41,15,62,037,46*76
###2023-11-09 13:07:38.236589$GPGSV,2,2,07,18,77,281,47,23,50,315,45,24,49,136,45,,,,*43
###2023-11-09 13:07:38.239181$GLGSV,2,1,05,70,50,016,36,71,48,288,48,80,17,091,44,85,58,203,47*63
###2023-11-09 13:07:38.240793$GLGSV,2,2,05,86,52,309,47,,,,,,,,,,,,*50
###2023-11-09 13:07:38.243362$GAGSV,1,1,04,07,72,257,45,08,49,042,44,13,64,160,44,26,56,310,45*6F
###2023-11-09 13:07:38.245929$GBGSV,2,1,06,11,23,180,41,14,65,008,46,24,19,133,42,26,23,082,41*6C
###2023-11-09 13:07:38.247875$GBGSV,2,2,06,28,43,289,46,33,58,302,47,,,,,,,,*6E
###2023-11-09 13:07:38.249308$GNVTG,76.64,T,,M,2.29,N,4.25,K,A*1A
###2023-11-09 13:07:38.333602$GNGGA,130738.50,3611.0568485,N,07544.9763007,W,1,24,0.6,0.717,M,-39.961,M,0.0,*64
###2023-11-09 13:07:38.336173$GPGSV,2,1,07,05,21,090,40,10,18,292,43,13,24,045,41,15,62,037,46*76
###2023-11-09 13:07:38.338444$GPGSV,2,2,07,18,77,281,47,23,50,315,45,24,49,136,45,,,,*43
###2023-11-09 13:07:38.341007$GLGSV,2,1,05,70,50,016,35,71,48,288,48,80,17,091,43,85,58,203,48*68
###2023-11-09 13:07:38.342607$GLGSV,2,2,05,86,52,309,47,,,,,,,,,,,,*50
###2023-11-09 13:07:38.345166$GAGSV,1,1,04,07,72,257,45,08,49,042,44,13,64,160,44,26,56,310,45*6F
###2023-11-09 13:07:38.347744$GBGSV,2,1,06,11,23,180,41,14,65,008,46,24,19,133,42,26,23,082,41*6C
###2023-11-09 13:07:38.349681$GBGSV,2,2,06,28,43,289,46,33,58,302,47,,,,,,,,*6E
###2023-11-09 13:07:38.351105$GNVTG,76.57,T,,M,2.49,N,4.61,K,A*1C
###2023-11-09 13:07:38.431476$GNGGA,130738.60,3611.0568646,N,07544.9762168,W,1,24,0.6,0.700,M,-39.961,M,0.0,*65
###2023-11-09 13:07:38.434058$GPGSV,2,1,07,05,21,090,40,10,18,292,43,13,24,045,41,15,62,037,46*76
###2023-11-09 13:07:38.436312$GPGSV,2,2,07,18,77,281,47,23,50,315,45,24,49,136,45,,,,*43
###2023-11-09 13:07:38.438908$GLGSV,2,1,05,70,50,016,35,71,48,288,48,80,17,091,43,85,58,203,48*68
###2023-11-09 13:07:38.440517$GLGSV,2,2,05,86,52,309,47,,,,,,,,,,,,*50
###2023-11-09 13:07:38.443095$GAGSV,1,1,04,07,72,257,45,08,49,042,44,13,64,160,44,26,56,310,45*6F
###2023-11-09 13:07:38.445670$GBGSV,2,1,06,11,23,180,41,14,65,008,46,24,19,133,42,26,23,082,41*6C
###2023-11-09 13:07:38.447612$GBGSV,2,2,06,28,43,289,46,33,58,302,47,,,,,,,,*6E
###2023-11-09 13:07:38.449036$GNVTG,76.86,T,,M,2.57,N,4.75,K,A*1A
###2023-11-09 13:07:38.531608$GNGGA,130738.70,3611.0568776,N,07544.9761299,W,1,24,0.6,0.690,M,-39.961,M,0.0,*60
###2023-11-09 13:07:38.534205$GPGSV,2,1,07,05,21,090,40,10,18,292,43,13,24,045,41,15,62,037,46*76
###2023-11-09 13:07:38.536462$GPGSV,2,2,07,18,77,281,47,23,50,315,45,24,49,136,45,,,,*43
###2023-11-09 13:07:38.539064$GLGSV,2,1,05,70,50,016,35,71,48,288,48,80,17,091,43,85,58,203,48*68
###2023-11-09 13:07:38.540683$GLGSV,2,2,05,86,52,309,47,,,,,,,,,,,,*50
###2023-11-09 13:07:38.543256$GAGSV,1,1,04,07,72,257,45,08,49,042,44,13,64,160,44,26,56,310,45*6F
###2023-11-09 13:07:38.545842$GBGSV,2,1,06,11,23,180,41,14,65,008,46,24,19,133,42,26,23,082,41*6C
###2023-11-09 13:07:38.547802$GBGSV,2,2,06,28,43,289,47,33,58,302,47,,,,,,,,*6F
###2023-11-09 13:07:38.549236$GNVTG,81.56,T,,M,2.60,N,4.82,K,A*13
###2023-11-09 13:07:38.632476$GNGGA,130738.80,3611.0568859,N,07544.9760410,W,1,24,0.6,0.681,M,-39.961,M,0.0,*6B
###2023-11-09 13:07:38.635074$GPGSV,2,1,07,05,21,090,41,10,18,292,44,13,24,045,41,15,62,037,46*70
###2023-11-09 13:07:38.637360$GPGSV,2,2,07,18,77,281,47,23,50,315,45,24,49,136,45,,,,*43
###2023-11-09 13:07:38.639935$GLGSV,2,1,05,70,50,016,35,71,48,288,49,80,17,091,43,85,58,203,48*69
###2023-11-09 13:07:38.641538$GLGSV,2,2,05,86,52,309,47,,,,,,,,,,,,*50
###2023-11-09 13:07:38.644109$GAGSV,1,1,04,07,72,257,45,08,49,042,44,13,64,160,44,26,56,310,45*6F
###2023-11-09 13:07:38.646696$GBGSV,2,1,06,11,23,180,41,14,65,008,45,24,19,133,42,26,23,082,43*6D
###2023-11-09 13:07:38.648654$GBGSV,2,2,06,28,43,289,47,33,58,302,47,,,,,,,,*6F
###2023-11-09 13:07:38.650086$GNVTG,84.99,T,,M,2.62,N,4.86,K,A*13
###2023-11-09 13:07:38.731488$GNGGA,130738.90,3611.0568902,N,07544.9759512,W,1,24,0.6,0.679,M,-39.961,M,0.0,*6B
###2023-11-09 13:07:38.734088$GPGSV,2,1,07,05,21,090,41,10,18,292,44,13,24,045,42,15,62,037,46*73
###2023-11-09 13:07:38.736334$GPGSV,2,2,07,18,77,281,47,23,50,315,45,24,49,136,45,,,,*43
###2023-11-09 13:07:38.738916$GLGSV,2,1,05,70,50,016,35,71,48,288,49,80,17,091,43,85,58,203,48*69
###2023-11-09 13:07:38.740521$GLGSV,2,2,05,86,52,309,47,,,,,,,,,,,,*50
###2023-11-09 13:07:38.743085$GAGSV,1,1,04,07,72,257,45,08,49,042,44,13,64,160,44,26,56,310,45*6F
###2023-11-09 13:07:38.745652$GBGSV,2,1,06,11,23,180,41,14,65,008,45,24,19,133,42,26,23,082,43*6D
###2023-11-09 13:07:38.747591$GBGSV,2,2,06,28,43,289,47,33,58,302,47,,,,,,,,*6F
###2023-11-09 13:07:38.749014$GNVTG,87.91,T,,M,2.64,N,4.90,K,A*19
###2023-11-09 13:07:38.832489$GNGGA,130739.00,3611.0568904,N,07544.9758588,W,1,24,0.6,0.687,M,-39.961,M,0.0,*66
###2023-11-09 13:07:38.835095$GPGSV,2,1,07,05,21,090,41,10,18,292,44,13,24,045,42,15,62,037,46*73
###2023-11-09 13:07:38.837374$GPGSV,2,2,07,18,77,281,47,23,50,315,45,24,49,136,45,,,,*43
###2023-11-09 13:07:38.839951$GLGSV,2,1,05,70,50,016,35,71,48,288,49,80,17,091,43,85,58,203,48*69
###2023-11-09 13:07:38.841565$GLGSV,2,2,05,86,52,309,47,,,,,,,,,,,,*50
###2023-11-09 13:07:38.844129$GAGSV,1,1,04,07,72,257,45,08,49,042,44,13,64,160,44,26,56,310,45*6F
###2023-11-09 13:07:38.846704$GBGSV,2,1,06,11,23,180,41,14,65,008,45,24,19,133,42,26,23,082,43*6D
###2023-11-09 13:07:38.848646$GBGSV,2,2,06,28,43,289,47,33,58,302,47,,,,,,,,*6F
###2023-11-09 13:07:38.850076$GNVTG,91.31,T,,M,2.78,N,5.15,K,A*15
###2023-11-09 13:07:38.930855$GNGGA,130739.10,3611.0568860,N,07544.9757598,W,1,24,0.6,0.704,M,-39.961,M,0.0,*60
###2023-11-09 13:07:38.933450$GPGSV,2,1,07,05,21,090,41,10,18,292,43,13,24,045,42,15,62,037,46*74
###2023-11-09 13:07:38.935704$GPGSV,2,2,07,18,77,281,47,23,50,315,45,24,49,136,45,,,,*43
###2023-11-09 13:07:38.938308$GLGSV,2,1,05,70,50,016,35,71,48,288,49,80,17,091,44,85,58,203,48*6E
###2023-11-09 13:07:38.939927$GLGSV,2,2,05,86,52,309,47,,,,,,,,,,,,*50
###2023-11-09 13:07:38.942496$GAGSV,1,1,04,07,72,257,45,08,49,042,44,13,64,160,44,26,56,310,45*6F
###2023-11-09 13:07:38.945082$GBGSV,2,1,06,11,23,180,41,14,65,008,45,24,19,133,42,26,23,082,43*6D
###2023-11-09 13:07:38.947041$GBGSV,2,2,06,28,43,289,47,33,58,302,47,,,,,,,,*6F
###2023-11-09 13:07:38.948472$GNVTG,94.10,T,,M,2.99,N,5.54,K,A*19
###2023-11-09 13:07:39.031461$GNGGA,130739.20,3611.0568776,N,07544.9756557,W,1,24,0.6,0.712,M,-39.961,M,0.0,*6E
###2023-11-09 13:07:39.034037$GPGSV,2,1,07,05,21,090,41,10,18,292,43,13,24,045,42,15,62,037,46*74
###2023-11-09 13:07:39.036284$GPGSV,2,2,07,18,77,281,47,23,50,315,45,24,49,136,45,,,,*43
###2023-11-09 13:07:39.038863$GLGSV,2,1,05,70,50,016,35,71,48,288,49,80,17,091,44,85,58,203,48*6E
###2023-11-09 13:07:39.040469$GLGSV,2,2,05,86,52,309,47,,,,,,,,,,,,*50
###2023-11-09 13:07:39.043023$GAGSV,1,1,04,07,72,257,45,08,49,042,44,13,64,160,44,26,56,310,45*6F
###2023-11-09 13:07:39.045591$GBGSV,2,1,06,11,23,180,39,14,65,008,45,24,19,133,42,26,23,082,43*62
###2023-11-09 13:07:39.047528$GBGSV,2,2,06,28,43,289,47,33,58,302,47,,,,,,,,*6F
###2023-11-09 13:07:39.048951$GNVTG,96.60,T,,M,3.11,N,5.76,K,A*1D
###2023-11-09 13:07:39.128524$GNGGA,130739.30,3611.0568618,N,07544.9755499,W,1,24,0.6,0.714,M,-39.961,M,0.0,*60
###2023-11-09 13:07:39.131438$GPGSV,2,1,07,05,21,090,41,10,18,292,43,13,24,045,42,15,62,037,46*74
###2023-11-09 13:07:39.133699$GPGSV,2,2,07,18,77,281,47,23,50,315,45,24,49,136,45,,,,*43
###2023-11-09 13:07:39.136262$GLGSV,2,1,05,70,50,016,35,71,48,288,48,80,17,091,44,85,58,203,48*6F
###2023-11-09 13:07:39.137887$GLGSV,2,2,05,86,52,309,47,,,,,,,,,,,,*50
###2023-11-09 13:07:39.140460$GAGSV,1,1,04,07,72,257,45,08,49,042,44,13,64,160,44,26,56,310,45*6F
###2023-11-09 13:07:39.143028$GBGSV,2,1,06,11,23,180,39,14,65,008,45,24,19,133,42,26,23,082,43*62
###2023-11-09 13:07:39.144966$GBGSV,2,2,06,28,43,289,47,33,58,302,47,,,,,,,,*6F
###2023-11-09 13:07:39.146426$GNVTG,103.60,T,,M,3.17,N,5.87,K,A*28
###2023-11-09 13:07:39.230996$GNGGA,130739.40,3611.0568364,N,07544.9754435,W,1,24,0.6,0.712,M,-39.961,M,0.0,*68
