###2023-11-09 13:06:50.237090$GPGSV,2,2,07,18,77,281,47,23,50,315,45,24,49,136,46,,,,*40
###2023-11-09 13:06:50.239681$GLGSV,2,1,05,70,50,016,35,71,48,288,47,80,17,091,43,85,58,203,48*67
###2023-11-09 13:06:50.241293$GLGSV,2,2,05,86,52,309,47,,,,,,,,,,,,*50
###2023-11-09 13:06:50.243859$GAGSV,1,1,04,07,72,255,45,08,49,042,44,13,64,160,44,26,56,311,45*6C
###2023-11-09 13:06:50.246429$GBGSV,2,1,06,11,24,180,43,14,65,006,45,24,19,133,44,26,23,082,43*60
###2023-11-09 13:06:50.248386$GBGSV,2,2,06,28,43,289,47,33,58,302,47,,,,,,,,*6F
###2023-11-09 13:06:50.249825$GNVTG,42.22,T,,M,1.13,N,2.09,K,A*1D
###2023-11-09 13:06:50.333004$GNGGA,130650.50,3611.0463830,N,07544.9780355,W,1,24,0.6,0.849,M,-39.961,M,0.0,*6E
###2023-11-09 13:06:50.335628$GPGSV,2,1,07,05,21,090,41,10,18,292,43,13,24,045,42,15,62,037,45*77
###2023-11-09 13:06:50.337927$GPGSV,2,2,07,18,77,281,47,23,50,315,45,24,49,136,46,,,,*40
###2023-11-09 13:06:50.340520$GLGSV,2,1,05,70,50,016,35,71,48,288,47,80,17,091,43,85,58,203,48*67
###2023-11-09 13:06:50.342141$GLGSV,2,2,05,86,52,309,47,,,,,,,,,,,,*50
###2023-11-09 13:06:50.344740$GAGSV,1,1,04,07,72,255,45,08,49,042,44,13,64,160,44,26,56,311,45*6C
###2023-11-09 13:06:50.347348$GBGSV,2,1,06,11,24,180,43,14,65,006,45,24,19,133,44,26,23,082,43*60
###2023-11-09 13:06:50.349302$GBGSV,2,2,06,28,43,289,47,33,58,302,47,,,,,,,,*6F
###2023-11-09 13:06:50.350746$GNVTG,37.36,T,,M,1.22,N,2.27,K,A*14
###2023-11-09 13:06:50.431345$GNGGA,130650.60,3611.0464118,N,07544.9780086,W,1,24,0.6,0.867,M,-39.961,M,0.0,*68
###2023-11-09 13:06:50.433926$GPGSV,2,1,07,05,21,090,41,10,18,292,43,13,24,045,41,15,62,037,45*74
###2023-11-09 13:06:50.436171$GPGSV,2,2,07,18,77,281,47,23,50,315,45,24,49,136,46,,,,*40
###2023-11-09 13:06:50.438754$GLGSV,2,1,05,70,50,016,35,71,48,288,48,80,17,091,43,85,58,203,48*68
###2023-11-09 13:06:50.440355$GLGSV,2,2,05,86,52,309,47,,,,,,,,,,,,*50
###2023-11-09 13:06:50.442911$GAGSV,1,1,04,07,72,255,45,08,49,042,44,13,64,160,44,26,56,311,45*6C
###2023-11-09 13:06:50.445474$GBGSV,2,1,06,11,24,180,43,14,65,006,45,24,19,133,44,26,23,082,43*60
###2023-11-09 13:06:50.447415$GBGSV,2,2,06,28,43,289,47,33,58,302,47,,,,,,,,*6F
###2023-11-09 13:06:50.448838$GNVTG,34.69,T,,M,1.38,N,2.56,K,A*10
###2023-11-09 13:06:50.530856$GNGGA,130650.70,3611.0464407,N,07544.9779820,W,1,24,0.6,0.888,M,-39.961,M,0.0,*61
###2023-11-09 13:06:50.533444$GPGSV,2,1,07,05,21,090,41,10,18,292,44,13,24,045,41,15,62,037,45*73
###2023-11-09 13:06:50.535702$GPGSV,2,2,07,18,77,281,47,23,50,315,45,24,49,136,46,,,,*40
###2023-11-09 13:06:50.538409$GLGSV,2,1,05,70,50,016,35,71,48,288,48,80,17,091,43,85,58,203,48*68
###2023-11-09 13:06:50.540032$GLGSV,2,2,05,86,52,309,47,,,,,,,,,,,,*50
###2023-11-09 13:06:50.542606$GAGSV,1,1,04,07,72,255,45,08,49,042,44,13,64,160,44,26,56,311,45*6C
###2023-11-09 13:06:50.545182$GBGSV,2,1,06,11,24,180,42,14,65,006,45,24,19,133,44,26,23,082,43*61
###2023-11-09 13:06:50.547137$GBGSV,2,2,06,28,43,289,47,33,58,302,47,,,,,,,,*6F
###2023-11-09 13:06:50.548567$GNVTG,37.01,T,,M,1.22,N,2.27,K,A*10
###2023-11-09 13:06:50.631866$GNGGA,130650.80,3611.0464650,N,07544.9779568,W,1,24,0.6,0.919,M,-39.961,M,0.0,*66
###2023-11-09 13:06:50.634459$GPGSV,2,1,07,05,21,090,41,10,18,292,43,13,24,045,42,15,62,037,45*77
###2023-11-09 13:06:50.636716$GPGSV,2,2,07,18,77,281,47,23,50,315,45,24,49,136,46,,,,*40
###2023-11-09 13:06:50.639312$GLGSV,2,1,05,70,50,016,35,71,48,288,48,80,17,091,44,85,58,203,48*6F
###2023-11-09 13:06:50.640917$GLGSV,2,2,05,86,52,309,47,,,,,,,,,,,,*50
###2023-11-09 13:06:50.643487$GAGSV,1,1,04,07,72,255,45,08,49,042,44,13,64,160,44,26,56,311,45*6C
###2023-11-09 13:06:50.646064$GBGSV,2,1,06,11,24,180,41,14,65,006,45,24,19,133,43,26,23,082,43*65
###2023-11-09 13:06:50.648016$GBGSV,2,2,06,28,43,289,47,33,58,302,47,,,,,,,,*6F
###2023-11-09 13:06:50.649446$GNVTG,40.17,T,,M,1.07,N,1.98,K,A*17
###2023-11-09 13:06:50.730724$GNGGA,130650.90,3611.0464843,N,07544.9779346,W,1,24,0.6,0.949,M,-39.961,M,0.0,*64
###2023-11-09 13:06:50.733295$GPGSV,2,1,07,05,21,090,41,10,18,292,43,13,24,045,42,15,62,037,46*74
###2023-11-09 13:06:50.735539$GPGSV,2,2,07,18,77,281,47,23,50,315,45,24,49,136,46,,,,*40
###2023-11-09 13:06:50.738118$GLGSV,2,1,05,70,50,016,35,71,48,288,48,80,17,091,44,85,58,203,48*6F
###2023-11-09 13:06:50.739713$GLGSV,2,2,05,86,52,309,47,,,,,,,,,,,,*50
###2023-11-09 13:06:50.742257$GAGSV,1,1,04,07,72,255,45,08,49,042,44,13,64,160,44,26,56,311,45*6C
###2023-11-09 13:06:50.744813$GBGSV,2,1,06,11,24,180,41,14,65,006,45,24,19,133,43,26,23,082,43*65
###2023-11-09 13:06:50.746738$GBGSV,2,2,06,28,43,289,47,33,58,302,47,,,,,,,,*6F
###2023-11-09 13:06:50.748170$GNVTG,40.17,T,,M,0.84,N,1.55,K,A*1C
###2023-11-09 13:06:50.831741$GNGGA,130651.00,3611.0464994,N,07544.9779160,W,1,24,0.6,0.982,M,-39.961,M,0.0,*66
###2023-11-09 13:06:50.834340$GPGSV,2,1,07,05,21,090,42,10,18,292,42,13,24,045,42,15,62,037,46*76
###2023-11-09 13:06:50.836600$GPGSV,2,2,07,18,77,281,47,23,50,315,45,24,49,136,45,,,,*43
###2023-11-09 13:06:50.839196$GLGSV,2,1,05,70,50,016,35,71,48,288,48,80,17,091,44,85,58,203,48*6F
###2023-11-09 13:06:50.840808$GLGSV,2,2,05,86,52,309,47,,,,,,,,,,,,*50
###2023-11-09 13:06:50.843381$GAGSV,1,1,04,07,72,255,45,08,49,042,44,13,64,160,44,26,56,311,45*6C
###2023-11-09 13:06:50.845976$GBGSV,2,1,06,11,24,180,41,14,65,006,45,24,19,133,43,26,23,082,43*65
###2023-11-09 13:06:50.847940$GBGSV,2,2,06,28,43,289,47,33,58,302,47,,,,,,,,*6F
###2023-11-09 13:06:50.849372$GNVTG,40.17,T,,M,0.70,N,1.30,K,A*14
###2023-11-09 13:06:50.932746$GNGGA,130651.10,3611.0465158,N,07544.9779012,W,1,24,0.6,1.008,M,-39.961,M,0.0,*60
###2023-11-09 13:06:50.935336$GPGSV,2,1,07,05,21,090,43,10,18,292,42,13,24,045,42,15,62,037,45*74
###2023-11-09 13:06:50.937610$GPGSV,2,2,07,18,77,281,47,23,50,315,45,24,49,136,45,,,,*43
###2023-11-09 13:06:50.940182$GLGSV,2,1,05,70,50,016,35,71,48,288,48,80,17,091,44,85,58,203,48*6F
###2023-11-09 13:06:50.941785$GLGSV,2,2,05,86,52,309,47,,,,,,,,,,,,*50
###2023-11-09 13:06:50.944360$GAGSV,1,1,04,07,72,255,45,08,49,042,44,13,64,160,44,26,56,311,45*6C
###2023-11-09 13:06:50.946947$GBGSV,2,1,06,11,24,180,41,14,65,006,45,24,19,133,43,26,23,082,43*65
###2023-11-09 13:06:50.948888$GBGSV,2,2,06,28,43,289,47,33,58,302,47,,,,,,,,*6F
###2023-11-09 13:06:50.950315$GNVTG,40.17,T,,M,0.78,N,1.44,K,A*1F
###2023-11-09 13:06:51.032983$GNGGA,130651.20,3611.0465345,N,07544.9778911,W,1,24,0.6,1.024,M,-39.961,M,0.0,*68
###2023-11-09 13:06:51.035557$GPGSV,2,1,07,05,21,090,43,10,18,292,42,13,24,045,42,15,62,037,45*74
###2023-11-09 13:06:51.037813$GPGSV,2,2,07,18,77,281,47,23,50,315,45,24,49,136,45,,,,*43
###2023-11-09 13:06:51.040372$GLGSV,2,1,05,70,50,016,35,71,48,288,48,80,17,091,44,85,58,203,48*6F
###2023-11-09 13:06:51.041969$GLGSV,2,2,05,86,52,309,47,,,,,,,,,,,,*50
###2023-11-09 13:06:51.044530$GAGSV,1,1,04,07,72,255,45,08,49,042,44,13,64,160,44,26,56,311,45*6C
###2023-11-09 13:06:51.047111$GBGSV,2,1,06,11,24,180,41,14,65,006,45,24,19,133,43,26,23,082,43*65
###2023-11-09 13:06:51.049030$GBGSV,2,2,06,28,43,289,47,33,58,302,47,,,,,,,,*6F
###2023-11-09 13:06:51.050454$GNVTG,40.17,T,,M,0.72,N,1.33,K,A*15
###2023-11-09 13:06:51.131743$GNGGA,130651.30,3611.0465537,N,07544.9778856,W,1,24,0.6,1.039,M,-39.961,M,0.0,*64
###2023-11-09 13:06:51.134337$GPGSV,2,1,07,05,21,090,42,10,18,292,42,13,24,045,42,15,62,037,45*75
###2023-11-09 13:06:51.136585$GPGSV,2,2,07,18,77,281,47,23,50,315,45,24,49,136,45,,,,*43
###2023-11-09 13:06:51.139180$GLGSV,2,1,05,70,50,016,35,71,48,288,48,80,17,091,44,85,58,203,48*6F
###2023-11-09 13:06:51.140803$GLGSV,2,2,05,86,52,309,47,,,,,,,,,,,,*50
###2023-11-09 13:06:51.143372$GAGSV,1,1,04,07,72,255,45,08,49,042,44,13,64,160,44,26,56,311,45*6C
###2023-11-09 13:06:51.145943$GBGSV,2,1,06,11,24,180,41,14,65,006,45,24,19,133,43,26,23,082,43*65
###2023-11-09 13:06:51.147894$GBGSV,2,2,06,28,43,289,47,33,58,302,47,,,,,,,,*6F
###2023-11-09 13:06:51.149322$GNVTG,40.17,T,,M,0.72,N,1.33,K,A*15
###2023-11-09 13:06:51.232982$GNGGA,130651.40,3611.0465728,N,07544.9778836,W,1,24,0.6,1.056,M,-39.961,M,0.0,*60
###2023-11-09 13:06:51.235572$GPGSV,2,1,07,05,21,090,41,10,18,292,42,13,24,045,42,15,62,037,45*76
###2023-11-09 13:06:51.237852$GPGSV,2,2,07,18,77,281,47,23,50,315,45,24,49,136,45,,,,*43
###2023-11-09 13:06:51.240730$GLGSV,2,1,05,70,50,016,35,71,48,288,48,80,17,091,44,85,58,203,48*6F
###2023-11-09 13:06:51.242347$GLGSV,2,2,05,86,52,309,47,,,,,,,,,,,,*50
###2023-11-09 13:06:51.244908$GAGSV,1,1,04,07,72,255,45,08,49,042,44,13,64,160,44,26,56,311,45*6C
###2023-11-09 13:06:51.247498$GBGSV,2,1,06,11,24,180,41,14,65,006,45,24,19,133,44,26,23,082,43*62
###2023-11-09 13:06:51.249433$GBGSV,2,2,06,28,43,289,47,33,58,302,47,,,,,,,,*6F
###2023-11-09 13:06:51.250856$GNVTG,40.17,T,,M,0.68,N,1.26,K,A*1A
###2023-11-09 13:06:51.331959$GNGGA,130651.50,3611.0465920,N,07544.9778854,W,1,24,0.6,1.082,M,-39.961,M,0.0,*6A
###2023-11-09 13:06:51.334521$GPGSV,2,1,07,05,21,090,41,10,18,292,42,13,24,045,42,15,62,037,45*76
###2023-11-09 13:06:51.336757$GPGSV,2,2,07,18,77,281,47,23,50,315,45,24,49,136,45,,,,*43
