###2023-11-09 13:07:30.336124$GPGSV,2,2,07,18,77,281,47,23,50,315,45,24,49,136,46,,,,*40
###2023-11-09 13:07:30.338741$GLGSV,2,1,05,70,50,016,35,71,48,288,47,80,17,091,44,85,58,203,48*60
###2023-11-09 13:07:30.340359$GLGSV,2,2,05,86,52,309,47,,,,,,,,,,,,*50
###2023-11-09 13:07:30.342926$GAGSV,1,1,04,07,72,257,45,08,49,042,44,13,64,160,44,26,56,310,45*6F
###2023-11-09 13:07:30.345492$GBGSV,2,1,06,11,24,180,41,14,65,006,45,24,19,133,43,26,23,082,43*65
###2023-11-09 13:07:30.347439$GBGSV,2,2,06,28,43,289,47,33,58,302,47,,,,,,,,*6F
###2023-11-09 13:07:30.348866$GNVTG,18.47,T,,M,0.51,N,0.94,K,A*10
###2023-11-09 13:07:30.430265$GNGGA,130730.60,3611.0550757,N,07544.9770714,W,1,24,0.6,1.261,M,-39.961,M,0.0,*6A
###2023-11-09 13:07:30.432894$GPGSV,2,1,07,05,21,090,42,10,18,292,42,13,24,045,42,15,62,037,45*75
###2023-11-09 13:07:30.435188$GPGSV,2,2,07,18,77,281,47,23,50,315,45,24,49,136,46,,,,*40
###2023-11-09 13:07:30.437806$GLGSV,2,1,05,70,50,016,35,71,48,288,48,80,17,091,44,85,58,203,48*6F
###2023-11-09 13:07:30.439418$GLGSV,2,2,05,86,52,309,47,,,,,,,,,,,,*50
###2023-11-09 13:07:30.442008$GAGSV,1,1,04,07,72,257,45,08,49,042,44,13,64,160,44,26,56,310,45*6F
###2023-11-09 13:07:30.444602$GBGSV,2,1,06,11,24,180,41,14,65,006,45,24,19,133,43,26,23,082,43*65
###2023-11-09 13:07:30.446544$GBGSV,2,2,06,28,43,289,47,33,58,302,47,,,,,,,,*6F
###2023-11-09 13:07:30.447993$GNVTG,18.47,T,,M,0.58,N,1.08,K,A*1D
###2023-11-09 13:07:30.531721$GNGGA,130730.70,3611.0550886,N,07544.9770884,W,1,24,0.6,1.273,M,-39.961,M,0.0,*6D
###2023-11-09 13:07:30.534307$GPGSV,2,1,07,05,21,090,42,10,18,292,42,13,24,045,42,15,62,037,45*75
###2023-11-09 13:07:30.536555$GPGSV,2,2,07,18,77,281,47,23,50,315,45,24,49,136,46,,,,*40
###2023-11-09 13:07:30.539141$GLGSV,2,1,05,70,50,016,35,71,48,288,48,80,17,091,44,85,58,203,48*6F
###2023-11-09 13:07:30.540756$GLGSV,2,2,05,86,52,309,47,,,,,,,,,,,,*50
###2023-11-09 13:07:30.543327$GAGSV,1,1,04,07,72,257,45,08,49,042,44,13,64,160,44,26,56,310,45*6F
###2023-11-09 13:07:30.545900$GBGSV,2,1,06,11,24,180,41,14,65,006,45,24,19,133,43,26,23,082,42*64
###2023-11-09 13:07:30.547851$GBGSV,2,2,06,28,43,289,47,33,58,302,47,,,,,,,,*6F
###2023-11-09 13:07:30.549279$GNVTG,18.47,T,,M,0.76,N,1.40,K,A*1D
###2023-11-09 13:07:30.630713$GNGGA,130730.80,3611.0551048,N,07544.9771083,W,1,24,0.6,1.288,M,-39.961,M,0.0,*63
###2023-11-09 13:07:30.633287$GPGSV,2,1,07,05,21,090,42,10,18,292,42,13,24,045,42,15,62,037,45*75
###2023-11-09 13:07:30.635521$GPGSV,2,2,07,18,77,281,47,23,50,315,45,24,49,136,46,,,,*40
###2023-11-09 13:07:30.638117$GLGSV,2,1,05,70,50,016,35,71,48,288,48,80,17,091,44,85,58,203,48*6F
###2023-11-09 13:07:30.639734$GLGSV,2,2,05,86,52,309,47,,,,,,,,,,,,*50
###2023-11-09 13:07:30.642297$GAGSV,1,1,04,07,72,257,45,08,49,042,44,13,64,160,44,26,56,310,45*6F
###2023-11-09 13:07:30.644862$GBGSV,2,1,06,11,24,180,41,14,65,006,45,24,19,133,44,26,23,082,42*63
###2023-11-09 13:07:30.646794$GBGSV,2,2,06,28,43,289,47,33,58,302,47,,,,,,,,*6F
###2023-11-09 13:07:30.648231$GNVTG,18.47,T,,M,0.86,N,1.58,K,A*1B
###2023-11-09 13:07:30.730371$GNGGA,130730.90,3611.0551235,N,07544.9771314,W,1,24,0.6,1.299,M,-39.961,M,0.0,*67
###2023-11-09 13:07:30.732980$GPGSV,2,1,07,05,21,090,42,10,18,292,42,13,24,045,42,15,62,037,45*75
###2023-11-09 13:07:30.735230$GPGSV,2,2,07,18,77,281,47,23,50,315,45,24,49,136,46,,,,*40
###2023-11-09 13:07:30.737827$GLGSV,2,1,05,70,50,016,35,71,48,288,48,80,17,091,44,85,58,203,48*6F
###2023-11-09 13:07:30.739438$GLGSV,2,2,05,86,52,309,47,,,,,,,,,,,,*50
###2023-11-09 13:07:30.742008$GAGSV,1,1,04,07,72,257,45,08,49,042,44,13,64,160,44,26,56,310,45*6F
###2023-11-09 13:07:30.744580$GBGSV,2,1,06,11,24,180,42,14,65,006,45,24,19,133,44,26,23,082,42*60
###2023-11-09 13:07:30.746509$GBGSV,2,2,06,28,43,289,47,33,58,302,47,,,,,,,,*6F
###2023-11-09 13:07:30.747986$GNVTG,315.19,T,,M,1.01,N,1.87,K,A*22
###2023-11-09 13:07:30.832728$GNGGA,130731.00,3611.0551427,N,07544.9771580,W,1,24,0.6,1.315,M,-39.961,M,0.0,*64
###2023-11-09 13:07:30.835312$GPGSV,2,1,07,05,21,090,42,10,18,292,42,13,24,045,42,15,62,037,45*75
###2023-11-09 13:07:30.837581$GPGSV,2,2,07,18,77,281,47,23,50,315,45,24,49,136,46,,,,*40
###2023-11-09 13:07:30.840155$GLGSV,2,1,05,70,50,016,35,71,48,288,48,80,17,091,44,85,58,203,48*6F
###2023-11-09 13:07:30.841760$GLGSV,2,2,05,86,52,309,47,,,,,,,,,,,,*50
###2023-11-09 13:07:30.844323$GAGSV,1,1,04,07,72,257,45,08,49,042,44,13,64,160,44,26,56,310,45*6F
###2023-11-09 13:07:30.846920$GBGSV,2,1,06,11,24,180,42,14,65,006,45,24,19,133,43,26,23,082,43*66
###2023-11-09 13:07:30.848857$GBGSV,2,2,06,28,43,289,47,33,58,302,47,,,,,,,,*6F
###2023-11-09 13:07:30.850325$GNVTG,310.09,T,,M,1.05,N,1.94,K,A*20
###2023-11-09 13:07:30.931987$GNGGA,130731.10,3611.0551571,N,07544.9771878,W,1,24,0.6,1.328,M,-39.961,M,0.0,*63
###2023-11-09 13:07:30.934564$GPGSV,2,1,07,05,21,090,42,10,18,292,44,13,24,045,43,15,62,037,45*72
###2023-11-09 13:07:30.936801$GPGSV,2,2,07,18,77,281,47,23,50,315,45,24,49,136,46,,,,*40
###2023-11-09 13:07:30.939387$GLGSV,2,1,05,70,50,016,35,71,48,288,48,80,17,091,44,85,58,203,48*6F
###2023-11-09 13:07:30.940990$GLGSV,2,2,05,86,52,309,47,,,,,,,,,,,,*50
###2023-11-09 13:07:30.943553$GAGSV,1,1,04,07,72,257,45,08,49,042,44,13,64,160,44,26,56,310,45*6F
###2023-11-09 13:07:30.946124$GBGSV,2,1,06,11,24,180,41,14,65,006,45,24,19,133,43,26,23,082,43*65
###2023-11-09 13:07:30.948066$GBGSV,2,2,06,28,43,289,47,33,58,302,47,,,,,,,,*6F
###2023-11-09 13:07:30.949525$GNVTG,310.09,T,,M,0.95,N,1.76,K,A*24
###2023-11-09 13:07:31.030873$GNGGA,130731.20,3611.0551650,N,07544.9772211,W,1,24,0.6,1.344,M,-39.961,M,0.0,*6C
###2023-11-09 13:07:31.033473$GPGSV,2,1,07,05,21,090,42,10,18,292,44,13,24,045,43,15,62,037,45*72
###2023-11-09 13:07:31.035726$GPGSV,2,2,07,18,77,281,47,23,50,315,45,24,49,136,46,,,,*40
###2023-11-09 13:07:31.038319$GLGSV,2,1,05,70,50,016,35,71,48,288,48,80,17,091,44,85,58,203,48*6F
###2023-11-09 13:07:31.039927$GLGSV,2,2,05,86,52,309,47,,,,,,,,,,,,*50
###2023-11-09 13:07:31.042494$GAGSV,1,1,04,07,72,257,45,08,49,042,44,13,64,160,44,26,56,310,45*6F
###2023-11-09 13:07:31.045071$GBGSV,2,1,06,11,24,180,41,14,65,006,45,24,19,133,44,26,23,082,43*62
###2023-11-09 13:07:31.047020$GBGSV,2,2,06,28,43,289,47,33,58,302,47,,,,,,,,*6F
###2023-11-09 13:07:31.048487$GNVTG,281.58,T,,M,1.03,N,1.91,K,A*2E
###2023-11-09 13:07:31.131734$GNGGA,130731.30,3611.0551720,N,07544.9772560,W,1,24,0.6,1.362,M,-39.961,M,0.0,*6E
###2023-11-09 13:07:31.134321$GPGSV,2,1,07,05,21,090,42,10,18,292,44,13,24,045,42,15,62,037,45*73
###2023-11-09 13:07:31.136568$GPGSV,2,2,07,18,77,281,47,23,50,315,45,24,49,136,46,,,,*40
###2023-11-09 13:07:31.139162$GLGSV,2,1,05,70,50,016,35,71,48,288,48,80,17,091,44,85,58,203,48*6F
###2023-11-09 13:07:31.140778$GLGSV,2,2,05,86,52,309,47,,,,,,,,,,,,*50
###2023-11-09 13:07:31.143337$GAGSV,1,1,04,07,72,257,45,08,49,042,44,13,64,160,44,26,56,310,45*6F
###2023-11-09 13:07:31.145907$GBGSV,2,1,06,11,24,180,41,14,65,006,45,24,19,133,44,26,23,082,43*62
###2023-11-09 13:07:31.147852$GBGSV,2,2,06,28,43,289,47,33,58,302,47,,,,,,,,*6F
###2023-11-09 13:07:31.149324$GNVTG,286.95,T,,M,1.03,N,1.91,K,A*28
###2023-11-09 13:07:31.230972$GNGGA,130731.40,3611.0551838,N,07544.9772897,W,1,24,0.6,1.379,M,-39.961,M,0.0,*60
###2023-11-09 13:07:31.233553$GPGSV,2,1,07,05,21,090,42,10,18,292,44,13,24,045,42,15,62,037,45*73
###2023-11-09 13:07:31.235801$GPGSV,2,2,07,18,77,281,47,23,50,315,45,24,49,136,46,,,,*40
###2023-11-09 13:07:31.238385$GLGSV,2,1,05,70,50,016,35,71,48,288,48,80,17,091,44,85,58,203,48*6F
###2023-11-09 13:07:31.239982$GLGSV,2,2,05,86,52,309,47,,,,,,,,,,,,*50
###2023-11-09 13:07:31.242541$GAGSV,1,1,04,07,72,257,45,08,49,042,44,13,64,160,44,26,56,310,45*6F
###2023-11-09 13:07:31.245101$GBGSV,2,1,06,11,24,180,41,14,65,006,45,24,19,133,44,26,23,082,43*62
###2023-11-09 13:07:31.247044$GBGSV,2,2,06,28,43,289,47,33,58,302,47,,,,,,,,*6F
###2023-11-09 13:07:31.248502$GNVTG,300.73,T,,M,1.07,N,1.98,K,A*22
###2023-11-09 13:07:31.330739$GNGGA,130731.50,3611.0552007,N,07544.9773240,W,1,24,0.6,1.394,M,-39.961,M,0.0,*64
###2023-11-09 13:07:31.333328$GPGSV,2,1,07,05,21,090,42,10,18,292,43,13,24,045,41,15,62,037,45*77
###2023-11-09 13:07:31.335863$GPGSV,2,2,07,18,77,281,47,23,50,315,45,24,49,136,46,,,,*40
###2023-11-09 13:07:31.338474$GLGSV,2,1,05,70,50,016,35,71,48,288,48,80,17,091,44,85,58,203,48*6F
###2023-11-09 13:07:31.340090$GLGSV,2,2,05,86,52,309,47,,,,,,,,,,,,*50
###2023-11-09 13:07:31.342659$GAGSV,1,1,04,07,72,257,45,08,49,042,44,13,64,160,44,26,56,310,45*6F
###2023-11-09 13:07:31.345243$GBGSV,2,1,06,11,24,180,41,14,65,006,45,24,19,133,44,26,23,082,43*62
###2023-11-09 13:07:31.347196$GBGSV,2,2,06,28,43,289,47,33,58,302,47,,,,,,,,*6F
###2023-11-09 13:07:31.348663$GNVTG,303.49,T,,M,1.22,N,2.27,K,A*28
###2023-11-09 13:07:31.431742$GNGGA,130731.60,3611.0552202,N,07544.9773597,W,1,24,0.6,1.396,M,-39.961,M,0.0,*6F
###2023-11-09 13:07:31.434344$GPGSV,2,1,07,05,21,090,41,10,18,292,43,13,24,045,42,15,62,037,45*77
###2023-11-09 13:07:31.436598$GPGSV,2,2,07,18,77,281,47,23,50,315,45,24,49,136,46,,,,*40
