###2023-11-09 13:09:49.643689$GBGSV,2,1,06,11,22,180,42,14,65,009,44,24,21,132,44,26,23,080,43*61
###2023-11-09 13:09:49.645659$GBGSV,2,2,06,28,43,286,46,33,59,305,47,,,,,,,,*67
###2023-11-09 13:09:49.647142$GNVTG,48.99,T,,M,4.84,N,8.96,K,A*10
###2023-11-09 13:09:49.730251$GNGGA,130949.90,3611.0395792,N,07544.9142715,W,1,24,0.6,0.400,M,-39.961,M,0.0,*65
###2023-11-09 13:09:49.732855$GPGSV,2,1,07,05,20,090,42,10,19,293,43,13,24,045,40,15,61,037,46*77
###2023-11-09 13:09:49.735123$GPGSV,2,2,07,18,78,277,47,23,50,316,45,24,50,134,46,,,,*4F
###2023-11-09 13:09:49.737735$GLGSV,2,1,05,70,50,017,36,71,48,290,46,80,18,090,44,85,57,203,48*6B
###2023-11-09 13:09:49.739347$GLGSV,2,2,05,86,53,308,47,,,,,,,,,,,,*50
###2023-11-09 13:09:49.741928$GAGSV,1,1,04,07,73,259,45,08,48,043,44,13,63,161,45,26,57,310,45*66
###2023-11-09 13:09:49.744507$GBGSV,2,1,06,11,22,180,42,14,65,009,44,24,21,132,44,26,23,080,43*61
###2023-11-09 13:09:49.746443$GBGSV,2,2,06,28,43,286,46,33,59,305,47,,,,,,,,*67
###2023-11-09 13:09:49.747897$GNVTG,47.49,T,,M,4.86,N,9.00,K,A*1E
###2023-11-09 13:09:49.832228$GNGGA,130950.00,3611.0396735,N,07544.9141491,W,1,24,0.6,0.377,M,-39.961,M,0.0,*61
###2023-11-09 13:09:49.834804$GPGSV,2,1,07,05,20,090,43,10,19,293,42,13,24,045,40,15,61,037,46*77
###2023-11-09 13:09:49.837076$GPGSV,2,2,07,18,78,277,47,23,50,316,45,24,50,134,46,,,,*4F
###2023-11-09 13:09:49.839643$GLGSV,2,1,05,70,50,017,36,71,48,290,46,80,18,090,44,85,57,203,48*6B
###2023-11-09 13:09:49.841239$GLGSV,2,2,05,86,53,308,47,,,,,,,,,,,,*50
###2023-11-09 13:09:49.843785$GAGSV,1,1,04,07,73,259,45,08,48,043,44,13,63,161,45,26,57,310,45*66
###2023-11-09 13:09:49.846346$GBGSV,2,1,06,11,22,180,43,14,65,009,44,24,21,132,44,26,23,080,43*60
###2023-11-09 13:09:49.848296$GBGSV,2,2,06,28,43,286,46,33,59,305,47,,,,,,,,*67
###2023-11-09 13:09:49.849724$GNVTG,45.01,T,,M,4.96,N,9.18,K,A*18
###2023-11-09 13:09:49.932261$GNGGA,130950.10,3611.0397716,N,07544.9140267,W,1,24,0.6,0.354,M,-39.961,M,0.0,*6F
###2023-11-09 13:09:49.934873$GPGSV,2,1,07,05,20,090,43,10,19,293,42,13,24,045,40,15,61,037,46*77
###2023-11-09 13:09:49.937154$GPGSV,2,2,07,18,78,277,47,23,50,316,45,24,50,134,46,,,,*4F
###2023-11-09 13:09:49.939733$GLGSV,2,1,05,70,50,017,36,71,48,290,46,80,18,090,44,85,57,203,48*6B
###2023-11-09 13:09:49.941344$GLGSV,2,2,05,86,53,308,47,,,,,,,,,,,,*50
###2023-11-09 13:09:49.943910$GAGSV,1,1,04,07,73,259,45,08,48,043,44,13,63,161,45,26,57,310,45*66
###2023-11-09 13:09:49.946495$GBGSV,2,1,06,11,22,180,43,14,65,009,44,24,21,132,44,26,23,080,43*60
###2023-11-09 13:09:49.948456$GBGSV,2,2,06,28,43,286,46,33,59,305,47,,,,,,,,*67
###2023-11-09 13:09:49.949907$GNVTG,45.34,T,,M,5.03,N,9.32,K,A*1B
###2023-11-09 13:09:50.032748$GNGGA,130950.20,3611.0398684,N,07544.9139019,W,1,24,0.6,0.337,M,-39.961,M,0.0,*69
###2023-11-09 13:09:50.035346$GPGSV,2,1,07,05,20,090,43,10,19,293,43,13,24,045,40,15,61,037,46*76
###2023-11-09 13:09:50.037620$GPGSV,2,2,07,18,78,277,46,23,50,316,46,24,50,134,46,,,,*4D
###2023-11-09 13:09:50.040194$GLGSV,2,1,05,70,50,017,36,71,48,290,47,80,18,090,44,85,57,203,48*6A
###2023-11-09 13:09:50.041802$GLGSV,2,2,05,86,53,308,47,,,,,,,,,,,,*50
###2023-11-09 13:09:50.044380$GAGSV,1,1,04,07,73,259,45,08,48,043,44,13,63,161,45,26,57,310,45*66
###2023-11-09 13:09:50.046980$GBGSV,2,1,06,11,22,180,43,14,65,009,44,24,21,132,44,26,23,080,43*60
###2023-11-09 13:09:50.048911$GBGSV,2,2,06,28,43,286,47,33,59,305,47,,,,,,,,*66
###2023-11-09 13:09:50.050342$GNVTG,46.63,T,,M,4.98,N,9.22,K,A*18
###2023-11-09 13:09:50.132831$GNGGA,130950.30,3611.0399627,N,07544.9137745,W,1,24,0.6,0.329,M,-39.961,M,0.0,*6F
###2023-11-09 13:09:50.135419$GPGSV,2,1,07,05,20,090,43,10,19,293,43,13,24,045,40,15,61,037,46*76
###2023-11-09 13:09:50.137675$GPGSV,2,2,07,18,78,277,46,23,50,316,46,24,50,134,46,,,,*4D
###2023-11-09 13:09:50.140233$GLGSV,2,1,05,70,50,017,36,71,48,290,47,80,18,090,43,85,57,203,48*6D
###2023-11-09 13:09:50.141829$GLGSV,2,2,05,86,53,308,48,,,,,,,,,,,,*5F
###2023-11-09 13:09:50.144377$GAGSV,1,1,04,07,73,259,45,08,48,043,44,13,63,161,45,26,57,310,45*66
###2023-11-09 13:09:50.146947$GBGSV,2,1,06,11,22,180,43,14,65,009,44,24,21,132,43,26,23,080,43*67
###2023-11-09 13:09:50.148867$GBGSV,2,2,06,28,43,286,47,33,59,305,47,,,,,,,,*66
###2023-11-09 13:09:50.150280$GNVTG,48.02,T,,M,5.02,N,9.29,K,A*18
###2023-11-09 13:09:50.230233$GNGGA,130950.40,3611.0400554,N,07544.9136415,W,1,24,0.6,0.328,M,-39.961,M,0.0,*6E
###2023-11-09 13:09:50.232822$GPGSV,2,1,07,05,20,090,42,10,19,293,43,13,24,045,40,15,61,037,46*77
###2023-11-09 13:09:50.235072$GPGSV,2,2,07,18,78,277,46,23,50,316,46,24,50,134,46,,,,*4D
###2023-11-09 13:09:50.237666$GLGSV,2,1,05,70,50,017,36,71,48,290,47,80,18,090,43,85,57,203,48*6D
###2023-11-09 13:09:50.239273$GLGSV,2,2,05,86,53,308,48,,,,,,,,,,,,*5F
###2023-11-09 13:09:50.241826$GAGSV,1,1,04,07,73,259,45,08,48,043,44,13,63,161,45,26,57,310,45*66
###2023-11-09 13:09:50.244391$GBGSV,2,1,06,11,22,180,42,14,65,009,44,24,21,132,43,26,23,080,43*66
###2023-11-09 13:09:50.246314$GBGSV,2,2,06,28,43,286,47,33,59,305,47,,,,,,,,*66
###2023-11-09 13:09:50.247753$GNVTG,50.19,T,,M,5.15,N,9.54,K,A*17
###2023-11-09 13:09:50.330357$GNGGA,130950.50,3611.0401458,N,07544.9135021,W,1,24,0.6,0.335,M,-39.961,M,0.0,*6F
###2023-11-09 13:09:50.332950$GPGSV,2,1,07,05,20,090,42,10,19,293,43,13,24,045,40,15,61,037,46*77
###2023-11-09 13:09:50.335206$GPGSV,2,2,07,18,78,277,46,23,50,316,46,24,50,134,46,,,,*4D
###2023-11-09 13:09:50.337797$GLGSV,2,1,05,70,50,017,36,71,48,290,47,80,18,090,43,85,57,203,48*6D
###2023-11-09 13:09:50.339406$GLGSV,2,2,05,86,53,308,48,,,,,,,,,,,,*5F
###2023-11-09 13:09:50.341965$GAGSV,1,1,04,07,73,259,46,08,48,043,44,13,63,161,45,26,57,310,45*65
###2023-11-09 13:09:50.344527$GBGSV,2,1,06,11,22,180,42,14,65,009,44,24,21,132,43,26,23,080,43*66
###2023-11-09 13:09:50.346452$GBGSV,2,2,06,28,43,286,47,33,59,305,47,,,,,,,,*66
###2023-11-09 13:09:50.347894$GNVTG,52.08,T,,M,5.19,N,9.61,K,A*1F
###2023-11-09 13:09:50.430380$GNGGA,130950.60,3611.0402342,N,07544.9133592,W,1,24,0.6,0.342,M,-39.961,M,0.0,*68
###2023-11-09 13:09:50.432968$GPGSV,2,1,07,05,20,090,42,10,19,293,43,13,24,045,40,15,61,037,46*77
###2023-11-09 13:09:50.435211$GPGSV,2,2,07,18,78,277,46,23,50,316,46,24,50,134,46,,,,*4D
###2023-11-09 13:09:50.437804$GLGSV,2,1,05,70,50,017,36,71,48,290,47,80,18,090,43,85,57,203,48*6D
###2023-11-09 13:09:50.439415$GLGSV,2,2,05,86,53,308,48,,,,,,,,,,,,*5F
###2023-11-09 13:09:50.441982$GAGSV,1,1,04,07,73,259,46,08,48,043,44,13,63,161,45,26,57,310,45*65
###2023-11-09 13:09:50.444560$GBGSV,2,1,06,11,22,180,42,14,65,009,44,24,21,132,44,26,23,080,43*61
###2023-11-09 13:09:50.446489$GBGSV,2,2,06,28,43,286,46,33,59,305,47,,,,,,,,*67
###2023-11-09 13:09:50.447933$GNVTG,52.85,T,,M,5.23,N,9.68,K,A*1A
###2023-11-09 13:09:50.529141$GNGGA,130950.70,3611.0403231,N,07544.9132157,W,1,24,0.6,0.354,M,-39.961,M,0.0,*66
###2023-11-09 13:09:50.531744$GPGSV,2,1,07,05,20,090,42,10,19,293,42,13,24,045,40,15,61,037,46*76
###2023-11-09 13:09:50.534007$GPGSV,2,2,07,18,78,277,47,23,50,316,46,24,50,134,46,,,,*4C
###2023-11-09 13:09:50.536578$GLGSV,2,1,05,70,50,017,36,71,48,290,47,80,18,090,44,85,57,203,48*6A
###2023-11-09 13:09:50.538196$GLGSV,2,2,05,86,53,308,48,,,,,,,,,,,,*5F
###2023-11-09 13:09:50.540768$GAGSV,1,1,04,07,73,259,45,08,48,043,44,13,63,161,45,26,57,310,45*66
###2023-11-09 13:09:50.543352$GBGSV,2,1,06,11,22,180,42,14,65,009,44,24,21,132,44,26,23,080,43*61
###2023-11-09 13:09:50.545284$GBGSV,2,2,06,28,43,286,46,33,59,305,47,,,,,,,,*67
###2023-11-09 13:09:50.546717$GNVTG,52.03,T,,M,5.25,N,9.72,K,A*19
###2023-11-09 13:09:50.630249$GNGGA,130950.80,3611.0404151,N,07544.9130758,W,1,24,0.6,0.373,M,-39.961,M,0.0,*65
###2023-11-09 13:09:50.632857$GPGSV,2,1,07,05,20,090,42,10,19,293,42,13,24,045,40,15,61,037,46*76
###2023-11-09 13:09:50.635123$GPGSV,2,2,07,18,78,277,46,23,50,316,46,24,50,134,46,,,,*4D
###2023-11-09 13:09:50.637717$GLGSV,2,1,05,70,50,017,36,71,48,290,46,80,18,090,44,85,57,203,48*6B
###2023-11-09 13:09:50.639331$GLGSV,2,2,05,86,53,308,47,,,,,,,,,,,,*50
###2023-11-09 13:09:50.641908$GAGSV,1,1,04,07,73,259,45,08,48,043,44,13,63,161,45,26,57,310,45*66
###2023-11-09 13:09:50.644483$GBGSV,2,1,06,11,22,180,42,14,65,009,44,24,21,132,44,26,23,080,43*61
###2023-11-09 13:09:50.646733$GBGSV,2,2,06,28,43,286,46,33,59,305,47,,,,,,,,*67
###2023-11-09 13:09:50.648188$GNVTG,49.35,T,,M,5.21,N,9.65,K,A*14
###2023-11-09 13:09:50.730264$GNGGA,130950.90,3611.0405131,N,07544.9129426,W,1,24,0.6,0.391,M,-39.961,M,0.0,*6D
###2023-11-09 13:09:50.732882$GPGSV,2,1,07,05,20,090,42,10,19,293,42,13,24,045,40,15,61,037,46*76
###2023-11-09 13:09:50.735138$GPGSV,2,2,07,18,78,277,46,23,50,316,46,24,50,134,46,,,,*4D
###2023-11-09 13:09:50.737734$GLGSV,2,1,05,70,50,017,36,71,48,290,46,80,18,090,44,85,57,203,48*6B
###2023-11-09 13:09:50.739340$GLGSV,2,2,05,86,53,308,47,,,,,,,,,,,,*50
###2023-11-09 13:09:50.741897$GAGSV,1,1,04,07,73,259,45,08,48,043,44,13,63,161,45,26,57,310,45*66
###2023-11-09 13:09:50.744478$GBGSV,2,1,06,11,22,180,42,14,65,009,44,24,21,132,44,26,23,080,43*61
