###2023-11-09 13:09:28.435570$GPGSV,2,2,07,18,78,277,47,23,50,316,45,24,50,134,45,,,,*4C
###2023-11-09 13:09:28.438246$GLGSV,2,1,05,70,50,017,35,71,48,290,47,80,18,090,43,85,57,203,48*6E
###2023-11-09 13:09:28.439875$GLGSV,2,2,05,86,53,308,48,,,,,,,,,,,,*5F
###2023-11-09 13:09:28.442446$GAGSV,1,1,04,07,73,259,45,08,48,043,44,13,63,161,44,26,57,310,45*67
###2023-11-09 13:09:28.445029$GBGSV,2,1,06,11,23,180,40,14,65,008,45,24,20,132,41,26,23,081,43*67
###2023-11-09 13:09:28.446989$GBGSV,2,2,06,28,43,287,46,33,59,304,47,,,,,,,,*67
###2023-11-09 13:09:28.448462$GNVTG,109.72,T,,M,1.40,N,2.59,K,A*25
###2023-11-09 13:09:28.530962$GNGGA,130928.70,3611.0338176,N,07544.9456068,W,1,24,0.6,1.175,M,-39.961,M,0.0,*6C
###2023-11-09 13:09:28.533542$GPGSV,2,1,07,05,20,090,42,10,19,293,42,13,24,045,39,15,61,037,45*7B
###2023-11-09 13:09:28.535790$GPGSV,2,2,07,18,78,277,47,23,50,316,45,24,50,134,46,,,,*4F
###2023-11-09 13:09:28.538385$GLGSV,2,1,05,70,50,017,35,71,48,290,47,80,18,090,43,85,57,203,48*6E
###2023-11-09 13:09:28.539992$GLGSV,2,2,05,86,53,308,48,,,,,,,,,,,,*5F
###2023-11-09 13:09:28.542558$GAGSV,1,1,04,07,73,259,45,08,48,043,44,13,63,161,44,26,57,310,45*67
###2023-11-09 13:09:28.545127$GBGSV,2,1,06,11,23,180,40,14,65,008,45,24,20,132,41,26,23,081,43*67
###2023-11-09 13:09:28.547071$GBGSV,2,2,06,28,43,287,47,33,59,304,47,,,,,,,,*66
###2023-11-09 13:09:28.548524$GNVTG,106.79,T,,M,1.48,N,2.74,K,A*26
###2023-11-09 13:09:28.629762$GNGGA,130928.80,3611.0338052,N,07544.9455564,W,1,24,0.6,1.093,M,-39.961,M,0.0,*67
###2023-11-09 13:09:28.632359$GPGSV,2,1,07,05,20,090,42,10,19,293,42,13,24,045,39,15,61,037,45*7B
###2023-11-09 13:09:28.634610$GPGSV,2,2,07,18,78,277,47,23,50,316,45,24,50,134,46,,,,*4F
###2023-11-09 13:09:28.637197$GLGSV,2,1,05,70,50,017,35,71,48,290,47,80,18,090,43,85,57,203,49*6F
###2023-11-09 13:09:28.638806$GLGSV,2,2,05,86,53,308,48,,,,,,,,,,,,*5F
###2023-11-09 13:09:28.641369$GAGSV,1,1,04,07,73,259,44,08,48,043,44,13,63,161,44,26,57,310,45*66
###2023-11-09 13:09:28.643942$GBGSV,2,1,06,11,23,180,41,14,65,008,45,24,20,132,43,26,23,081,43*64
###2023-11-09 13:09:28.645879$GBGSV,2,2,06,28,43,287,47,33,59,304,47,,,,,,,,*66
###2023-11-09 13:09:28.647356$GNVTG,105.89,T,,M,1.59,N,2.95,K,A*25
###2023-11-09 13:09:28.730848$GNGGA,130928.90,3611.0337938,N,07544.9455019,W,1,24,0.6,0.998,M,-39.961,M,0.0,*60
###2023-11-09 13:09:28.733438$GPGSV,2,1,07,05,20,090,42,10,19,293,42,13,24,045,41,15,61,037,45*74
###2023-11-09 13:09:28.735695$GPGSV,2,2,07,18,78,277,46,23,50,316,45,24,50,134,46,,,,*4E
###2023-11-09 13:09:28.738286$GLGSV,2,1,05,70,50,017,35,71,48,290,47,80,18,090,43,85,57,203,48*6E
###2023-11-09 13:09:28.739910$GLGSV,2,2,05,86,53,308,47,,,,,,,,,,,,*50
###2023-11-09 13:09:28.742483$GAGSV,1,1,04,07,73,259,44,08,48,043,44,13,63,161,44,26,57,310,44*67
###2023-11-09 13:09:28.745078$GBGSV,2,1,06,11,23,180,41,14,65,008,45,24,20,132,43,26,23,081,43*64
###2023-11-09 13:09:28.747040$GBGSV,2,2,06,28,43,287,47,33,59,304,47,,,,,,,,*66
###2023-11-09 13:09:28.748510$GNVTG,100.64,T,,M,1.69,N,3.13,K,A*2F
###2023-11-09 13:09:28.832861$GNGGA,130929.00,3611.0337834,N,07544.9454433,W,1,24,0.6,0.889,M,-39.961,M,0.0,*69
###2023-11-09 13:09:28.835446$GPGSV,2,1,07,05,20,090,42,10,19,293,42,13,24,045,41,15,61,037,45*74
###2023-11-09 13:09:28.837712$GPGSV,2,2,07,18,78,277,46,23,50,316,45,24,50,134,45,,,,*4D
###2023-11-09 13:09:28.840289$GLGSV,2,1,05,70,50,017,35,71,48,290,47,80,18,090,43,85,57,203,48*6E
###2023-11-09 13:09:28.841900$GLGSV,2,2,05,86,53,308,47,,,,,,,,,,,,*50
###2023-11-09 13:09:28.844462$GAGSV,1,1,04,07,73,259,44,08,48,043,44,13,63,161,45,26,57,310,44*66
###2023-11-09 13:09:28.847049$GBGSV,2,1,06,11,23,180,41,14,65,008,45,24,20,132,43,26,23,081,43*64
###2023-11-09 13:09:28.848980$GBGSV,2,2,06,28,43,287,47,33,59,304,47,,,,,,,,*66
###2023-11-09 13:09:28.850436$GNVTG,102.01,T,,M,1.83,N,3.38,K,A*23
###2023-11-09 13:09:28.930996$GNGGA,130929.10,3611.0337692,N,07544.9453823,W,1,24,0.6,0.789,M,-39.961,M,0.0,*6F
###2023-11-09 13:09:28.933601$GPGSV,2,1,07,05,20,090,41,10,19,293,42,13,24,045,41,15,61,037,45*77
###2023-11-09 13:09:28.935854$GPGSV,2,2,07,18,78,277,46,23,50,316,45,24,50,134,45,,,,*4D
###2023-11-09 13:09:28.938479$GLGSV,2,1,05,70,50,017,35,71,48,290,48,80,18,090,43,85,57,203,48*61
###2023-11-09 13:09:28.940098$GLGSV,2,2,05,86,53,308,47,,,,,,,,,,,,*50
###2023-11-09 13:09:28.942666$GAGSV,1,1,04,07,73,259,45,08,48,043,44,13,63,161,45,26,57,310,44*67
###2023-11-09 13:09:28.945234$GBGSV,2,1,06,11,23,180,42,14,65,008,45,24,20,132,42,26,23,081,43*66
###2023-11-09 13:09:28.947192$GBGSV,2,2,06,28,43,287,47,33,59,304,47,,,,,,,,*66
###2023-11-09 13:09:28.948661$GNVTG,107.62,T,,M,1.89,N,3.49,K,A*2F
###2023-11-09 13:09:29.032728$GNGGA,130929.20,3611.0337515,N,07544.9453201,W,1,24,0.6,0.713,M,-39.961,M,0.0,*69
###2023-11-09 13:09:29.035310$GPGSV,2,1,07,05,20,090,41,10,19,293,42,13,24,045,41,15,61,037,46*74
###2023-11-09 13:09:29.037580$GPGSV,2,2,07,18,78,277,47,23,50,316,45,24,50,134,46,,,,*4F
###2023-11-09 13:09:29.040145$GLGSV,2,1,05,70,50,017,35,71,48,290,48,80,18,090,43,85,57,203,48*61
###2023-11-09 13:09:29.041742$GLGSV,2,2,05,86,53,308,47,,,,,,,,,,,,*50
###2023-11-09 13:09:29.044292$GAGSV,1,1,04,07,73,259,45,08,48,043,44,13,63,161,45,26,57,310,45*66
###2023-11-09 13:09:29.046854$GBGSV,2,1,06,11,23,180,42,14,65,008,45,24,20,132,43,26,23,081,42*66
###2023-11-09 13:09:29.048795$GBGSV,2,2,06,28,43,287,47,33,59,304,47,,,,,,,,*66
###2023-11-09 13:09:29.050255$GNVTG,108.88,T,,M,1.96,N,3.64,K,A*25
###2023-11-09 13:09:29.129609$GNGGA,130929.30,3611.0337384,N,07544.9452531,W,1,23,0.6,0.678,M,-39.961,M,0.0,*68
###2023-11-09 13:09:29.132187$GPGSV,2,1,07,05,20,090,41,10,19,293,44,13,24,045,41,15,61,037,46*72
###2023-11-09 13:09:29.134422$GPGSV,2,2,07,18,78,277,47,23,50,316,45,24,50,134,46,,,,*4F
###2023-11-09 13:09:29.136991$GLGSV,1,1,04,71,48,290,48,80,18,090,43,85,57,203,48,86,53,308,47*61
###2023-11-09 13:09:29.139552$GAGSV,1,1,04,07,73,259,45,08,48,043,44,13,63,161,45,26,57,310,45*66
###2023-11-09 13:09:29.142118$GBGSV,2,1,06,11,23,180,42,14,65,008,45,24,20,132,43,26,23,081,42*66
###2023-11-09 13:09:29.144034$GBGSV,2,2,06,28,43,287,47,33,59,304,47,,,,,,,,*66
###2023-11-09 13:09:29.145449$GNVTG,97.04,T,,M,2.08,N,3.85,K,A*1D
###2023-11-09 13:09:29.229967$GNGGA,130929.40,3611.0337358,N,07544.9451791,W,1,24,0.6,0.686,M,-39.961,M,0.0,*63
###2023-11-09 13:09:29.232549$GPGSV,2,1,07,05,20,090,41,10,19,293,45,13,24,045,41,15,61,037,46*73
###2023-11-09 13:09:29.234795$GPGSV,2,2,07,18,78,277,47,23,50,316,45,24,50,134,46,,,,*4F
###2023-11-09 13:09:29.237380$GLGSV,2,1,05,70,50,017,35,71,48,290,48,80,18,090,43,85,57,203,48*61
###2023-11-09 13:09:29.238984$GLGSV,2,2,05,86,53,308,47,,,,,,,,,,,,*50
###2023-11-09 13:09:29.241550$GAGSV,1,1,04,07,73,259,45,08,48,043,44,13,63,161,45,26,57,310,45*66
###2023-11-09 13:09:29.244115$GBGSV,2,1,06,11,23,180,42,14,65,008,45,24,20,132,43,26,23,081,42*66
###2023-11-09 13:09:29.246040$GBGSV,2,2,06,28,43,287,47,33,59,304,47,,,,,,,,*66
###2023-11-09 13:09:29.247484$GNVTG,86.84,T,,M,2.25,N,4.18,K,A*19
###2023-11-09 13:09:29.330359$GNGGA,130929.50,3611.0337413,N,07544.9450994,W,1,24,0.6,0.708,M,-39.961,M,0.0,*67
###2023-11-09 13:09:29.332952$GPGSV,2,1,07,05,20,090,41,10,19,293,45,13,24,045,41,15,61,037,46*73
###2023-11-09 13:09:29.335201$GPGSV,2,2,07,18,78,277,47,23,50,316,45,24,50,134,46,,,,*4F
###2023-11-09 13:09:29.337787$GLGSV,2,1,05,70,50,017,35,71,48,290,48,80,18,090,43,85,57,203,48*61
###2023-11-09 13:09:29.339392$GLGSV,2,2,05,86,53,308,48,,,,,,,,,,,,*5F
###2023-11-09 13:09:29.341958$GAGSV,1,1,04,07,73,259,45,08,48,043,44,13,63,161,44,26,57,310,45*67
###2023-11-09 13:09:29.344532$GBGSV,2,1,06,11,23,180,40,14,65,008,45,24,20,132,43,26,23,081,42*64
###2023-11-09 13:09:29.346464$GBGSV,2,2,06,28,43,287,47,33,59,304,48,,,,,,,,*69
###2023-11-09 13:09:29.347903$GNVTG,82.51,T,,M,2.43,N,4.50,K,A*19
###2023-11-09 13:09:29.429733$GNGGA,130929.60,3611.0337476,N,07544.9450172,W,1,24,0.6,0.736,M,-39.961,M,0.0,*6A
###2023-11-09 13:09:29.432314$GPGSV,2,1,07,05,20,090,41,10,19,293,44,13,24,045,41,15,61,037,46*72
###2023-11-09 13:09:29.434559$GPGSV,2,2,07,18,78,277,47,23,50,316,45,24,50,134,46,,,,*4F
###2023-11-09 13:09:29.437470$GLGSV,2,1,05,70,50,017,35,71,48,290,48,80,18,090,43,85,57,203,48*61
###2023-11-09 13:09:29.439088$GLGSV,2,2,05,86,53,308,48,,,,,,,,,,,,*5F
###2023-11-09 13:09:29.441642$GAGSV,1,1,04,07,73,259,45,08,48,043,44,13,63,161,44,26,57,310,45*67
###2023-11-09 13:09:29.444203$GBGSV,2,1,06,11,23,180,40,14,65,008,45,24,20,132,43,26,23,081,42*64
###2023-11-09 13:09:29.446125$GBGSV,2,2,06,28,43,287,47,33,59,304,48,,,,,,,,*69
###2023-11-09 13:09:29.447565$GNVTG,85.29,T,,M,2.39,N,4.43,K,A*1E
###2023-11-09 13:09:29.531248$GNGGA,130929.70,3611.0337524,N,07544.9449366,W,1,24,0.6,0.752,M,-39.961,M,0.0,*60
###2023-11-09 13:09:29.533853$GPGSV,2,1,07,05,20,090,41,10,19,293,43,13,24,045,41,15,61,037,46*75
###2023-11-09 13:09:29.536111$GPGSV,2,2,07,18,78,277,47,23,50,316,45,24,50,134,46,,,,*4F
###2023-11-09 13:09:29.538697$GLGSV,2,1,05,70,50,017,35,71,48,290,48,80,18,090,43,85,57,203,48*61
