###2023-11-09 13:10:25.346980$GBGSV,2,2,06,28,43,286,47,33,59,305,47,,,,,,,,*66
###2023-11-09 13:10:25.348440$GNVTG,13.41,T,,M,3.62,N,6.70,K,A*12
###2023-11-09 13:10:25.432632$GNGGA,131025.60,3611.0546111,N,07544.8687103,W,1,24,0.6,0.464,M,-39.960,M,0.0,*60
###2023-11-09 13:10:25.435257$GPGSV,2,1,07,05,20,091,43,10,19,294,43,13,23,045,42,15,61,037,45*76
###2023-11-09 13:10:25.437542$GPGSV,2,2,07,18,78,277,46,23,50,316,45,24,50,134,46,,,,*4E
###2023-11-09 13:10:25.440123$GLGSV,2,1,05,70,49,019,36,71,48,291,47,80,19,089,45,85,56,202,47*6A
###2023-11-09 13:10:25.441739$GLGSV,2,2,05,86,54,306,47,,,,,,,,,,,,*59
###2023-11-09 13:10:25.444309$GAGSV,1,1,04,07,73,259,45,08,48,043,45,13,63,161,45,26,57,310,44*66
###2023-11-09 13:10:25.446912$GBGSV,2,1,06,11,22,180,42,14,65,009,46,24,21,132,45,26,23,080,45*64
###2023-11-09 13:10:25.448860$GBGSV,2,2,06,28,43,286,47,33,59,305,47,,,,,,,,*66
###2023-11-09 13:10:25.450290$GNVTG,10.38,T,,M,3.67,N,6.80,K,A*15
###2023-11-09 13:10:25.530348$GNGGA,131025.70,3611.0547124,N,07544.8686923,W,1,24,0.6,0.485,M,-39.960,M,0.0,*62
###2023-11-09 13:10:25.532934$GPGSV,2,1,07,05,20,091,43,10,19,294,43,13,23,045,43,15,61,037,45*77
###2023-11-09 13:10:25.535176$GPGSV,2,2,07,18,78,277,46,23,50,316,45,24,50,134,46,,,,*4E
###2023-11-09 13:10:25.537756$GLGSV,2,1,05,70,49,019,36,71,48,291,47,80,19,089,45,85,56,202,47*6A
###2023-11-09 13:10:25.539354$GLGSV,2,2,05,86,54,306,47,,,,,,,,,,,,*59
###2023-11-09 13:10:25.541911$GAGSV,1,1,04,07,73,259,45,08,48,043,45,13,63,161,45,26,57,310,44*66
###2023-11-09 13:10:25.544476$GBGSV,2,1,06,11,22,180,42,14,65,009,46,24,21,132,45,26,23,080,45*64
###2023-11-09 13:10:25.546400$GBGSV,2,2,06,28,43,286,47,33,59,305,47,,,,,,,,*66
###2023-11-09 13:10:25.547793$GNVTG,6.29,T,,M,3.75,N,6.95,K,A*25
###2023-11-09 13:10:25.630484$GNGGA,131025.80,3611.0548162,N,07544.8686808,W,1,24,0.6,0.510,M,-39.960,M,0.0,*65
###2023-11-09 13:10:25.633094$GPGSV,2,1,07,05,20,091,43,10,19,294,42,13,23,045,43,15,61,037,45*76
###2023-11-09 13:10:25.635359$GPGSV,2,2,07,18,78,277,46,23,50,316,45,24,50,134,46,,,,*4E
###2023-11-09 13:10:25.637959$GLGSV,2,1,05,70,49,019,36,71,48,291,47,80,19,089,45,85,56,202,47*6A
###2023-11-09 13:10:25.639567$GLGSV,2,2,05,86,54,306,47,,,,,,,,,,,,*59
###2023-11-09 13:10:25.642123$GAGSV,1,1,04,07,73,259,45,08,48,043,45,13,63,161,45,26,57,310,44*66
###2023-11-09 13:10:25.644699$GBGSV,2,1,06,11,22,180,42,14,65,009,45,24,21,132,44,26,23,080,45*66
###2023-11-09 13:10:25.646628$GBGSV,2,2,06,28,43,286,47,33,59,305,47,,,,,,,,*66
###2023-11-09 13:10:25.648032$GNVTG,4.35,T,,M,3.81,N,7.06,K,A*2A
###2023-11-09 13:10:25.730344$GNGGA,131025.90,3611.0549222,N,07544.8686742,W,1,24,0.6,0.535,M,-39.960,M,0.0,*64
###2023-11-09 13:10:25.732922$GPGSV,2,1,07,05,20,091,43,10,19,294,42,13,23,045,43,15,61,037,45*76
###2023-11-09 13:10:25.735171$GPGSV,2,2,07,18,78,277,46,23,50,316,45,24,50,134,46,,,,*4E
###2023-11-09 13:10:25.737765$GLGSV,2,1,05,70,49,019,36,71,48,291,47,80,19,089,45,85,56,202,47*6A
###2023-11-09 13:10:25.739372$GLGSV,2,2,05,86,54,306,47,,,,,,,,,,,,*59
###2023-11-09 13:10:25.741930$GAGSV,1,1,04,07,73,259,45,08,48,043,45,13,63,161,45,26,57,310,44*66
###2023-11-09 13:10:25.744500$GBGSV,2,1,06,11,22,180,42,14,65,009,45,24,21,132,44,26,23,080,45*66
###2023-11-09 13:10:25.746434$GBGSV,2,2,06,28,43,286,46,33,59,305,47,,,,,,,,*67
###2023-11-09 13:10:25.747842$GNVTG,1.90,T,,M,3.89,N,7.20,K,A*2C
###2023-11-09 13:10:25.833215$GNGGA,131026.00,3611.0550302,N,07544.8686717,W,1,24,0.6,0.563,M,-39.960,M,0.0,*66
###2023-11-09 13:10:25.835780$GPGSV,2,1,07,05,20,091,43,10,19,294,42,13,23,045,43,15,61,037,45*76
###2023-11-09 13:10:25.838045$GPGSV,2,2,07,18,78,277,46,23,50,316,45,24,50,134,46,,,,*4E
###2023-11-09 13:10:25.840608$GLGSV,2,1,05,70,49,019,36,71,48,291,48,80,19,089,45,85,56,202,48*6A
###2023-11-09 13:10:25.842218$GLGSV,2,2,05,86,54,306,47,,,,,,,,,,,,*59
###2023-11-09 13:10:25.844798$GAGSV,1,1,04,07,73,259,45,08,48,043,45,13,63,161,45,26,57,310,44*66
###2023-11-09 13:10:25.847416$GBGSV,2,1,06,11,22,180,42,14,65,009,45,24,21,132,44,26,23,080,45*66
###2023-11-09 13:10:25.849352$GBGSV,2,2,06,28,43,286,46,33,59,305,47,,,,,,,,*67
###2023-11-09 13:10:25.850741$GNVTG,0.66,T,,M,3.93,N,7.27,K,A*28
###2023-11-09 13:10:25.932243$GNGGA,131026.10,3611.0551395,N,07544.8686737,W,1,24,0.6,0.592,M,-39.960,M,0.0,*64
###2023-11-09 13:10:25.934846$GPGSV,2,1,07,05,20,091,43,10,19,294,42,13,23,045,43,15,60,038,45*78
###2023-11-09 13:10:25.937115$GPGSV,2,2,07,18,78,277,46,23,50,316,45,24,50,134,46,,,,*4E
###2023-11-09 13:10:25.939692$GLGSV,2,1,05,70,49,019,36,71,48,291,48,80,19,089,45,85,56,202,48*6A
###2023-11-09 13:10:25.941297$GLGSV,2,2,05,86,54,306,47,,,,,,,,,,,,*59
###2023-11-09 13:10:25.943862$GAGSV,1,1,04,07,73,259,45,08,48,043,45,13,63,161,45,26,57,310,44*66
###2023-11-09 13:10:25.946429$GBGSV,2,1,06,11,22,180,42,14,65,009,45,24,21,132,44,26,23,080,45*66
###2023-11-09 13:10:25.948370$GBGSV,2,2,06,28,43,286,46,33,59,305,47,,,,,,,,*67
###2023-11-09 13:10:25.949827$GNVTG,357.90,T,,M,3.98,N,7.38,K,A*25
###2023-11-09 13:10:26.034272$GNGGA,131026.20,3611.0552508,N,07544.8686822,W,1,24,0.6,0.623,M,-39.960,M,0.0,*64
###2023-11-09 13:10:26.036884$GPGSV,2,1,07,05,20,091,43,10,19,294,42,13,23,045,43,15,60,038,45*78
###2023-11-09 13:10:26.039153$GPGSV,2,2,07,18,78,277,46,23,50,316,45,24,50,134,46,,,,*4E
###2023-11-09 13:10:26.041725$GLGSV,2,1,05,70,49,019,36,71,48,291,48,80,19,089,45,85,56,202,48*6A
###2023-11-09 13:10:26.043333$GLGSV,2,2,05,86,54,306,47,,,,,,,,,,,,*59
###2023-11-09 13:10:26.045902$GAGSV,1,1,04,07,73,259,45,08,48,043,45,13,63,161,45,26,57,310,44*66
###2023-11-09 13:10:26.048479$GBGSV,2,1,06,11,22,180,42,14,65,009,45,24,21,132,44,26,23,080,45*66
###2023-11-09 13:10:26.050405$GBGSV,2,2,06,28,43,286,46,33,59,305,47,,,,,,,,*67
###2023-11-09 13:10:26.051867$GNVTG,355.15,T,,M,4.10,N,7.60,K,A*20
###2023-11-09 13:10:26.134124$GNGGA,131026.30,3611.0553632,N,07544.8686977,W,1,24,0.6,0.650,M,-39.960,M,0.0,*6B
###2023-11-09 13:10:26.136700$GPGSV,2,1,07,05,20,091,43,10,19,294,42,13,23,045,43,15,60,038,45*78
###2023-11-09 13:10:26.138956$GPGSV,2,2,07,18,78,277,46,23,50,316,45,24,50,134,46,,,,*4E
###2023-11-09 13:10:26.141526$GLGSV,2,1,05,70,49,019,36,71,48,291,48,80,19,089,45,85,56,202,48*6A
###2023-11-09 13:10:26.143117$GLGSV,2,2,05,86,54,306,48,,,,,,,,,,,,*56
###2023-11-09 13:10:26.145669$GAGSV,1,1,04,07,73,259,45,08,48,043,45,13,63,161,45,26,57,310,44*66
###2023-11-09 13:10:26.148236$GBGSV,2,1,06,11,22,180,42,14,65,009,45,24,21,132,44,26,23,080,45*66
###2023-11-09 13:10:26.150154$GBGSV,2,2,06,28,43,286,47,33,59,305,47,,,,,,,,*66
###2023-11-09 13:10:26.151604$GNVTG,352.78,T,,M,4.08,N,7.56,K,A*20
###2023-11-09 13:10:26.230341$GNGGA,131026.40,3611.0554759,N,07544.8687165,W,1,24,0.6,0.679,M,-39.960,M,0.0,*66
###2023-11-09 13:10:26.232937$GPGSV,2,1,07,05,20,091,43,10,19,294,42,13,23,045,43,15,60,038,44*79
###2023-11-09 13:10:26.235190$GPGSV,2,2,07,18,78,277,46,23,50,316,45,24,50,134,46,,,,*4E
###2023-11-09 13:10:26.237778$GLGSV,2,1,05,70,49,019,36,71,48,291,47,80,19,089,45,85,56,202,47*6A
###2023-11-09 13:10:26.239384$GLGSV,2,2,05,86,54,306,48,,,,,,,,,,,,*56
###2023-11-09 13:10:26.241945$GAGSV,1,1,04,07,73,259,45,08,48,043,45,13,63,161,45,26,57,310,44*66
###2023-11-09 13:10:26.244515$GBGSV,2,1,06,11,22,180,42,14,65,009,45,24,21,132,44,26,23,080,44*67
###2023-11-09 13:10:26.246450$GBGSV,2,2,06,28,43,286,47,33,59,305,47,,,,,,,,*66
###2023-11-09 13:10:26.247926$GNVTG,352.27,T,,M,4.14,N,7.67,K,A*25
###2023-11-09 13:10:26.331855$GNGGA,131026.50,3611.0555902,N,07544.8687364,W,1,24,0.6,0.708,M,-39.960,M,0.0,*62
###2023-11-09 13:10:26.334431$GPGSV,2,1,07,05,20,091,43,10,19,294,42,13,23,045,42,15,60,038,44*78
###2023-11-09 13:10:26.336679$GPGSV,2,2,07,18,78,277,46,23,50,316,45,24,50,134,46,,,,*4E
###2023-11-09 13:10:26.339265$GLGSV,2,1,05,70,49,019,36,71,48,291,47,80,19,089,45,85,56,202,47*6A
###2023-11-09 13:10:26.340864$GLGSV,2,2,05,86,54,306,48,,,,,,,,,,,,*56
###2023-11-09 13:10:26.343430$GAGSV,1,1,04,07,73,259,45,08,48,043,45,13,63,161,45,26,57,310,44*66
###2023-11-09 13:10:26.346017$GBGSV,2,1,06,11,22,180,42,14,65,009,45,24,21,132,44,26,23,080,44*67
###2023-11-09 13:10:26.347988$GBGSV,2,2,06,28,43,286,47,33,59,305,47,,,,,,,,*66
###2023-11-09 13:10:26.349769$GNVTG,351.82,T,,M,4.22,N,7.81,K,A*24
###2023-11-09 13:10:26.430485$GNGGA,131026.60,3611.0557046,N,07544.8687580,W,1,24,0.6,0.733,M,-39.960,M,0.0,*6E
###2023-11-09 13:10:26.433071$GPGSV,2,1,07,05,20,091,43,10,19,294,42,13,23,045,42,15,60,038,44*78
###2023-11-09 13:10:26.435319$GPGSV,2,2,07,18,78,277,46,23,50,316,46,24,50,134,46,,,,*4D
###2023-11-09 13:10:26.437930$GLGSV,2,1,05,70,49,019,36,71,48,291,47,80,19,089,45,85,56,202,48*65
###2023-11-09 13:10:26.439532$GLGSV,2,2,05,86,54,306,48,,,,,,,,,,,,*56
###2023-11-09 13:10:26.442089$GAGSV,1,1,04,07,73,259,45,08,48,043,45,13,63,161,45,26,57,310,44*66
###2023-11-09 13:10:26.444665$GBGSV,2,1,06,11,22,180,42,14,65,009,45,24,21,132,44,26,23,080,44*67
###2023-11-09 13:10:26.446590$GBGSV,2,2,06,28,43,286,47,33,59,305,47,,,,,,,,*66
