###2023-11-09 13:09:20.630078$GNGGA,130920.80,3611.0329794,N,07544.9529422,W,1,24,0.6,0.689,M,-39.961,M,0.0,*67
###2023-11-09 13:09:20.632754$GPGSV,2,1,07,05,20,090,41,10,19,293,44,13,24,045,40,15,61,037,45*70
###2023-11-09 13:09:20.635091$GPGSV,2,2,07,18,78,277,47,23,50,316,45,24,50,134,46,,,,*4F
###2023-11-09 13:09:20.637778$GLGSV,2,1,05,70,50,017,35,71,48,290,48,80,18,090,42,85,57,203,47*6F
###2023-11-09 13:09:20.639453$GLGSV,2,2,05,86,53,308,47,,,,,,,,,,,,*50
###2023-11-09 13:09:20.642103$GAGSV,1,1,04,07,73,259,45,08,48,043,45,13,63,161,45,26,57,310,44*66
###2023-11-09 13:09:20.644756$GBGSV,2,1,06,11,23,180,40,14,65,008,45,24,20,132,42,26,23,081,42*65
###2023-11-09 13:09:20.646758$GBGSV,2,2,06,28,43,287,46,33,59,304,47,,,,,,,,*67
###2023-11-09 13:09:20.648255$GNVTG,74.39,T,,M,2.39,N,4.43,K,A*11
###2023-11-09 13:09:20.730176$GNGGA,130920.90,3611.0329893,N,07544.9528598,W,1,24,0.6,0.676,M,-39.961,M,0.0,*6F
###2023-11-09 13:09:20.732816$GPGSV,2,1,07,05,20,090,40,10,19,293,44,13,24,045,40,15,61,037,45*71
###2023-11-09 13:09:20.735080$GPGSV,2,2,07,18,78,277,47,23,50,316,45,24,50,134,45,,,,*4C
###2023-11-09 13:09:20.737709$GLGSV,2,1,05,70,50,017,35,71,48,290,49,80,18,090,42,85,57,203,47*6E
###2023-11-09 13:09:20.739323$GLGSV,2,2,05,86,53,308,48,,,,,,,,,,,,*5F
###2023-11-09 13:09:20.741899$GAGSV,1,1,04,07,73,259,45,08,48,043,45,13,63,161,44,26,57,310,44*67
###2023-11-09 13:09:20.744478$GBGSV,2,1,06,11,23,180,40,14,65,008,45,24,20,132,42,26,23,081,42*65
###2023-11-09 13:09:20.746414$GBGSV,2,2,06,28,43,287,47,33,59,304,47,,,,,,,,*66
###2023-11-09 13:09:20.747852$GNVTG,87.65,T,,M,2.53,N,4.68,K,A*11
###2023-11-09 13:09:20.832247$GNGGA,130921.00,3611.0329871,N,07544.9527727,W,1,24,0.6,0.674,M,-39.961,M,0.0,*60
###2023-11-09 13:09:20.834846$GPGSV,2,1,07,05,20,090,41,10,19,293,44,13,24,045,40,15,61,037,45*70
###2023-11-09 13:09:20.837121$GPGSV,2,2,07,18,78,277,47,23,50,316,45,24,50,134,45,,,,*4C
###2023-11-09 13:09:20.839703$GLGSV,2,1,05,70,50,017,35,71,48,290,48,80,18,090,43,85,57,203,47*6E
###2023-11-09 13:09:20.841310$GLGSV,2,2,05,86,53,308,47,,,,,,,,,,,,*50
###2023-11-09 13:09:20.843877$GAGSV,1,1,04,07,73,259,45,08,48,043,45,13,63,161,44,26,57,310,44*67
###2023-11-09 13:09:20.846457$GBGSV,2,1,06,11,23,180,40,14,65,008,45,24,20,132,42,26,23,081,42*65
###2023-11-09 13:09:20.848430$GBGSV,2,2,06,28,43,287,47,33,59,304,47,,,,,,,,*66
###2023-11-09 13:09:20.849881$GNVTG,94.96,T,,M,2.59,N,4.79,K,A*15
###2023-11-09 13:09:20.931132$GNGGA,130921.10,3611.0329808,N,07544.9526851,W,1,24,0.6,0.667,M,-39.961,M,0.0,*62
###2023-11-09 13:09:20.933732$GPGSV,2,1,07,05,20,090,42,10,19,293,44,13,24,045,40,15,61,037,45*73
###2023-11-09 13:09:20.936000$GPGSV,2,2,07,18,78,277,47,23,50,316,44,24,50,134,46,,,,*4E
###2023-11-09 13:09:20.938610$GLGSV,2,1,05,70,50,017,35,71,48,290,48,80,18,090,44,85,57,203,48*66
###2023-11-09 13:09:20.940225$GLGSV,2,2,05,86,53,308,47,,,,,,,,,,,,*50
###2023-11-09 13:09:20.942801$GAGSV,1,1,04,07,73,259,45,08,48,043,45,13,63,161,44,26,57,310,44*67
###2023-11-09 13:09:20.945387$GBGSV,2,1,06,11,23,180,41,14,65,008,45,24,20,132,44,26,23,081,42*62
###2023-11-09 13:09:20.947339$GBGSV,2,2,06,28,43,287,47,33,59,304,46,,,,,,,,*67
###2023-11-09 13:09:20.948776$GNVTG,94.44,T,,M,2.57,N,4.75,K,A*18
###2023-11-09 13:09:21.032864$GNGGA,130921.20,3611.0329809,N,07544.9526016,W,1,24,0.6,0.670,M,-39.961,M,0.0,*6D
###2023-11-09 13:09:21.035454$GPGSV,2,1,07,05,20,090,43,10,19,293,43,13,24,045,40,15,61,037,44*74
###2023-11-09 13:09:21.037717$GPGSV,2,2,07,18,78,277,47,23,50,316,43,24,50,134,46,,,,*49
###2023-11-09 13:09:21.040282$GLGSV,2,1,05,70,50,017,35,71,48,290,48,80,18,090,44,85,57,203,49*67
###2023-11-09 13:09:21.041887$GLGSV,2,2,05,86,53,308,47,,,,,,,,,,,,*50
###2023-11-09 13:09:21.044449$GAGSV,1,1,04,07,73,259,45,08,48,043,44,13,63,161,45,26,57,310,43*60
###2023-11-09 13:09:21.047029$GBGSV,2,1,06,11,23,180,43,14,65,008,44,24,20,132,44,26,23,081,42*61
###2023-11-09 13:09:21.048954$GBGSV,2,2,06,28,43,287,47,33,59,304,46,,,,,,,,*67
###2023-11-09 13:09:21.050378$GNVTG,84.26,T,,M,2.35,N,4.36,K,A*1E
###2023-11-09 13:09:21.129904$GNGGA,130921.30,3611.0329973,N,07544.9525261,W,1,24,0.6,0.700,M,-39.961,M,0.0,*67
###2023-11-09 13:09:21.132511$GPGSV,2,1,07,05,20,090,43,10,19,293,43,13,24,045,40,15,61,037,44*74
###2023-11-09 13:09:21.134778$GPGSV,2,2,07,18,78,277,47,23,50,316,43,24,50,134,46,,,,*49
###2023-11-09 13:09:21.137370$GLGSV,2,1,05,70,50,017,35,71,48,290,48,80,18,090,44,85,57,203,49*67
###2023-11-09 13:09:21.138987$GLGSV,2,2,05,86,53,308,46,,,,,,,,,,,,*51
###2023-11-09 13:09:21.141559$GAGSV,1,1,04,07,73,259,45,08,48,043,44,13,63,161,45,26,57,310,43*60
###2023-11-09 13:09:21.144150$GBGSV,2,1,06,11,23,180,43,14,65,008,44,24,20,132,44,26,23,081,42*61
###2023-11-09 13:09:21.146086$GBGSV,2,2,06,28,43,287,47,33,59,304,46,,,,,,,,*67
###2023-11-09 13:09:21.147532$GNVTG,65.03,T,,M,2.29,N,4.25,K,A*19
###2023-11-09 13:09:21.230483$GNGGA,130921.40,3611.0330299,N,07544.9524594,W,1,24,0.6,0.745,M,-39.961,M,0.0,*6A
###2023-11-09 13:09:21.233073$GPGSV,2,1,07,05,20,090,43,10,19,293,43,13,24,045,40,15,61,037,45*75
###2023-11-09 13:09:21.235332$GPGSV,2,2,07,18,78,277,47,23,50,316,43,24,50,134,46,,,,*49
###2023-11-09 13:09:21.237942$GLGSV,2,1,05,70,50,017,35,71,48,290,48,80,18,090,44,85,57,203,49*67
###2023-11-09 13:09:21.239564$GLGSV,2,2,05,86,53,308,47,,,,,,,,,,,,*50
###2023-11-09 13:09:21.242137$GAGSV,1,1,04,07,73,259,45,08,48,043,44,13,63,161,45,26,57,310,43*60
###2023-11-09 13:09:21.244711$GBGSV,2,1,06,11,23,180,42,14,65,008,44,24,20,132,44,26,23,081,43*61
###2023-11-09 13:09:21.246654$GBGSV,2,2,06,28,43,287,47,33,59,304,46,,,,,,,,*67
###2023-11-09 13:09:21.248092$GNVTG,52.96,T,,M,2.31,N,4.28,K,A*15
###2023-11-09 13:09:21.329487$GNGGA,130921.50,3611.0330677,N,07544.9523971,W,1,24,0.6,0.798,M,-39.961,M,0.0,*6F
###2023-11-09 13:09:21.332060$GPGSV,2,1,07,05,20,090,42,10,19,293,44,13,24,045,40,15,61,037,45*73
###2023-11-09 13:09:21.334311$GPGSV,2,2,07,18,78,277,47,23,50,316,45,24,50,134,46,,,,*4F
###2023-11-09 13:09:21.336869$GLGSV,2,1,05,70,50,017,35,71,48,290,48,80,18,090,44,85,57,203,48*66
###2023-11-09 13:09:21.338603$GLGSV,2,2,05,86,53,308,48,,,,,,,,,,,,*5F
###2023-11-09 13:09:21.341188$GAGSV,1,1,04,07,73,259,46,08,48,043,44,13,63,161,45,26,57,310,44*64
###2023-11-09 13:09:21.343763$GBGSV,2,1,06,11,23,180,40,14,65,008,44,24,20,132,43,26,23,081,43*64
###2023-11-09 13:09:21.345700$GBGSV,2,2,06,28,43,287,47,33,59,304,48,,,,,,,,*69
###2023-11-09 13:09:21.347142$GNVTG,53.44,T,,M,2.25,N,4.18,K,A*1D
###2023-11-09 13:09:21.429562$GNGGA,130921.60,3611.0330980,N,07544.9523326,W,1,24,0.6,0.847,M,-39.961,M,0.0,*6E
###2023-11-09 13:09:21.432191$GPGSV,2,1,07,05,20,090,41,10,19,293,44,13,24,045,41,15,61,037,45*71
###2023-11-09 13:09:21.434465$GPGSV,2,2,07,18,78,277,47,23,50,316,45,24,50,134,46,,,,*4F
###2023-11-09 13:09:21.437077$GLGSV,2,1,05,70,50,017,35,71,48,290,49,80,18,090,44,85,57,203,47*68
###2023-11-09 13:09:21.438698$GLGSV,2,2,05,86,53,308,48,,,,,,,,,,,,*5F
###2023-11-09 13:09:21.441290$GAGSV,1,1,04,07,73,259,46,08,48,043,45,13,63,161,44,26,57,310,45*65
###2023-11-09 13:09:21.443880$GBGSV,2,1,06,11,23,180,40,14,65,008,44,24,20,132,41,26,23,081,42*67
###2023-11-09 13:09:21.445833$GBGSV,2,2,06,28,43,287,47,33,59,304,48,,,,,,,,*69
###2023-11-09 13:09:21.447287$GNVTG,66.37,T,,M,2.16,N,4.00,K,A*16
###2023-11-09 13:09:21.531016$GNGGA,130921.70,3611.0331124,N,07544.9522624,W,1,24,0.6,0.885,M,-39.961,M,0.0,*60
###2023-11-09 13:09:21.533605$GPGSV,2,1,07,05,20,090,41,10,19,293,44,13,24,045,41,15,61,037,46*72
###2023-11-09 13:09:21.535864$GPGSV,2,2,07,18,78,277,47,23,50,316,45,24,50,134,45,,,,*4C
###2023-11-09 13:09:21.538466$GLGSV,2,1,05,70,50,017,35,71,48,290,49,80,18,090,44,85,57,203,47*68
###2023-11-09 13:09:21.540084$GLGSV,2,2,05,86,53,308,48,,,,,,,,,,,,*5F
###2023-11-09 13:09:21.542659$GAGSV,1,1,04,07,73,259,46,08,48,043,45,13,63,161,44,26,57,310,45*65
###2023-11-09 13:09:21.545253$GBGSV,2,1,06,11,23,180,38,14,65,008,45,24,20,132,41,26,23,081,42*69
###2023-11-09 13:09:21.547208$GBGSV,2,2,06,28,43,287,47,33,59,304,48,,,,,,,,*69
###2023-11-09 13:09:21.548641$GNVTG,84.90,T,,M,2.18,N,4.03,K,A*1A
###2023-11-09 13:09:21.629880$GNGGA,130921.80,3611.0331120,N,07544.9521891,W,1,24,0.6,0.912,M,-39.961,M,0.0,*67
###2023-11-09 13:09:21.632775$GPGSV,2,1,07,05,20,090,41,10,19,293,43,13,24,045,41,15,61,037,46*75
###2023-11-09 13:09:21.635030$GPGSV,2,2,07,18,78,277,47,23,50,316,45,24,50,134,45,,,,*4C
###2023-11-09 13:09:21.637611$GLGSV,2,1,05,70,50,017,35,71,48,290,48,80,18,090,43,85,57,203,48*61
###2023-11-09 13:09:21.639216$GLGSV,2,2,05,86,53,308,48,,,,,,,,,,,,*5F
###2023-11-09 13:09:21.641787$GAGSV,1,1,04,07,73,259,46,08,48,043,45,13,63,161,44,26,57,310,45*65
###2023-11-09 13:09:21.644355$GBGSV,2,1,06,11,23,180,40,14,65,008,45,24,20,132,41,26,23,081,42*66
###2023-11-09 13:09:21.646283$GBGSV,2,2,06,28,43,287,47,33,59,304,47,,,,,,,,*66
###2023-11-09 13:09:21.647720$GNVTG,95.14,T,,M,2.16,N,4.00,K,A*1B
###2023-11-09 13:09:21.729904$GNGGA,130921.90,3611.0331056,N,07544.9521175,W,1,24,0.6,0.910,M,-39.961,M,0.0,*67
