###2023-11-09 13:07:51.634385$GPGSV,2,2,07,18,77,281,46,23,50,315,46,24,49,136,44,,,,*40
###2023-11-09 13:07:51.636993$GLGSV,2,1,05,70,50,016,37,71,48,288,49,80,17,091,45,85,58,203,47*62
###2023-11-09 13:07:51.638603$GLGSV,2,2,05,86,52,309,48,,,,,,,,,,,,*5F
###2023-11-09 13:07:51.641173$GAGSV,1,1,04,07,72,257,44,08,49,042,46,13,64,160,45,26,56,310,44*6C
###2023-11-09 13:07:51.643755$GBGSV,2,1,06,11,23,180,39,14,65,008,46,24,20,132,42,26,23,081,43*69
###2023-11-09 13:07:51.645715$GBGSV,2,2,06,28,43,287,47,33,59,304,47,,,,,,,,*66
###2023-11-09 13:07:51.647231$GNVTG,260.72,T,,M,3.05,N,5.65,K,A*22
###2023-11-09 13:07:51.729287$GNGGA,130751.90,3611.0476303,N,07544.9698959,W,1,24,0.6,0.705,M,-39.961,M,0.0,*64
###2023-11-09 13:07:51.731902$GPGSV,2,1,07,05,21,090,43,10,18,292,44,13,24,045,43,15,62,037,46*70
###2023-11-09 13:07:51.734175$GPGSV,2,2,07,18,77,281,46,23,50,315,46,24,49,136,44,,,,*40
###2023-11-09 13:07:51.736753$GLGSV,2,1,05,70,50,016,37,71,48,288,49,80,17,091,45,85,58,203,47*62
###2023-11-09 13:07:51.738393$GLGSV,2,2,05,86,52,309,48,,,,,,,,,,,,*5F
###2023-11-09 13:07:51.740987$GAGSV,1,1,04,07,72,257,44,08,49,042,46,13,64,160,45,26,56,310,45*6D
###2023-11-09 13:07:51.743592$GBGSV,2,1,06,11,23,180,39,14,65,008,46,24,20,132,43,26,23,081,44*6F
###2023-11-09 13:07:51.745550$GBGSV,2,2,06,28,43,287,47,33,59,304,47,,,,,,,,*66
###2023-11-09 13:07:51.747052$GNVTG,261.05,T,,M,3.17,N,5.87,K,A*2C
###2023-11-09 13:07:51.833508$GNGGA,130752.00,3611.0476168,N,07544.9700064,W,1,24,0.6,0.711,M,-39.961,M,0.0,*63
###2023-11-09 13:07:51.836097$GPGSV,2,1,07,05,21,090,43,10,18,292,44,13,24,045,43,15,62,037,46*70
###2023-11-09 13:07:51.838368$GPGSV,2,2,07,18,77,281,46,23,50,315,46,24,49,136,44,,,,*40
###2023-11-09 13:07:51.840932$GLGSV,2,1,05,70,50,016,36,71,48,288,49,80,17,091,45,85,58,203,47*63
###2023-11-09 13:07:51.842538$GLGSV,2,2,05,86,52,309,48,,,,,,,,,,,,*5F
###2023-11-09 13:07:51.845107$GAGSV,1,1,04,07,72,257,44,08,49,042,46,13,64,160,45,26,56,310,45*6D
###2023-11-09 13:07:51.847702$GBGSV,2,1,06,11,23,180,39,14,65,008,46,24,20,132,43,26,23,081,44*6F
###2023-11-09 13:07:51.849649$GBGSV,2,2,06,28,43,287,47,33,59,304,47,,,,,,,,*66
###2023-11-09 13:07:51.851123$GNVTG,261.40,T,,M,3.36,N,6.23,K,A*23
###2023-11-09 13:07:51.932362$GNGGA,130752.10,3611.0476048,N,07544.9701219,W,1,24,0.6,0.716,M,-39.961,M,0.0,*6F
###2023-11-09 13:07:51.934954$GPGSV,2,1,07,05,21,090,43,10,18,292,44,13,24,045,43,15,62,037,46*70
###2023-11-09 13:07:51.937213$GPGSV,2,2,07,18,77,281,46,23,50,315,46,24,49,136,45,,,,*41
###2023-11-09 13:07:51.939774$GLGSV,2,1,05,70,50,016,36,71,48,288,48,80,17,091,45,85,58,203,48*6D
###2023-11-09 13:07:51.941382$GLGSV,2,2,05,86,52,309,48,,,,,,,,,,,,*5F
###2023-11-09 13:07:51.943948$GAGSV,1,1,04,07,72,257,44,08,49,042,46,13,64,160,45,26,56,310,45*6D
###2023-11-09 13:07:51.946513$GBGSV,2,1,06,11,23,180,40,14,65,008,46,24,20,132,44,26,23,081,44*66
###2023-11-09 13:07:51.948450$GBGSV,2,2,06,28,43,287,47,33,59,304,47,,,,,,,,*66
###2023-11-09 13:07:51.949907$GNVTG,263.52,T,,M,3.46,N,6.41,K,A*21
###2023-11-09 13:07:52.032355$GNGGA,130752.20,3611.0476009,N,07544.9702419,W,1,24,0.6,0.706,M,-39.961,M,0.0,*6D
###2023-11-09 13:07:52.034951$GPGSV,2,1,07,05,21,090,43,10,18,292,44,13,24,045,43,15,62,037,45*73
###2023-11-09 13:07:52.037222$GPGSV,2,2,07,18,77,281,46,23,50,315,45,24,49,136,45,,,,*42
###2023-11-09 13:07:52.039811$GLGSV,2,1,05,70,50,016,36,71,48,288,48,80,17,091,45,85,58,203,48*6D
###2023-11-09 13:07:52.041420$GLGSV,2,2,05,86,52,309,48,,,,,,,,,,,,*5F
###2023-11-09 13:07:52.043995$GAGSV,1,1,04,07,72,257,44,08,49,042,45,13,64,160,45,26,56,310,45*6E
###2023-11-09 13:07:52.046569$GBGSV,2,1,06,11,23,180,41,14,65,008,45,24,20,132,44,26,23,081,44*64
###2023-11-09 13:07:52.048521$GBGSV,2,2,06,28,43,287,47,33,59,304,47,,,,,,,,*66
###2023-11-09 13:07:52.049987$GNVTG,271.16,T,,M,3.56,N,6.59,K,A*2A
###2023-11-09 13:07:52.132377$GNGGA,130752.30,3611.0476047,N,07544.9703646,W,1,24,0.6,0.703,M,-39.961,M,0.0,*6A
###2023-11-09 13:07:52.134969$GPGSV,2,1,07,05,21,090,43,10,18,292,44,13,24,045,43,15,62,037,45*73
###2023-11-09 13:07:52.137238$GPGSV,2,2,07,18,77,281,46,23,50,315,45,24,49,136,45,,,,*42
###2023-11-09 13:07:52.139808$GLGSV,2,1,05,70,50,016,36,71,48,288,48,80,17,091,45,85,58,203,48*6D
###2023-11-09 13:07:52.141420$GLGSV,2,2,05,86,52,309,48,,,,,,,,,,,,*5F
###2023-11-09 13:07:52.143974$GAGSV,1,1,04,07,72,257,44,08,49,042,45,13,64,160,45,26,56,310,45*6E
###2023-11-09 13:07:52.146553$GBGSV,2,1,06,11,23,180,41,14,65,008,45,24,20,132,44,26,23,081,44*64
###2023-11-09 13:07:52.148498$GBGSV,2,2,06,28,43,287,46,33,59,304,47,,,,,,,,*67
###2023-11-09 13:07:52.149968$GNVTG,272.98,T,,M,3.62,N,6.70,K,A*23
###2023-11-09 13:07:52.230468$GNGGA,130752.40,3611.0476128,N,07544.9704908,W,1,24,0.6,0.708,M,-39.961,M,0.0,*6C
###2023-11-09 13:07:52.233039$GPGSV,2,1,07,05,21,090,43,10,18,292,44,13,24,045,43,15,62,037,45*73
###2023-11-09 13:07:52.235276$GPGSV,2,2,07,18,77,281,46,23,50,315,46,24,49,136,45,,,,*41
###2023-11-09 13:07:52.237857$GLGSV,2,1,05,70,50,016,36,71,48,288,48,80,17,091,45,85,58,203,48*6D
###2023-11-09 13:07:52.239455$GLGSV,2,2,05,86,52,309,48,,,,,,,,,,,,*5F
###2023-11-09 13:07:52.241998$GAGSV,1,1,04,07,72,257,44,08,49,042,45,13,64,160,45,26,56,310,45*6E
###2023-11-09 13:07:52.244568$GBGSV,2,1,06,11,23,180,41,14,65,008,45,24,20,132,44,26,23,081,43*63
###2023-11-09 13:07:52.246504$GBGSV,2,2,06,28,43,287,46,33,59,304,47,,,,,,,,*67
###2023-11-09 13:07:52.247995$GNVTG,275.68,T,,M,3.79,N,7.02,K,A*25
###2023-11-09 13:07:52.331744$GNGGA,130752.50,3611.0476216,N,07544.9706200,W,1,24,0.6,0.718,M,-39.961,M,0.0,*63
###2023-11-09 13:07:52.334353$GPGSV,2,1,07,05,21,090,43,10,18,292,44,13,24,045,43,15,62,037,45*73
###2023-11-09 13:07:52.336606$GPGSV,2,2,07,18,77,281,46,23,50,315,46,24,49,136,45,,,,*41
###2023-11-09 13:07:52.339200$GLGSV,2,1,05,70,50,016,36,71,48,288,49,80,17,091,45,85,58,203,48*6C
###2023-11-09 13:07:52.340801$GLGSV,2,2,05,86,52,309,48,,,,,,,,,,,,*5F
###2023-11-09 13:07:52.343371$GAGSV,1,1,04,07,72,257,44,08,49,042,45,13,64,160,45,26,56,310,45*6E
###2023-11-09 13:07:52.345934$GBGSV,2,1,06,11,23,180,41,14,65,008,46,24,20,132,44,26,23,081,44*67
###2023-11-09 13:07:52.347872$GBGSV,2,2,06,28,43,287,46,33,59,304,47,,,,,,,,*67
###2023-11-09 13:07:52.349337$GNVTG,273.77,T,,M,3.79,N,7.02,K,A*2D
###2023-11-09 13:07:52.431240$GNGGA,130752.60,3611.0476252,N,07544.9707517,W,1,24,0.6,0.728,M,-39.961,M,0.0,*63
###2023-11-09 13:07:52.433837$GPGSV,2,1,07,05,21,090,43,10,18,292,44,13,24,045,43,15,62,037,45*73
###2023-11-09 13:07:52.436084$GPGSV,2,2,07,18,77,281,46,23,50,315,46,24,49,136,45,,,,*41
###2023-11-09 13:07:52.438689$GLGSV,2,1,05,70,50,016,36,71,48,288,49,80,17,091,45,85,58,203,47*63
###2023-11-09 13:07:52.440301$GLGSV,2,2,05,86,52,309,48,,,,,,,,,,,,*5F
###2023-11-09 13:07:52.442874$GAGSV,1,1,04,07,72,257,44,08,49,042,45,13,64,160,45,26,56,310,45*6E
###2023-11-09 13:07:52.445457$GBGSV,2,1,06,11,23,180,39,14,65,008,46,24,20,132,44,26,23,081,43*6F
###2023-11-09 13:07:52.447413$GBGSV,2,2,06,28,43,287,46,33,59,304,47,,,,,,,,*67
###2023-11-09 13:07:52.448877$GNVTG,270.02,T,,M,3.89,N,7.20,K,A*23
###2023-11-09 13:07:52.530509$GNGGA,130752.70,3611.0476262,N,07544.9708854,W,1,24,0.6,0.744,M,-39.961,M,0.0,*6E
###2023-11-09 13:07:52.533103$GPGSV,2,1,07,05,21,090,43,10,18,292,44,13,24,045,43,15,62,037,45*73
###2023-11-09 13:07:52.535351$GPGSV,2,2,07,18,77,281,46,23,50,315,46,24,49,136,45,,,,*41
###2023-11-09 13:07:52.537927$GLGSV,2,1,05,70,50,016,36,71,48,288,49,80,17,091,45,85,58,203,47*63
###2023-11-09 13:07:52.539527$GLGSV,2,2,05,86,52,309,48,,,,,,,,,,,,*5F
###2023-11-09 13:07:52.542075$GAGSV,1,1,04,07,72,257,44,08,49,042,45,13,64,160,45,26,56,310,45*6E
###2023-11-09 13:07:52.544645$GBGSV,2,1,06,11,23,180,39,14,65,008,46,24,20,132,44,26,23,081,43*6F
###2023-11-09 13:07:52.546563$GBGSV,2,2,06,28,43,287,46,33,59,304,47,,,,,,,,*67
###2023-11-09 13:07:52.548029$GNVTG,270.79,T,,M,3.93,N,7.27,K,A*23
###2023-11-09 13:07:52.629153$GNGGA,130752.80,3611.0476276,N,07544.9710225,W,1,24,0.6,0.752,M,-39.961,M,0.0,*66
###2023-11-09 13:07:52.631757$GPGSV,2,1,07,05,21,090,43,10,18,292,44,13,24,045,43,15,62,037,46*70
###2023-11-09 13:07:52.634326$GPGSV,2,2,07,18,77,281,46,23,50,315,46,24,49,136,45,,,,*41
###2023-11-09 13:07:52.636935$GLGSV,2,1,05,70,50,016,36,71,48,288,49,80,17,091,45,85,58,203,48*6C
###2023-11-09 13:07:52.638565$GLGSV,2,2,05,86,52,309,48,,,,,,,,,,,,*5F
###2023-11-09 13:07:52.641151$GAGSV,1,1,04,07,72,257,44,08,49,042,45,13,64,160,45,26,56,310,45*6E
###2023-11-09 13:07:52.643758$GBGSV,2,1,06,11,23,180,41,14,65,008,46,24,20,132,44,26,23,081,44*67
###2023-11-09 13:07:52.645708$GBGSV,2,2,06,28,43,287,46,33,59,304,48,,,,,,,,*68
###2023-11-09 13:07:52.647198$GNVTG,270.42,T,,M,4.08,N,7.56,K,A*28
###2023-11-09 13:07:52.731231$GNGGA,130752.90,3611.0476300,N,07544.9711649,W,1,24,0.6,0.761,M,-39.961,M,0.0,*68
###2023-11-09 13:07:52.733820$GPGSV,2,1,07,05,21,090,43,10,18,292,44,13,24,045,43,15,62,037,46*70
###2023-11-09 13:07:52.736091$GPGSV,2,2,07,18,77,281,46,23,50,315,46,24,49,136,45,,,,*41
