###2023-11-09 13:09:58.541990$GAGSV,1,1,04,07,73,259,46,08,48,043,44,13,63,161,45,26,57,310,45*65
###2023-11-09 13:09:58.544604$GBGSV,2,1,06,11,22,180,43,14,65,009,44,24,21,132,45,26,23,080,43*61
###2023-11-09 13:09:58.546548$GBGSV,2,2,06,28,43,286,47,33,59,305,47,,,,,,,,*66
###2023-11-09 13:09:58.548033$GNVTG,45.17,T,,M,4.86,N,9.00,K,A*17
###2023-11-09 13:09:58.630051$GNGGA,130958.80,3611.0476295,N,07544.9027762,W,1,24,0.6,0.657,M,-39.961,M,0.0,*6E
###2023-11-09 13:09:58.632676$GPGSV,2,1,07,05,20,090,43,10,19,293,42,13,24,045,40,15,61,037,46*77
###2023-11-09 13:09:58.634942$GPGSV,2,2,07,18,78,277,47,23,50,316,45,24,50,134,45,,,,*4C
###2023-11-09 13:09:58.637547$GLGSV,2,1,05,70,49,019,35,71,48,291,46,80,18,090,45,85,57,203,49*6F
###2023-11-09 13:09:58.639169$GLGSV,2,2,05,86,53,308,48,,,,,,,,,,,,*5F
###2023-11-09 13:09:58.641768$GAGSV,1,1,04,07,73,259,46,08,48,043,44,13,63,161,45,26,57,310,45*65
###2023-11-09 13:09:58.644362$GBGSV,2,1,06,11,22,180,43,14,65,009,45,24,21,132,45,26,23,080,43*60
###2023-11-09 13:09:58.646302$GBGSV,2,2,06,28,43,286,47,33,59,305,47,,,,,,,,*66
###2023-11-09 13:09:58.647781$GNVTG,42.42,T,,M,4.92,N,9.11,K,A*15
###2023-11-09 13:09:58.730000$GNGGA,130958.90,3611.0477289,N,07544.9026601,W,1,24,0.6,0.635,M,-39.961,M,0.0,*62
###2023-11-09 13:09:58.732598$GPGSV,2,1,07,05,20,090,43,10,19,293,43,13,24,045,40,15,61,037,46*76
###2023-11-09 13:09:58.734852$GPGSV,2,2,07,18,78,277,47,23,50,316,46,24,50,134,45,,,,*4F
###2023-11-09 13:09:58.737455$GLGSV,2,1,05,70,49,019,35,71,48,291,47,80,18,090,45,85,57,203,49*6E
###2023-11-09 13:09:58.739079$GLGSV,2,2,05,86,53,308,48,,,,,,,,,,,,*5F
###2023-11-09 13:09:58.741660$GAGSV,1,1,04,07,73,259,46,08,48,043,44,13,63,161,45,26,57,310,45*65
###2023-11-09 13:09:58.744236$GBGSV,2,1,06,11,22,180,43,14,65,009,45,24,21,132,44,26,23,080,43*61
###2023-11-09 13:09:58.746179$GBGSV,2,2,06,28,43,286,47,33,59,305,48,,,,,,,,*69
###2023-11-09 13:09:58.747628$GNVTG,44.94,T,,M,4.92,N,9.11,K,A*18
###2023-11-09 13:09:58.833481$GNGGA,130959.00,3611.0478251,N,07544.9025388,W,1,24,0.6,0.606,M,-39.961,M,0.0,*67
###2023-11-09 13:09:58.836058$GPGSV,2,1,07,05,20,090,42,10,19,293,43,13,24,045,40,15,61,037,46*77
###2023-11-09 13:09:58.838321$GPGSV,2,2,07,18,78,277,47,23,50,316,46,24,50,134,45,,,,*4F
###2023-11-09 13:09:58.840886$GLGSV,2,1,05,70,49,019,35,71,48,291,47,80,18,090,45,85,57,203,49*6E
###2023-11-09 13:09:58.842489$GLGSV,2,2,05,86,53,308,49,,,,,,,,,,,,*5E
###2023-11-09 13:09:58.845050$GAGSV,1,1,04,07,73,259,46,08,48,043,44,13,63,161,45,26,57,310,45*65
###2023-11-09 13:09:58.847634$GBGSV,2,1,06,11,22,180,43,14,65,009,45,24,21,132,44,26,23,080,43*61
###2023-11-09 13:09:58.849575$GBGSV,2,2,06,28,43,286,47,33,59,305,48,,,,,,,,*69
###2023-11-09 13:09:58.851000$GNVTG,46.63,T,,M,4.96,N,9.18,K,A*1F
###2023-11-09 13:09:58.931140$GNGGA,130959.10,3611.0479174,N,07544.9024117,W,1,24,0.6,0.586,M,-39.961,M,0.0,*6D
###2023-11-09 13:09:58.933747$GPGSV,2,1,07,05,20,090,42,10,19,293,44,13,24,045,41,15,61,037,46*71
###2023-11-09 13:09:58.936006$GPGSV,2,2,07,18,78,277,47,23,50,316,46,24,50,134,45,,,,*4F
###2023-11-09 13:09:58.938598$GLGSV,2,1,05,70,49,019,36,71,48,291,47,80,18,090,45,85,57,203,49*6D
###2023-11-09 13:09:58.940213$GLGSV,2,2,05,86,53,308,49,,,,,,,,,,,,*5E
###2023-11-09 13:09:58.942780$GAGSV,1,1,04,07,73,259,46,08,48,043,44,13,63,161,45,26,57,310,45*65
###2023-11-09 13:09:58.945365$GBGSV,2,1,06,11,22,180,42,14,65,009,45,24,21,132,44,26,23,080,43*60
###2023-11-09 13:09:58.947316$GBGSV,2,2,06,28,43,286,47,33,59,305,48,,,,,,,,*69
###2023-11-09 13:09:58.948752$GNVTG,49.72,T,,M,4.98,N,9.22,K,A*17
###2023-11-09 13:09:59.033994$GNGGA,130959.20,3611.0480036,N,07544.9022789,W,1,24,0.6,0.568,M,-39.961,M,0.0,*68
###2023-11-09 13:09:59.036597$GPGSV,2,1,07,05,20,090,42,10,19,293,44,13,24,045,41,15,61,037,46*71
###2023-11-09 13:09:59.038873$GPGSV,2,2,07,18,78,277,47,23,50,316,46,24,50,134,45,,,,*4F
###2023-11-09 13:09:59.041448$GLGSV,2,1,05,70,49,019,36,71,48,291,48,80,18,090,45,85,57,203,49*62
###2023-11-09 13:09:59.043061$GLGSV,2,2,05,86,53,308,49,,,,,,,,,,,,*5E
###2023-11-09 13:09:59.045633$GAGSV,1,1,04,07,73,259,46,08,48,043,44,13,63,161,45,26,57,310,45*65
###2023-11-09 13:09:59.048219$GBGSV,2,1,06,11,22,180,42,14,65,009,45,24,21,132,43,26,23,080,43*67
###2023-11-09 13:09:59.050153$GBGSV,2,2,06,28,43,286,47,33,59,305,48,,,,,,,,*69
###2023-11-09 13:09:59.051575$GNVTG,53.28,T,,M,4.92,N,9.11,K,A*19
###2023-11-09 13:09:59.131128$GNGGA,130959.30,3611.0480851,N,07544.9021422,W,1,24,0.6,0.556,M,-39.961,M,0.0,*6C
###2023-11-09 13:09:59.133723$GPGSV,2,1,07,05,20,090,43,10,19,293,43,13,24,045,41,15,61,037,46*77
###2023-11-09 13:09:59.135966$GPGSV,2,2,07,18,78,277,47,23,50,316,46,24,50,134,45,,,,*4F
###2023-11-09 13:09:59.138551$GLGSV,2,1,05,70,49,019,36,71,48,291,48,80,18,090,45,85,57,203,48*63
###2023-11-09 13:09:59.140157$GLGSV,2,2,05,86,53,308,48,,,,,,,,,,,,*5F
###2023-11-09 13:09:59.142720$GAGSV,1,1,04,07,73,259,45,08,48,043,44,13,63,161,45,26,57,310,45*66
###2023-11-09 13:09:59.145291$GBGSV,2,1,06,11,22,180,42,14,65,009,45,24,21,132,44,26,23,080,43*60
###2023-11-09 13:09:59.147254$GBGSV,2,2,06,28,43,286,47,33,59,305,47,,,,,,,,*66
###2023-11-09 13:09:59.148685$GNVTG,54.47,T,,M,4.92,N,9.11,K,A*17
###2023-11-09 13:09:59.231250$GNGGA,130959.40,3611.0481650,N,07544.9020051,W,1,24,0.6,0.541,M,-39.961,M,0.0,*62
###2023-11-09 13:09:59.233849$GPGSV,2,1,07,05,20,090,43,10,19,293,42,13,24,045,41,15,61,037,45*75
###2023-11-09 13:09:59.236105$GPGSV,2,2,07,18,78,277,47,23,50,316,46,24,50,134,46,,,,*4C
###2023-11-09 13:09:59.238706$GLGSV,2,1,05,70,49,019,35,71,48,291,47,80,18,090,45,85,57,203,49*6E
###2023-11-09 13:09:59.240322$GLGSV,2,2,05,86,53,308,48,,,,,,,,,,,,*5F
###2023-11-09 13:09:59.242889$GAGSV,1,1,04,07,73,259,45,08,48,043,44,13,63,161,45,26,57,310,45*66
###2023-11-09 13:09:59.245466$GBGSV,2,1,06,11,22,180,42,14,65,009,45,24,21,132,44,26,23,080,43*60
###2023-11-09 13:09:59.247416$GBGSV,2,2,06,28,43,286,46,33,59,305,47,,,,,,,,*67
###2023-11-09 13:09:59.248854$GNVTG,54.49,T,,M,4.88,N,9.04,K,A*16
###2023-11-09 13:09:59.331113$GNGGA,130959.50,3611.0482459,N,07544.9018705,W,1,24,0.6,0.529,M,-39.961,M,0.0,*68
###2023-11-09 13:09:59.333701$GPGSV,2,1,07,05,20,090,44,10,19,293,41,13,24,045,41,15,61,037,45*71
###2023-11-09 13:09:59.335957$GPGSV,2,2,07,18,78,277,46,23,50,316,45,24,50,134,46,,,,*4E
###2023-11-09 13:09:59.338632$GLGSV,2,1,05,70,49,019,35,71,48,291,47,80,18,090,45,85,57,203,49*6E
###2023-11-09 13:09:59.340254$GLGSV,2,2,05,86,53,308,47,,,,,,,,,,,,*50
###2023-11-09 13:09:59.342819$GAGSV,1,1,04,07,73,259,45,08,48,043,44,13,63,161,45,26,57,310,45*66
###2023-11-09 13:09:59.345382$GBGSV,2,1,06,11,22,180,42,14,65,009,45,24,21,132,44,26,23,080,43*60
###2023-11-09 13:09:59.347330$GBGSV,2,2,06,28,43,286,46,33,59,305,47,,,,,,,,*67
###2023-11-09 13:09:59.348759$GNVTG,52.88,T,,M,4.86,N,9.00,K,A*17
###2023-11-09 13:09:59.430720$GNGGA,130959.60,3611.0483266,N,07544.9017384,W,1,24,0.6,0.523,M,-39.961,M,0.0,*68
###2023-11-09 13:09:59.433301$GPGSV,2,1,07,05,20,090,44,10,19,293,41,13,24,045,41,15,61,037,45*71
###2023-11-09 13:09:59.435545$GPGSV,2,2,07,18,78,277,46,23,50,316,45,24,50,134,46,,,,*4E
###2023-11-09 13:09:59.438146$GLGSV,2,1,05,70,49,019,35,71,48,291,47,80,18,090,45,85,57,203,49*6E
###2023-11-09 13:09:59.439748$GLGSV,2,2,05,86,53,308,47,,,,,,,,,,,,*50
###2023-11-09 13:09:59.442295$GAGSV,1,1,04,07,73,259,45,08,48,043,44,13,63,161,45,26,57,310,45*66
###2023-11-09 13:09:59.444850$GBGSV,2,1,06,11,22,180,42,14,65,009,45,24,21,132,45,26,23,080,43*61
###2023-11-09 13:09:59.446781$GBGSV,2,2,06,28,43,286,46,33,59,305,47,,,,,,,,*67
###2023-11-09 13:09:59.448212$GNVTG,53.66,T,,M,4.74,N,8.78,K,A*15
###2023-11-09 13:09:59.531752$GNGGA,130959.70,3611.0484040,N,07544.9016057,W,1,24,0.6,0.519,M,-39.961,M,0.0,*6D
###2023-11-09 13:09:59.534351$GPGSV,2,1,07,05,20,090,44,10,19,293,41,13,24,045,41,15,61,037,45*71
###2023-11-09 13:09:59.536624$GPGSV,2,2,07,18,78,277,46,23,50,316,45,24,50,134,46,,,,*4E
###2023-11-09 13:09:59.539218$GLGSV,2,1,05,70,49,019,35,71,48,291,47,80,18,090,45,85,57,203,49*6E
###2023-11-09 13:09:59.540829$GLGSV,2,2,05,86,53,308,47,,,,,,,,,,,,*50
###2023-11-09 13:09:59.543405$GAGSV,1,1,04,07,73,259,45,08,48,043,44,13,63,161,45,26,57,310,45*66
###2023-11-09 13:09:59.546288$GBGSV,2,1,06,11,22,180,42,14,65,009,44,24,21,132,45,26,23,080,43*60
###2023-11-09 13:09:59.548253$GBGSV,2,2,06,28,43,286,47,33,59,305,47,,,,,,,,*66
###2023-11-09 13:09:59.549690$GNVTG,55.28,T,,M,4.74,N,8.78,K,A*19
###2023-11-09 13:09:59.631111$GNGGA,130959.80,3611.0484782,N,07544.9014707,W,1,24,0.6,0.516,M,-39.961,M,0.0,*64
###2023-11-09 13:09:59.633693$GPGSV,2,1,07,05,20,090,43,10,19,293,43,13,24,045,42,15,61,037,45*77
###2023-11-09 13:09:59.635952$GPGSV,2,2,07,18,78,277,47,23,50,316,46,24,50,134,45,,,,*4F
###2023-11-09 13:09:59.638545$GLGSV,2,1,05,70,49,019,35,71,48,291,48,80,18,090,45,85,57,203,49*61
###2023-11-09 13:09:59.640156$GLGSV,2,2,05,86,53,308,48,,,,,,,,,,,,*5F
###2023-11-09 13:09:59.642725$GAGSV,1,1,04,07,73,259,45,08,48,043,44,13,63,161,45,26,57,310,45*66
