###2023-11-09 13:08:27.145725$GBGSV,2,2,06,28,43,287,46,33,59,304,48,,,,,,,,*68
###2023-11-09 13:08:27.147245$GNVTG,189.68,T,,M,4.82,N,8.93,K,A*21
###2023-11-09 13:08:27.230241$GNGGA,130827.40,3611.0310385,N,07545.0190318,W,1,24,0.6,0.524,M,-39.962,M,0.0,*64
###2023-11-09 13:08:27.232847$GPGSV,2,1,07,05,20,090,44,10,19,293,44,13,24,045,42,15,62,037,46*77
###2023-11-09 13:08:27.235105$GPGSV,2,2,07,18,77,281,46,23,50,315,46,24,49,136,45,,,,*41
###2023-11-09 13:08:27.237694$GLGSV,2,1,05,70,50,017,36,71,48,290,48,80,18,090,46,85,57,203,48*67
###2023-11-09 13:08:27.239304$GLGSV,2,2,05,86,53,308,48,,,,,,,,,,,,*5F
###2023-11-09 13:08:27.241870$GAGSV,1,1,04,07,72,258,44,08,48,043,45,13,64,160,44,26,57,310,46*62
###2023-11-09 13:08:27.244452$GBGSV,2,1,06,11,23,180,40,14,65,008,45,24,20,132,44,26,23,081,44*65
###2023-11-09 13:08:27.246388$GBGSV,2,2,06,28,43,287,46,33,59,304,47,,,,,,,,*67
###2023-11-09 13:08:27.247870$GNVTG,192.20,T,,M,4.68,N,8.68,K,A*27
###2023-11-09 13:08:27.329973$GNGGA,130827.50,3611.0309132,N,07545.0190706,W,1,24,0.6,0.528,M,-39.962,M,0.0,*64
###2023-11-09 13:08:27.332557$GPGSV,2,1,07,05,20,090,44,10,19,293,43,13,24,045,42,15,62,037,46*70
###2023-11-09 13:08:27.334805$GPGSV,2,2,07,18,77,281,46,23,50,315,46,24,49,136,45,,,,*41
###2023-11-09 13:08:27.337391$GLGSV,2,1,05,70,50,017,36,71,48,290,48,80,18,090,46,85,57,203,48*67
###2023-11-09 13:08:27.338994$GLGSV,2,2,05,86,53,308,48,,,,,,,,,,,,*5F
###2023-11-09 13:08:27.341557$GAGSV,1,1,04,07,72,258,44,08,48,043,45,13,64,160,44,26,57,310,45*61
###2023-11-09 13:08:27.344127$GBGSV,2,1,06,11,23,180,40,14,65,008,45,24,20,132,44,26,23,081,45*64
###2023-11-09 13:08:27.346049$GBGSV,2,2,06,28,43,287,46,33,59,304,47,,,,,,,,*67
###2023-11-09 13:08:27.347520$GNVTG,196.50,T,,M,4.61,N,8.53,K,A*25
###2023-11-09 13:08:27.429913$GNGGA,130827.60,3611.0307899,N,07545.0191173,W,1,24,0.6,0.549,M,-39.962,M,0.0,*63
###2023-11-09 13:08:27.432513$GPGSV,2,1,07,05,20,090,44,10,19,293,44,13,24,045,42,15,62,037,46*77
###2023-11-09 13:08:27.434764$GPGSV,2,2,07,18,77,281,46,23,50,315,46,24,49,136,45,,,,*41
###2023-11-09 13:08:27.437356$GLGSV,2,1,05,70,50,017,36,71,48,290,48,80,18,090,46,85,57,203,48*67
###2023-11-09 13:08:27.438968$GLGSV,2,2,05,86,53,308,48,,,,,,,,,,,,*5F
###2023-11-09 13:08:27.441533$GAGSV,1,1,04,07,72,258,44,08,48,043,45,13,64,160,44,26,57,310,45*61
###2023-11-09 13:08:27.444123$GBGSV,2,1,06,11,23,180,40,14,65,008,45,24,20,132,44,26,23,081,44*65
###2023-11-09 13:08:27.446060$GBGSV,2,2,06,28,43,287,46,33,59,304,47,,,,,,,,*67
###2023-11-09 13:08:27.447545$GNVTG,198.41,T,,M,4.68,N,8.68,K,A*2A
###2023-11-09 13:08:27.530491$GNGGA,130827.70,3611.0306667,N,07545.0191677,W,1,24,0.6,0.566,M,-39.962,M,0.0,*62
###2023-11-09 13:08:27.533082$GPGSV,2,1,07,05,20,090,43,10,19,293,44,13,24,045,42,15,62,037,46*70
###2023-11-09 13:08:27.535332$GPGSV,2,2,07,18,77,281,46,23,50,315,46,24,49,136,45,,,,*41
###2023-11-09 13:08:27.537920$GLGSV,2,1,05,70,50,017,36,71,48,290,48,80,18,090,45,85,57,203,48*64
###2023-11-09 13:08:27.539531$GLGSV,2,2,05,86,53,308,48,,,,,,,,,,,,*5F
###2023-11-09 13:08:27.542084$GAGSV,1,1,04,07,72,258,44,08,48,043,45,13,64,160,44,26,57,310,45*61
###2023-11-09 13:08:27.544660$GBGSV,2,1,06,11,23,180,40,14,65,008,45,24,20,132,43,26,23,081,43*65
###2023-11-09 13:08:27.546597$GBGSV,2,2,06,28,43,287,47,33,59,304,47,,,,,,,,*66
###2023-11-09 13:08:27.548084$GNVTG,198.71,T,,M,4.67,N,8.64,K,A*2A
###2023-11-09 13:08:27.629527$GNGGA,130827.80,3611.0305427,N,07545.0192143,W,1,24,0.6,0.581,M,-39.962,M,0.0,*62
###2023-11-09 13:08:27.632106$GPGSV,2,1,07,05,20,090,43,10,19,293,45,13,24,045,42,15,62,037,46*71
###2023-11-09 13:08:27.634343$GPGSV,2,2,07,18,77,281,46,23,50,315,47,24,49,136,45,,,,*40
###2023-11-09 13:08:27.636915$GLGSV,2,1,05,70,50,017,36,71,48,290,49,80,18,090,44,85,57,203,48*64
###2023-11-09 13:08:27.638522$GLGSV,2,2,05,86,53,308,49,,,,,,,,,,,,*5E
###2023-11-09 13:08:27.641073$GAGSV,1,1,04,07,72,258,44,08,48,043,45,13,64,160,44,26,57,310,46*62
###2023-11-09 13:08:27.643634$GBGSV,2,1,06,11,23,180,40,14,65,008,45,24,20,132,43,26,23,081,43*65
###2023-11-09 13:08:27.645554$GBGSV,2,2,06,28,43,287,47,33,59,304,48,,,,,,,,*69
###2023-11-09 13:08:27.647018$GNVTG,195.86,T,,M,4.67,N,8.64,K,A*2F
###2023-11-09 13:08:27.729262$GNGGA,130827.90,3611.0304160,N,07545.0192518,W,1,24,0.6,0.596,M,-39.962,M,0.0,*68
###2023-11-09 13:08:27.731863$GPGSV,2,1,07,05,20,090,42,10,19,293,45,13,24,045,42,15,62,037,46*70
###2023-11-09 13:08:27.734114$GPGSV,2,2,07,18,77,281,46,23,50,315,47,24,49,136,45,,,,*40
###2023-11-09 13:08:27.736686$GLGSV,2,1,05,70,50,017,36,71,48,290,49,80,18,090,43,85,57,203,48*63
###2023-11-09 13:08:27.738313$GLGSV,2,2,05,86,53,308,49,,,,,,,,,,,,*5E
###2023-11-09 13:08:27.740886$GAGSV,1,1,04,07,72,258,45,08,48,043,45,13,64,160,44,26,57,310,46*63
###2023-11-09 13:08:27.743472$GBGSV,2,1,06,11,23,180,40,14,65,008,45,24,20,132,42,26,23,081,42*65
###2023-11-09 13:08:27.745410$GBGSV,2,2,06,28,43,287,47,33,59,304,48,,,,,,,,*69
###2023-11-09 13:08:27.746879$GNVTG,191.75,T,,M,4.72,N,8.75,K,A*23
###2023-11-09 13:08:27.832348$GNGGA,130828.00,3611.0302884,N,07545.0192833,W,1,24,0.6,0.610,M,-39.962,M,0.0,*62
###2023-11-09 13:08:27.834918$GPGSV,2,1,07,05,20,090,42,10,19,293,45,13,24,045,42,15,62,037,46*70
###2023-11-09 13:08:27.837182$GPGSV,2,2,07,18,77,281,46,23,50,315,47,24,49,136,45,,,,*40
###2023-11-09 13:08:27.839747$GLGSV,2,1,05,70,50,017,36,71,48,290,49,80,18,090,43,85,57,203,48*63
###2023-11-09 13:08:27.841349$GLGSV,2,2,05,86,53,308,49,,,,,,,,,,,,*5E
###2023-11-09 13:08:27.843903$GAGSV,1,1,04,07,72,258,45,08,48,043,45,13,64,160,44,26,57,310,46*63
###2023-11-09 13:08:27.846464$GBGSV,2,1,06,11,23,180,40,14,65,008,45,24,20,132,42,26,23,081,42*65
###2023-11-09 13:08:27.848418$GBGSV,2,2,06,28,43,287,47,33,59,304,48,,,,,,,,*69
###2023-11-09 13:08:27.849882$GNVTG,191.45,T,,M,4.63,N,8.57,K,A*20
###2023-11-09 13:08:27.932702$GNGGA,130828.10,3611.0301616,N,07545.0193148,W,1,24,0.6,0.629,M,-39.962,M,0.0,*6B
###2023-11-09 13:08:27.935259$GPGSV,2,1,07,05,20,090,43,10,19,293,45,13,24,045,42,15,61,037,46*72
###2023-11-09 13:08:27.937503$GPGSV,2,2,07,18,77,281,46,23,50,315,46,24,49,136,45,,,,*41
###2023-11-09 13:08:27.940059$GLGSV,2,1,05,70,50,017,36,71,48,290,49,80,18,090,44,85,57,203,48*64
###2023-11-09 13:08:27.941650$GLGSV,2,2,05,86,53,308,48,,,,,,,,,,,,*5F
###2023-11-09 13:08:27.944199$GAGSV,1,1,04,07,72,258,45,08,48,043,45,13,64,160,44,26,57,310,46*63
###2023-11-09 13:08:27.946752$GBGSV,2,1,06,11,23,180,40,14,65,008,45,24,20,132,42,26,23,081,43*64
###2023-11-09 13:08:27.948678$GBGSV,2,2,06,28,43,287,47,33,59,304,48,,,,,,,,*69
###2023-11-09 13:08:27.950128$GNVTG,192.00,T,,M,4.67,N,8.64,K,A*26
###2023-11-09 13:08:28.031377$GNGGA,130828.20,3611.0300342,N,07545.0193499,W,1,24,0.6,0.645,M,-39.962,M,0.0,*6E
###2023-11-09 13:08:28.033983$GPGSV,2,1,07,05,20,090,43,10,19,293,44,13,24,045,42,15,61,037,46*73
###2023-11-09 13:08:28.036235$GPGSV,2,2,07,18,77,281,46,23,50,315,46,24,49,136,45,,,,*41
###2023-11-09 13:08:28.038829$GLGSV,2,1,05,70,50,017,36,71,48,290,49,80,18,090,45,85,57,203,48*65
###2023-11-09 13:08:28.040435$GLGSV,2,2,05,86,53,308,48,,,,,,,,,,,,*5F
###2023-11-09 13:08:28.043003$GAGSV,1,1,04,07,72,258,45,08,48,043,45,13,64,160,44,26,57,310,46*63
###2023-11-09 13:08:28.045574$GBGSV,2,1,06,11,23,180,40,14,65,008,45,24,20,132,43,26,23,081,43*65
###2023-11-09 13:08:28.047515$GBGSV,2,2,06,28,43,287,47,33,59,304,48,,,,,,,,*69
###2023-11-09 13:08:28.048970$GNVTG,193.84,T,,M,4.70,N,8.71,K,A*29
###2023-11-09 13:08:28.130368$GNGGA,130828.30,3611.0299091,N,07545.0193936,W,1,24,0.6,0.662,M,-39.962,M,0.0,*6E
###2023-11-09 13:08:28.132948$GPGSV,2,1,07,05,20,090,43,10,19,293,43,13,24,045,42,15,61,037,46*74
###2023-11-09 13:08:28.135200$GPGSV,2,2,07,18,77,281,46,23,50,315,46,24,49,136,45,,,,*41
###2023-11-09 13:08:28.137796$GLGSV,2,1,05,70,50,017,36,71,48,290,48,80,18,090,45,85,57,203,48*64
###2023-11-09 13:08:28.139402$GLGSV,2,2,05,86,53,308,48,,,,,,,,,,,,*5F
###2023-11-09 13:08:28.141964$GAGSV,1,1,04,07,72,258,45,08,48,043,45,13,64,160,44,26,57,310,45*60
###2023-11-09 13:08:28.144529$GBGSV,2,1,06,11,23,180,40,14,65,008,46,24,20,132,43,26,23,081,43*66
###2023-11-09 13:08:28.146766$GBGSV,2,2,06,28,43,287,47,33,59,304,47,,,,,,,,*66
###2023-11-09 13:08:28.148261$GNVTG,197.76,T,,M,4.61,N,8.53,K,A*20
###2023-11-09 13:08:28.229480$GNGGA,130828.40,3611.0297871,N,07545.0194455,W,1,24,0.6,0.669,M,-39.962,M,0.0,*65
###2023-11-09 13:08:28.232062$GPGSV,2,1,07,05,20,090,43,10,19,293,43,13,24,045,42,15,61,037,46*74
###2023-11-09 13:08:28.234304$GPGSV,2,2,07,18,77,281,46,23,50,315,46,24,49,136,45,,,,*41
###2023-11-09 13:08:28.236865$GLGSV,2,1,05,70,50,017,36,71,48,290,48,80,18,090,45,85,57,203,48*64
###2023-11-09 13:08:28.238471$GLGSV,2,2,05,86,53,308,48,,,,,,,,,,,,*5F
###2023-11-09 13:08:28.241016$GAGSV,1,1,04,07,72,258,45,08,48,043,45,13,64,160,44,26,57,310,45*60
###2023-11-09 13:08:28.243575$GBGSV,2,1,06,11,23,180,40,14,65,008,46,24,20,132,44,26,23,081,43*61
###2023-11-09 13:08:28.245495$GBGSV,2,2,06,28,43,287,47,33,59,304,47,,,,,,,,*66
