###2023-11-09 13:08:09.439438$GNGGA,130809.60,3611.0422099,N,07544.9967557,W,1,24,0.6,1.126,M,-39.962,M,0.0,*60
###2023-11-09 13:08:09.442066$GPGSV,2,1,07,05,21,090,43,10,18,292,44,13,24,045,42,15,62,037,46*71
###2023-11-09 13:08:09.444326$GPGSV,2,2,07,18,77,281,46,23,50,315,45,24,49,136,45,,,,*42
###2023-11-09 13:08:09.446917$GLGSV,2,1,05,70,50,017,37,71,48,290,49,80,18,090,44,85,58,203,47*65
###2023-11-09 13:08:09.448538$GLGSV,2,2,05,86,52,309,48,,,,,,,,,,,,*5F
###2023-11-09 13:08:09.451121$GAGSV,1,1,04,07,72,258,44,08,49,042,45,13,64,160,45,26,56,310,45*61
###2023-11-09 13:08:09.453710$GBGSV,2,1,06,11,23,180,40,14,65,008,46,24,20,132,42,26,23,081,43*67
###2023-11-09 13:08:09.455650$GBGSV,2,2,06,28,43,287,47,33,59,304,47,,,,,,,,*66
###2023-11-09 13:08:09.457138$GNVTG,245.66,T,,M,4.80,N,8.89,K,A*25
###2023-11-09 13:08:09.531483$GNGGA,130809.70,3611.0421518,N,07544.9969047,W,1,24,0.6,1.136,M,-39.962,M,0.0,*65
###2023-11-09 13:08:09.534078$GPGSV,2,1,07,05,21,090,43,10,18,292,44,13,24,045,42,15,62,037,46*71
###2023-11-09 13:08:09.536339$GPGSV,2,2,07,18,77,281,46,23,50,315,45,24,49,136,45,,,,*42
###2023-11-09 13:08:09.538936$GLGSV,2,1,05,70,50,017,37,71,48,290,49,80,18,090,44,85,58,203,48*6A
###2023-11-09 13:08:09.540546$GLGSV,2,2,05,86,52,309,48,,,,,,,,,,,,*5F
###2023-11-09 13:08:09.543134$GAGSV,1,1,04,07,72,258,44,08,49,042,45,13,64,160,45,26,56,310,45*61
###2023-11-09 13:08:09.545715$GBGSV,2,1,06,11,23,180,40,14,65,008,46,24,20,132,43,26,23,081,43*66
###2023-11-09 13:08:09.547681$GBGSV,2,2,06,28,43,287,47,33,59,304,47,,,,,,,,*66
###2023-11-09 13:08:09.549158$GNVTG,242.86,T,,M,4.84,N,8.96,K,A*26
###2023-11-09 13:08:09.629963$GNGGA,130809.80,3611.0420953,N,07544.9970558,W,1,24,0.6,1.126,M,-39.962,M,0.0,*6A
###2023-11-09 13:08:09.632543$GPGSV,2,1,07,05,21,090,43,10,18,292,42,13,24,045,42,15,62,037,46*77
###2023-11-09 13:08:09.634791$GPGSV,2,2,07,18,77,281,46,23,50,315,45,24,49,136,46,,,,*41
###2023-11-09 13:08:09.637375$GLGSV,2,1,05,70,50,017,36,71,48,290,49,80,18,090,44,85,58,203,48*6B
###2023-11-09 13:08:09.638978$GLGSV,2,2,05,86,52,309,47,,,,,,,,,,,,*50
###2023-11-09 13:08:09.641535$GAGSV,1,1,04,07,72,258,45,08,49,042,45,13,64,160,45,26,56,310,44*61
###2023-11-09 13:08:09.644093$GBGSV,2,1,06,11,23,180,41,14,65,008,46,24,20,132,44,26,23,081,43*60
###2023-11-09 13:08:09.646021$GBGSV,2,2,06,28,43,287,47,33,59,304,47,,,,,,,,*66
###2023-11-09 13:08:09.647489$GNVTG,247.39,T,,M,4.86,N,9.00,K,A*2B
###2023-11-09 13:08:09.732751$GNGGA,130809.90,3611.0420474,N,07544.9972114,W,1,24,0.6,1.107,M,-39.962,M,0.0,*6E
###2023-11-09 13:08:09.735371$GPGSV,2,1,07,05,21,090,43,10,18,292,42,13,24,045,41,15,62,037,46*74
###2023-11-09 13:08:09.737656$GPGSV,2,2,07,18,77,281,46,23,50,315,45,24,49,136,46,,,,*41
###2023-11-09 13:08:09.740243$GLGSV,2,1,05,70,50,017,37,71,48,290,48,80,18,090,45,85,58,203,48*6A
###2023-11-09 13:08:09.741858$GLGSV,2,2,05,86,52,309,47,,,,,,,,,,,,*50
###2023-11-09 13:08:09.744445$GAGSV,1,1,04,07,72,258,44,08,49,042,45,13,64,160,45,26,56,310,44*60
###2023-11-09 13:08:09.747046$GBGSV,2,1,06,11,23,180,41,14,65,008,46,24,20,132,44,26,23,081,43*60
###2023-11-09 13:08:09.748984$GBGSV,2,2,06,28,43,287,47,33,59,304,47,,,,,,,,*66
###2023-11-09 13:08:09.750454$GNVTG,250.89,T,,M,4.84,N,8.96,K,A*2A
###2023-11-09 13:08:09.834007$GNGGA,130810.00,3611.0420057,N,07544.9973711,W,1,24,0.6,1.091,M,-39.962,M,0.0,*66
###2023-11-09 13:08:09.836628$GPGSV,2,1,07,05,21,090,43,10,18,292,42,13,24,045,41,15,62,037,46*74
###2023-11-09 13:08:09.838913$GPGSV,2,2,07,18,77,281,46,23,50,315,45,24,49,136,46,,,,*41
###2023-11-09 13:08:09.841493$GLGSV,2,1,05,70,50,017,36,71,48,290,48,80,18,090,45,85,58,203,48*6B
###2023-11-09 13:08:09.843103$GLGSV,2,2,05,86,52,309,47,,,,,,,,,,,,*50
###2023-11-09 13:08:09.845675$GAGSV,1,1,04,07,72,258,44,08,49,042,45,13,64,160,45,26,56,310,44*60
###2023-11-09 13:08:09.848269$GBGSV,2,1,06,11,23,180,42,14,65,008,46,24,20,132,44,26,23,081,43*63
###2023-11-09 13:08:09.850221$GBGSV,2,2,06,28,43,287,46,33,59,304,47,,,,,,,,*67
###2023-11-09 13:08:09.851705$GNVTG,253.16,T,,M,4.94,N,9.14,K,A*25
###2023-11-09 13:08:09.929256$GNGGA,130810.10,3611.0419676,N,07544.9975332,W,1,24,0.6,1.084,M,-39.962,M,0.0,*6F
###2023-11-09 13:08:09.931851$GPGSV,2,1,07,05,21,090,44,10,18,292,42,13,24,045,41,15,62,037,46*73
###2023-11-09 13:08:09.934091$GPGSV,2,2,07,18,77,281,46,23,50,315,45,24,49,136,46,,,,*41
###2023-11-09 13:08:09.936642$GLGSV,2,1,05,70,50,017,36,71,48,290,49,80,18,090,45,85,57,203,48*65
###2023-11-09 13:08:09.938256$GLGSV,2,2,05,86,52,309,47,,,,,,,,,,,,*50
###2023-11-09 13:08:09.940823$GAGSV,1,1,04,07,72,258,44,08,49,042,45,13,64,160,45,26,56,310,44*60
###2023-11-09 13:08:09.943383$GBGSV,2,1,06,11,23,180,42,14,65,008,46,24,20,132,44,26,23,081,43*63
###2023-11-09 13:08:09.945306$GBGSV,2,2,06,28,43,287,46,33,59,304,47,,,,,,,,*67
###2023-11-09 13:08:09.946765$GNVTG,254.55,T,,M,4.90,N,9.07,K,A*23
###2023-11-09 13:08:10.030863$GNGGA,130810.20,3611.0419293,N,07544.9976944,W,1,24,0.6,1.081,M,-39.962,M,0.0,*6E
###2023-11-09 13:08:10.033458$GPGSV,2,1,07,05,21,090,44,10,18,292,43,13,24,045,42,15,62,037,46*71
###2023-11-09 13:08:10.035707$GPGSV,2,2,07,18,77,281,46,23,50,315,45,24,49,136,46,,,,*41
###2023-11-09 13:08:10.038295$GLGSV,2,1,05,70,50,017,36,71,48,290,49,80,18,090,45,85,57,203,48*65
###2023-11-09 13:08:10.039908$GLGSV,2,2,05,86,52,309,48,,,,,,,,,,,,*5F
###2023-11-09 13:08:10.042478$GAGSV,1,1,04,07,72,258,44,08,49,042,45,13,64,160,45,26,56,310,44*60
###2023-11-09 13:08:10.045056$GBGSV,2,1,06,11,23,180,41,14,65,008,46,24,20,132,44,26,23,081,43*60
###2023-11-09 13:08:10.047015$GBGSV,2,2,06,28,43,287,46,33,59,304,47,,,,,,,,*67
###2023-11-09 13:08:10.048487$GNVTG,252.77,T,,M,4.90,N,9.07,K,A*25
###2023-11-09 13:08:10.127762$GNGGA,130810.30,3611.0418857,N,07544.9978520,W,1,24,0.6,1.071,M,-39.962,M,0.0,*63
###2023-11-09 13:08:10.130353$GPGSV,2,1,07,05,21,090,43,10,18,292,44,13,24,045,42,15,62,037,46*71
###2023-11-09 13:08:10.132621$GPGSV,2,2,07,18,77,281,46,23,50,315,45,24,49,136,46,,,,*41
###2023-11-09 13:08:10.135206$GLGSV,2,1,05,70,50,017,37,71,48,290,49,80,18,090,45,85,57,203,48*64
###2023-11-09 13:08:10.136819$GLGSV,2,2,05,86,52,309,48,,,,,,,,,,,,*5F
###2023-11-09 13:08:10.139410$GAGSV,1,1,04,07,72,258,44,08,49,042,45,13,64,160,45,26,56,310,44*60
###2023-11-09 13:08:10.142001$GBGSV,2,1,06,11,23,180,40,14,65,008,46,24,20,132,43,26,23,081,43*66
###2023-11-09 13:08:10.143944$GBGSV,2,2,06,28,43,287,46,33,59,304,47,,,,,,,,*67
###2023-11-09 13:08:10.145409$GNVTG,249.39,T,,M,4.84,N,8.96,K,A*29
###2023-11-09 13:08:10.227745$GNGGA,130810.40,3611.0418338,N,07544.9980033,W,1,24,0.6,1.064,M,-39.962,M,0.0,*62
###2023-11-09 13:08:10.230308$GPGSV,2,1,07,05,21,090,43,10,18,292,44,13,24,045,42,15,62,037,46*71
###2023-11-09 13:08:10.232546$GPGSV,2,2,07,18,77,281,46,23,50,315,45,24,49,136,46,,,,*41
###2023-11-09 13:08:10.235098$GLGSV,2,1,05,70,50,017,37,71,48,290,49,80,18,090,44,85,57,203,48*65
###2023-11-09 13:08:10.236700$GLGSV,2,2,05,86,52,309,48,,,,,,,,,,,,*5F
###2023-11-09 13:08:10.239277$GAGSV,1,1,04,07,72,258,44,08,49,042,45,13,64,160,45,26,56,310,44*60
###2023-11-09 13:08:10.241847$GBGSV,2,1,06,11,23,180,40,14,65,008,46,24,20,132,43,26,23,081,43*66
###2023-11-09 13:08:10.243772$GBGSV,2,2,06,28,43,287,47,33,59,304,47,,,,,,,,*66
###2023-11-09 13:08:10.245228$GNVTG,244.59,T,,M,4.78,N,8.86,K,A*20
###2023-11-09 13:08:10.327886$GNGGA,130810.50,3611.0417776,N,07544.9981498,W,1,24,0.6,1.061,M,-39.962,M,0.0,*63
###2023-11-09 13:08:10.330489$GPGSV,2,1,07,05,21,090,43,10,18,292,44,13,24,045,42,15,62,037,46*71
###2023-11-09 13:08:10.332746$GPGSV,2,2,07,18,77,281,46,23,50,315,45,24,49,136,46,,,,*41
###2023-11-09 13:08:10.335320$GLGSV,2,1,05,70,50,017,37,71,48,290,49,80,18,090,44,85,57,203,48*65
###2023-11-09 13:08:10.336940$GLGSV,2,2,05,86,52,309,48,,,,,,,,,,,,*5F
###2023-11-09 13:08:10.339516$GAGSV,1,1,04,07,72,258,44,08,49,042,45,13,64,160,45,26,56,310,44*60
###2023-11-09 13:08:10.342092$GBGSV,2,1,06,11,23,180,40,14,65,008,46,24,20,132,43,26,23,081,43*66
###2023-11-09 13:08:10.344028$GBGSV,2,2,06,28,43,287,47,33,59,304,47,,,,,,,,*66
###2023-11-09 13:08:10.345491$GNVTG,244.84,T,,M,4.72,N,8.75,K,A*26
###2023-11-09 13:08:10.428754$GNGGA,130810.60,3611.0417222,N,07544.9982949,W,1,24,0.6,1.054,M,-39.962,M,0.0,*60
###2023-11-09 13:08:10.431367$GPGSV,2,1,07,05,21,090,43,10,18,292,43,13,24,045,42,15,62,037,46*76
###2023-11-09 13:08:10.433635$GPGSV,2,2,07,18,77,281,46,23,50,315,45,24,49,136,46,,,,*41
###2023-11-09 13:08:10.436221$GLGSV,2,1,05,70,50,017,37,71,48,290,49,80,18,090,44,85,57,203,48*65
###2023-11-09 13:08:10.437853$GLGSV,2,2,05,86,52,309,48,,,,,,,,,,,,*5F
###2023-11-09 13:08:10.440436$GAGSV,1,1,04,07,72,258,44,08,49,042,45,13,64,160,45,26,56,310,44*60
###2023-11-09 13:08:10.443034$GBGSV,2,1,06,11,23,180,40,14,65,008,46,24,20,132,43,26,23,081,43*66
###2023-11-09 13:08:10.444987$GBGSV,2,2,06,28,43,287,47,33,59,304,47,,,,,,,,*66
###2023-11-09 13:08:10.446460$GNVTG,244.76,T,,M,4.67,N,8.64,K,A*2F
###2023-11-09 13:08:10.528243$GNGGA,130810.70,3611.0416688,N,07544.9984387,W,1,24,0.6,1.046,M,-39.962,M,0.0,*69
