###2023-11-09 13:06:17.730626$GNGGA,130617.90,3611.0401120,N,07544.9815321,W,1,23,0.6,0.991,M,-39.962,M,0.0,*6D
###2023-11-09 13:06:17.733243$GPGSV,2,1,07,05,21,089,41,10,17,292,44,13,25,045,41,15,62,036,46*77
###2023-11-09 13:06:17.735491$GPGSV,2,2,07,18,77,282,47,23,49,314,45,24,49,137,45,,,,*48
###2023-11-09 13:06:17.738077$GLGSV,1,1,04,71,48,288,50,80,17,091,44,85,58,203,48,86,52,309,48*68
###2023-11-09 13:06:17.740649$GAGSV,1,1,04,07,72,255,45,08,49,042,45,13,64,160,44,26,56,311,45*6D
###2023-11-09 13:06:17.743215$GBGSV,2,1,06,11,24,180,40,14,65,006,45,24,19,133,42,26,23,082,42*64
###2023-11-09 13:06:17.745151$GBGSV,2,2,06,28,43,289,47,33,58,302,48,,,,,,,,*60
###2023-11-09 13:06:17.746580$GNVTG,67.22,T,,M,1.21,N,2.23,K,A*13
###2023-11-09 13:06:17.838043$GNGGA,130618.00,3611.0401274,N,07544.9814923,W,1,23,0.6,0.991,M,-39.962,M,0.0,*60
###2023-11-09 13:06:17.840639$GPGSV,2,1,07,05,21,089,41,10,17,292,44,13,25,045,41,15,62,036,46*77
###2023-11-09 13:06:17.842893$GPGSV,2,2,07,18,77,282,47,23,49,314,45,24,49,137,45,,,,*48
###2023-11-09 13:06:17.845472$GLGSV,1,1,04,71,48,288,50,80,17,091,44,85,58,203,48,86,52,309,48*68
###2023-11-09 13:06:17.848061$GAGSV,1,1,04,07,72,255,45,08,49,042,45,13,64,160,44,26,56,311,45*6D
###2023-11-09 13:06:17.850653$GBGSV,2,1,06,11,24,180,40,14,65,006,45,24,19,133,42,26,23,082,41*67
###2023-11-09 13:06:17.852580$GBGSV,2,2,06,28,43,289,47,33,58,302,48,,,,,,,,*60
###2023-11-09 13:06:17.854017$GNVTG,63.38,T,,M,1.40,N,2.59,K,A*16
###2023-11-09 13:06:17.941493$GNGGA,130618.10,3611.0401459,N,07544.9814500,W,1,23,0.6,0.991,M,-39.962,M,0.0,*65
###2023-11-09 13:06:17.944105$GPGSV,2,1,07,05,21,089,41,10,17,292,43,13,25,045,41,15,62,036,46*70
###2023-11-09 13:06:17.946354$GPGSV,2,2,07,18,77,282,47,23,49,314,45,24,49,137,45,,,,*48
###2023-11-09 13:06:17.948949$GLGSV,1,1,04,71,48,288,49,80,17,091,44,85,58,203,48,86,52,309,48*60
###2023-11-09 13:06:17.951536$GAGSV,1,1,04,07,72,255,45,08,49,042,45,13,64,160,44,26,56,311,45*6D
###2023-11-09 13:06:17.954123$GBGSV,2,1,06,11,24,180,40,14,65,006,45,24,19,133,42,26,23,082,41*67
###2023-11-09 13:06:17.956063$GBGSV,2,2,06,28,43,289,47,33,58,302,48,,,,,,,,*60
###2023-11-09 13:06:17.957516$GNVTG,61.62,T,,M,1.42,N,2.63,K,A*10
###2023-11-09 13:06:18.031460$GNGGA,130618.20,3611.0401645,N,07544.9814081,W,1,23,0.6,0.999,M,-39.962,M,0.0,*6D
###2023-11-09 13:06:18.034038$GPGSV,2,1,07,05,21,089,41,10,17,292,43,13,25,045,41,15,62,036,46*70
###2023-11-09 13:06:18.036291$GPGSV,2,2,07,18,77,282,47,23,49,314,45,24,49,137,45,,,,*48
###2023-11-09 13:06:18.038870$GLGSV,1,1,04,71,48,288,49,80,17,091,44,85,58,203,48,86,52,309,48*60
###2023-11-09 13:06:18.041453$GAGSV,1,1,04,07,72,255,45,08,49,042,45,13,64,160,44,26,56,311,45*6D
###2023-11-09 13:06:18.044018$GBGSV,2,1,06,11,24,180,40,14,65,006,45,24,19,133,42,26,23,082,41*67
###2023-11-09 13:06:18.045943$GBGSV,2,2,06,28,43,289,47,33,58,302,47,,,,,,,,*6F
###2023-11-09 13:06:18.047375$GNVTG,61.42,T,,M,1.38,N,2.56,K,A*19
###2023-11-09 13:06:18.129886$GNGGA,130618.30,3611.0401810,N,07544.9813681,W,1,23,0.6,0.997,M,-39.962,M,0.0,*6D
###2023-11-09 13:06:18.132468$GPGSV,2,1,07,05,21,089,41,10,17,292,43,13,25,045,41,15,62,036,46*70
###2023-11-09 13:06:18.134725$GPGSV,2,2,07,18,77,282,47,23,49,314,45,24,49,137,45,,,,*48
###2023-11-09 13:06:18.137323$GLGSV,1,1,04,71,48,288,49,80,17,091,44,85,58,203,48,86,52,309,48*60
###2023-11-09 13:06:18.139892$GAGSV,1,1,04,07,72,255,45,08,49,042,45,13,64,160,44,26,56,311,45*6D
###2023-11-09 13:06:18.142473$GBGSV,2,1,06,11,24,180,40,14,65,006,46,24,19,133,42,26,23,082,43*66
###2023-11-09 13:06:18.144415$GBGSV,2,2,06,28,43,289,47,33,58,302,47,,,,,,,,*6F
###2023-11-09 13:06:18.145858$GNVTG,66.27,T,,M,1.26,N,2.34,K,A*16
###2023-11-09 13:06:18.235637$GNGGA,130618.40,3611.0401934,N,07544.9813319,W,1,23,0.6,0.996,M,-39.962,M,0.0,*68
###2023-11-09 13:06:18.238263$GPGSV,2,1,07,05,21,089,41,10,17,292,43,13,25,045,42,15,62,036,46*73
###2023-11-09 13:06:18.240520$GPGSV,2,2,07,18,77,282,47,23,49,314,45,24,49,137,45,,,,*48
###2023-11-09 13:06:18.243087$GLGSV,1,1,04,71,48,288,49,80,17,091,44,85,58,203,48,86,52,309,48*60
###2023-11-09 13:06:18.245677$GAGSV,1,1,04,07,72,255,45,08,49,042,45,13,64,160,44,26,56,311,45*6D
###2023-11-09 13:06:18.248280$GBGSV,2,1,06,11,24,180,40,14,65,006,46,24,19,133,42,26,23,082,44*61
###2023-11-09 13:06:18.250228$GBGSV,2,2,06,28,43,289,47,33,58,302,48,,,,,,,,*60
###2023-11-09 13:06:18.251652$GNVTG,69.32,T,,M,1.07,N,1.98,K,A*1B
###2023-11-09 13:06:18.330726$GNGGA,130618.50,3611.0402032,N,07544.9812995,W,1,23,0.6,0.996,M,-39.962,M,0.0,*6A
###2023-11-09 13:06:18.333284$GPGSV,2,1,07,05,21,089,41,10,17,292,43,13,25,045,42,15,62,036,46*73
###2023-11-09 13:06:18.335525$GPGSV,2,2,07,18,77,282,47,23,49,314,45,24,49,137,45,,,,*48
###2023-11-09 13:06:18.338114$GLGSV,1,1,04,71,48,288,49,80,17,091,44,85,58,203,48,86,52,309,48*60
###2023-11-09 13:06:18.340690$GAGSV,1,1,04,07,72,255,45,08,49,042,44,13,64,160,44,26,56,311,45*6C
###2023-11-09 13:06:18.343259$GBGSV,2,1,06,11,24,180,40,14,65,006,46,24,19,133,42,26,23,082,44*61
###2023-11-09 13:06:18.345180$GBGSV,2,2,06,28,43,289,47,33,58,302,48,,,,,,,,*60
###2023-11-09 13:06:18.346597$GNVTG,69.32,T,,M,0.97,N,1.80,K,A*1A
###2023-11-09 13:06:18.430113$GNGGA,130618.60,3611.0402135,N,07544.9812696,W,1,23,0.6,0.995,M,-39.962,M,0.0,*60
###2023-11-09 13:06:18.432715$GPGSV,2,1,07,05,21,089,41,10,17,292,43,13,25,045,41,15,62,036,46*70
###2023-11-09 13:06:18.434957$GPGSV,2,2,07,18,77,282,47,23,49,314,45,24,49,137,45,,,,*48
###2023-11-09 13:06:18.437555$GLGSV,1,1,04,71,48,288,49,80,17,091,44,85,58,203,48,86,52,309,48*60
###2023-11-09 13:06:18.440136$GAGSV,1,1,04,07,72,255,45,08,49,042,44,13,64,160,44,26,56,311,45*6C
###2023-11-09 13:06:18.442706$GBGSV,2,1,06,11,24,180,40,14,65,006,46,24,19,133,42,26,23,082,43*66
###2023-11-09 13:06:18.444634$GBGSV,2,2,06,28,43,289,47,33,58,302,48,,,,,,,,*60
###2023-11-09 13:06:18.446060$GNVTG,69.32,T,,M,0.95,N,1.76,K,A*11
###2023-11-09 13:06:18.531608$GNGGA,130618.70,3611.0402268,N,07544.9812400,W,1,23,0.6,0.999,M,-39.962,M,0.0,*6B
###2023-11-09 13:06:18.534211$GPGSV,2,1,07,05,21,089,41,10,17,292,43,13,25,045,41,15,62,036,46*70
###2023-11-09 13:06:18.536466$GPGSV,2,2,07,18,77,282,47,23,49,314,45,24,49,137,45,,,,*48
###2023-11-09 13:06:18.539043$GLGSV,1,1,04,71,48,288,49,80,17,091,43,85,58,203,48,86,52,309,48*67
###2023-11-09 13:06:18.541616$GAGSV,1,1,04,07,72,255,45,08,49,042,44,13,64,160,44,26,56,311,45*6C
###2023-11-09 13:06:18.544208$GBGSV,2,1,06,11,24,180,40,14,65,006,46,24,19,133,42,26,23,082,42*67
###2023-11-09 13:06:18.546173$GBGSV,2,2,06,28,43,289,48,33,58,302,47,,,,,,,,*60
###2023-11-09 13:06:18.547666$GNVTG,59.14,T,,M,1.03,N,1.91,K,A*11
###2023-11-09 13:06:18.630619$GNGGA,130618.80,3611.0402441,N,07544.9812082,W,1,23,0.6,1.001,M,-39.962,M,0.0,*6E
###2023-11-09 13:06:18.633226$GPGSV,2,1,07,05,21,089,41,10,17,292,43,13,25,045,41,15,62,036,46*70
###2023-11-09 13:06:18.635476$GPGSV,2,2,07,18,77,282,47,23,49,314,45,24,49,137,45,,,,*48
###2023-11-09 13:06:18.638063$GLGSV,1,1,04,71,48,288,49,80,17,091,43,85,58,203,48,86,52,309,48*67
###2023-11-09 13:06:18.640650$GAGSV,1,1,04,07,72,255,45,08,49,042,44,13,64,160,45,26,56,311,45*6D
###2023-11-09 13:06:18.643235$GBGSV,2,1,06,11,24,180,40,14,65,006,46,24,19,133,42,26,23,082,42*67
###2023-11-09 13:06:18.645178$GBGSV,2,2,06,28,43,289,48,33,58,302,47,,,,,,,,*60
###2023-11-09 13:06:18.646616$GNVTG,55.13,T,,M,1.21,N,2.23,K,A*10
###2023-11-09 13:06:18.730657$GNGGA,130618.90,3611.0402647,N,07544.9811749,W,1,23,0.6,1.010,M,-39.962,M,0.0,*68
###2023-11-09 13:06:18.733279$GPGSV,2,1,07,05,21,089,41,10,17,292,43,13,25,045,41,15,62,036,46*70
###2023-11-09 13:06:18.735534$GPGSV,2,2,07,18,77,282,47,23,49,314,45,24,49,137,45,,,,*48
###2023-11-09 13:06:18.738140$GLGSV,1,1,04,71,48,288,49,80,17,091,43,85,58,203,48,86,52,309,48*67
###2023-11-09 13:06:18.740720$GAGSV,1,1,04,07,72,255,45,08,49,042,44,13,64,160,45,26,56,311,45*6D
###2023-11-09 13:06:18.743311$GBGSV,2,1,06,11,24,180,40,14,65,006,46,24,19,133,42,26,23,082,42*67
###2023-11-09 13:06:18.745248$GBGSV,2,2,06,28,43,289,47,33,58,302,47,,,,,,,,*6F
###2023-11-09 13:06:18.746681$GNVTG,51.80,T,,M,1.24,N,2.30,K,A*19
###2023-11-09 13:06:18.832628$GNGGA,130619.00,3611.0402876,N,07544.9811432,W,1,23,0.6,1.013,M,-39.961,M,0.0,*63
###2023-11-09 13:06:18.835261$GPGSV,2,1,07,05,21,089,41,10,17,292,43,13,25,045,41,15,62,036,46*70
###2023-11-09 13:06:18.837545$GPGSV,2,2,07,18,77,282,47,23,49,314,45,24,49,137,45,,,,*48
###2023-11-09 13:06:18.840118$GLGSV,1,1,04,71,48,288,49,80,17,091,43,85,58,203,48,86,52,309,48*67
###2023-11-09 13:06:18.842694$GAGSV,1,1,04,07,72,255,45,08,49,042,44,13,64,160,45,26,56,311,45*6D
###2023-11-09 13:06:18.845267$GBGSV,2,1,06,11,24,180,40,14,65,006,46,24,19,133,42,26,23,082,42*67
###2023-11-09 13:06:18.847222$GBGSV,2,2,06,28,43,289,47,33,58,302,48,,,,,,,,*60
###2023-11-09 13:06:18.848656$GNVTG,46.82,T,,M,1.24,N,2.30,K,A*1D
###2023-11-09 13:06:18.931749$GNGGA,130619.10,3611.0403104,N,07544.9811131,W,1,23,0.6,1.015,M,-39.961,M,0.0,*6F
###2023-11-09 13:06:18.934334$GPGSV,2,1,07,05,21,089,41,10,17,292,43,13,25,045,42,15,62,036,46*73
###2023-11-09 13:06:18.936592$GPGSV,2,2,07,18,77,282,47,23,49,314,45,24,49,137,45,,,,*48
###2023-11-09 13:06:18.939177$GLGSV,1,1,04,71,48,288,49,80,17,091,43,85,58,203,48,86,52,309,48*67
