###2023-11-09 13:09:18.345994$GBGSV,2,2,06,28,43,287,48,33,59,304,48,,,,,,,,*66
###2023-11-09 13:09:18.347467$GNVTG,68.85,T,,M,2.64,N,4.90,K,A*1D
###2023-11-09 13:09:18.430019$GNGGA,130918.60,3611.0323121,N,07544.9542738,W,1,24,0.6,0.791,M,-39.961,M,0.0,*6D
###2023-11-09 13:09:18.432649$GPGSV,2,1,07,05,20,090,42,10,19,293,43,13,24,045,42,15,61,037,45*76
###2023-11-09 13:09:18.434914$GPGSV,2,2,07,18,78,277,46,23,50,316,46,24,50,134,45,,,,*4E
###2023-11-09 13:09:18.437518$GLGSV,2,1,05,70,50,017,35,71,48,290,47,80,18,090,44,85,57,203,49*68
###2023-11-09 13:09:18.439143$GLGSV,2,2,05,86,53,308,49,,,,,,,,,,,,*5E
###2023-11-09 13:09:18.441726$GAGSV,1,1,04,07,73,259,45,08,48,043,43,13,63,161,44,26,57,310,45*60
###2023-11-09 13:09:18.444313$GBGSV,2,1,06,11,23,180,41,14,65,008,45,24,20,132,44,26,23,081,43*63
###2023-11-09 13:09:18.446257$GBGSV,2,2,06,28,43,287,47,33,59,304,48,,,,,,,,*69
###2023-11-09 13:09:18.447701$GNVTG,65.17,T,,M,2.43,N,4.50,K,A*12
###2023-11-09 13:09:18.529990$GNGGA,130918.70,3611.0323424,N,07544.9542061,W,1,24,0.6,0.846,M,-39.961,M,0.0,*62
###2023-11-09 13:09:18.532590$GPGSV,2,1,07,05,20,090,42,10,19,293,42,13,24,045,40,15,61,037,45*75
###2023-11-09 13:09:18.534861$GPGSV,2,2,07,18,78,277,46,23,50,316,46,24,50,134,45,,,,*4E
###2023-11-09 13:09:18.537465$GLGSV,2,1,05,70,50,017,35,71,48,290,47,80,18,090,45,85,57,203,49*69
###2023-11-09 13:09:18.539078$GLGSV,2,2,05,86,53,308,48,,,,,,,,,,,,*5F
###2023-11-09 13:09:18.541653$GAGSV,1,1,04,07,73,259,45,08,48,043,43,13,63,161,44,26,57,310,45*60
###2023-11-09 13:09:18.544239$GBGSV,2,1,06,11,23,180,42,14,65,008,44,24,20,132,45,26,23,081,43*60
###2023-11-09 13:09:18.546172$GBGSV,2,2,06,28,43,287,47,33,59,304,47,,,,,,,,*66
###2023-11-09 13:09:18.547616$GNVTG,55.98,T,,M,2.14,N,3.96,K,A*19
###2023-11-09 13:09:18.630234$GNGGA,130918.80,3611.0323792,N,07544.9541508,W,1,24,0.6,0.897,M,-39.961,M,0.0,*66
###2023-11-09 13:09:18.632807$GPGSV,2,1,07,05,20,090,42,10,19,293,41,13,24,045,40,15,61,037,45*76
###2023-11-09 13:09:18.635048$GPGSV,2,2,07,18,78,277,46,23,50,316,46,24,50,134,45,,,,*4E
###2023-11-09 13:09:18.637625$GLGSV,2,1,05,70,50,017,35,71,48,290,47,80,18,090,45,85,57,203,49*69
###2023-11-09 13:09:18.639225$GLGSV,2,2,05,86,53,308,47,,,,,,,,,,,,*50
###2023-11-09 13:09:18.641790$GAGSV,1,1,04,07,73,259,45,08,48,043,43,13,63,161,45,26,57,310,45*61
###2023-11-09 13:09:18.644363$GBGSV,2,1,06,11,23,180,42,14,65,008,44,24,20,132,45,26,23,081,43*60
###2023-11-09 13:09:18.646291$GBGSV,2,2,06,28,43,287,47,33,59,304,47,,,,,,,,*66
###2023-11-09 13:09:18.647730$GNVTG,45.24,T,,M,2.10,N,3.89,K,A*15
###2023-11-09 13:09:18.729982$GNGGA,130918.90,3611.0324198,N,07544.9541023,W,1,24,0.6,0.946,M,-39.961,M,0.0,*6D
###2023-11-09 13:09:18.732583$GPGSV,2,1,07,05,20,090,43,10,19,293,41,13,24,045,40,15,61,037,45*77
###2023-11-09 13:09:18.734844$GPGSV,2,2,07,18,78,277,46,23,50,316,46,24,50,134,45,,,,*4E
###2023-11-09 13:09:18.737447$GLGSV,2,1,05,70,50,017,35,71,48,290,47,80,18,090,45,85,57,203,49*69
###2023-11-09 13:09:18.739071$GLGSV,2,2,05,86,53,308,47,,,,,,,,,,,,*50
###2023-11-09 13:09:18.741666$GAGSV,1,1,04,07,73,259,45,08,48,043,43,13,63,161,45,26,57,310,45*61
###2023-11-09 13:09:18.744258$GBGSV,2,1,06,11,23,180,42,14,65,008,44,24,20,132,45,26,23,081,43*60
###2023-11-09 13:09:18.746203$GBGSV,2,2,06,28,43,287,47,33,59,304,47,,,,,,,,*66
###2023-11-09 13:09:18.747654$GNVTG,42.27,T,,M,2.02,N,3.74,K,A*10
###2023-11-09 13:09:18.832995$GNGGA,130919.00,3611.0324590,N,07544.9540560,W,1,24,0.6,0.979,M,-39.961,M,0.0,*66
###2023-11-09 13:09:18.835600$GPGSV,2,1,07,05,20,090,43,10,19,293,42,13,24,045,41,15,61,037,45*75
###2023-11-09 13:09:18.837886$GPGSV,2,2,07,18,78,277,46,23,50,316,46,24,50,134,45,,,,*4E
###2023-11-09 13:09:18.840473$GLGSV,2,1,05,70,50,017,35,71,48,290,47,80,18,090,44,85,57,203,49*68
###2023-11-09 13:09:18.842089$GLGSV,2,2,05,86,53,308,47,,,,,,,,,,,,*50
###2023-11-09 13:09:18.844680$GAGSV,1,1,04,07,73,259,45,08,48,043,43,13,63,161,45,26,57,310,45*61
###2023-11-09 13:09:18.847305$GBGSV,2,1,06,11,23,180,42,14,65,008,44,24,20,132,44,26,23,081,43*61
###2023-11-09 13:09:18.849261$GBGSV,2,2,06,28,43,287,47,33,59,304,48,,,,,,,,*69
###2023-11-09 13:09:18.850698$GNVTG,44.80,T,,M,1.94,N,3.60,K,A*12
###2023-11-09 13:09:18.931484$GNGGA,130919.10,3611.0324933,N,07544.9540081,W,1,24,0.6,0.995,M,-39.961,M,0.0,*6A
###2023-11-09 13:09:18.934067$GPGSV,2,1,07,05,20,090,43,10,19,293,43,13,24,045,42,15,61,037,45*77
###2023-11-09 13:09:18.936325$GPGSV,2,2,07,18,78,277,46,23,50,316,46,24,50,134,45,,,,*4E
###2023-11-09 13:09:18.938910$GLGSV,2,1,05,70,50,017,35,71,48,290,48,80,18,090,44,85,57,203,48*66
###2023-11-09 13:09:18.940525$GLGSV,2,2,05,86,53,308,47,,,,,,,,,,,,*50
###2023-11-09 13:09:18.943103$GAGSV,1,1,04,07,73,259,45,08,48,043,44,13,63,161,45,26,57,310,45*66
###2023-11-09 13:09:18.945675$GBGSV,2,1,06,11,23,180,42,14,65,008,45,24,20,132,44,26,23,081,43*60
###2023-11-09 13:09:18.947622$GBGSV,2,2,06,28,43,287,47,33,59,304,48,,,,,,,,*69
###2023-11-09 13:09:18.949055$GNVTG,52.07,T,,M,1.83,N,3.38,K,A*11
###2023-11-09 13:09:19.031994$GNGGA,130919.20,3611.0325219,N,07544.9539567,W,1,24,0.6,0.999,M,-39.961,M,0.0,*64
###2023-11-09 13:09:19.034584$GPGSV,2,1,07,05,20,090,42,10,19,293,43,13,24,045,42,15,61,037,45*76
###2023-11-09 13:09:19.036836$GPGSV,2,2,07,18,78,277,47,23,50,316,46,24,50,134,44,,,,*4E
###2023-11-09 13:09:19.039446$GLGSV,2,1,05,70,50,017,35,71,48,290,48,80,18,090,44,85,57,203,48*66
###2023-11-09 13:09:19.041071$GLGSV,2,2,05,86,53,308,48,,,,,,,,,,,,*5F
###2023-11-09 13:09:19.043649$GAGSV,1,1,04,07,73,259,45,08,48,043,44,13,63,161,45,26,57,310,45*66
###2023-11-09 13:09:19.046234$GBGSV,2,1,06,11,23,180,42,14,65,008,45,24,20,132,44,26,23,081,42*61
###2023-11-09 13:09:19.048193$GBGSV,2,2,06,28,43,287,47,33,59,304,47,,,,,,,,*66
###2023-11-09 13:09:19.049631$GNVTG,58.38,T,,M,1.85,N,3.42,K,A*1C
###2023-11-09 13:09:19.131123$GNGGA,130919.30,3611.0325461,N,07544.9539015,W,1,24,0.6,0.991,M,-39.961,M,0.0,*64
###2023-11-09 13:09:19.133722$GPGSV,2,1,07,05,20,090,42,10,19,293,44,13,24,045,42,15,61,037,45*71
###2023-11-09 13:09:19.135978$GPGSV,2,2,07,18,78,277,47,23,50,316,45,24,50,134,44,,,,*4D
###2023-11-09 13:09:19.138580$GLGSV,2,1,05,70,50,017,35,71,48,290,48,80,18,090,44,85,57,203,48*66
###2023-11-09 13:09:19.140200$GLGSV,2,2,05,86,53,308,48,,,,,,,,,,,,*5F
###2023-11-09 13:09:19.142782$GAGSV,1,1,04,07,73,259,45,08,48,043,45,13,63,161,45,26,57,310,45*67
###2023-11-09 13:09:19.145374$GBGSV,2,1,06,11,23,180,42,14,65,008,45,24,20,132,43,26,23,081,42*66
###2023-11-09 13:09:19.147331$GBGSV,2,2,06,28,43,287,46,33,59,304,47,,,,,,,,*67
###2023-11-09 13:09:19.148766$GNVTG,64.02,T,,M,1.85,N,3.42,K,A*1A
###2023-11-09 13:09:19.229609$GNGGA,130919.40,3611.0325676,N,07544.9538456,W,1,24,0.6,0.966,M,-39.961,M,0.0,*6D
###2023-11-09 13:09:19.232186$GPGSV,2,1,07,05,20,090,42,10,19,293,44,13,24,045,41,15,61,037,45*72
###2023-11-09 13:09:19.234433$GPGSV,2,2,07,18,78,277,47,23,50,316,45,24,50,134,45,,,,*4C
###2023-11-09 13:09:19.237020$GLGSV,2,1,05,70,50,017,35,71,48,290,48,80,18,090,44,85,57,203,48*66
###2023-11-09 13:09:19.238628$GLGSV,2,2,05,86,53,308,47,,,,,,,,,,,,*50
###2023-11-09 13:09:19.241197$GAGSV,1,1,04,07,73,259,45,08,48,043,45,13,63,161,45,26,57,310,44*66
###2023-11-09 13:09:19.243765$GBGSV,2,1,06,11,23,180,42,14,65,008,45,24,20,132,44,26,23,081,42*61
###2023-11-09 13:09:19.245700$GBGSV,2,2,06,28,43,287,46,33,59,304,46,,,,,,,,*66
###2023-11-09 13:09:19.247138$GNVTG,64.66,T,,M,1.81,N,3.35,K,A*1C
###2023-11-09 13:09:19.329505$GNGGA,130919.50,3611.0325895,N,07544.9537900,W,1,24,0.6,0.939,M,-39.961,M,0.0,*64
###2023-11-09 13:09:19.332098$GPGSV,2,1,07,05,20,090,42,10,19,293,44,13,24,045,40,15,61,037,45*73
###2023-11-09 13:09:19.334347$GPGSV,2,2,07,18,78,277,47,23,50,316,44,24,50,134,45,,,,*4D
###2023-11-09 13:09:19.336925$GLGSV,2,1,05,70,50,017,35,71,48,290,48,80,18,090,45,85,57,203,49*66
###2023-11-09 13:09:19.338539$GLGSV,2,2,05,86,53,308,47,,,,,,,,,,,,*50
###2023-11-09 13:09:19.341112$GAGSV,1,1,04,07,73,259,45,08,48,043,44,13,63,161,45,26,57,310,44*67
###2023-11-09 13:09:19.343684$GBGSV,2,1,06,11,23,180,43,14,65,008,45,24,20,132,45,26,23,081,42*61
###2023-11-09 13:09:19.345616$GBGSV,2,2,06,28,43,287,46,33,59,304,46,,,,,,,,*66
###2023-11-09 13:09:19.347378$GNVTG,62.85,T,,M,1.85,N,3.42,K,A*13
###2023-11-09 13:09:19.430495$GNGGA,130919.60,3611.0326158,N,07544.9537356,W,1,24,0.6,0.912,M,-39.961,M,0.0,*6C
###2023-11-09 13:09:19.433092$GPGSV,2,1,07,05,20,090,43,10,19,293,44,13,24,045,40,15,61,037,45*72
###2023-11-09 13:09:19.435345$GPGSV,2,2,07,18,78,277,47,23,50,316,44,24,50,134,45,,,,*4D
###2023-11-09 13:09:19.437940$GLGSV,2,1,05,70,50,017,35,71,48,290,48,80,18,090,45,85,57,203,49*66
###2023-11-09 13:09:19.439553$GLGSV,2,2,05,86,53,308,46,,,,,,,,,,,,*51
###2023-11-09 13:09:19.442128$GAGSV,1,1,04,07,73,259,45,08,48,043,44,13,63,161,45,26,57,310,43*60
###2023-11-09 13:09:19.444706$GBGSV,2,1,06,11,23,180,43,14,65,008,45,24,20,132,45,26,23,081,42*61
###2023-11-09 13:09:19.446644$GBGSV,2,2,06,28,43,287,46,33,59,304,46,,,,,,,,*66
