###2023-11-09 13:08:54.941400$GAGSV,1,1,04,07,72,258,45,08,48,043,45,13,64,160,45,26,57,310,45*61
###2023-11-09 13:08:54.943992$GBGSV,2,1,06,11,23,180,42,14,65,008,45,24,20,132,44,26,23,081,43*60
###2023-11-09 13:08:54.945929$GBGSV,2,2,06,28,43,287,47,33,59,304,47,,,,,,,,*66
###2023-11-09 13:08:54.947420$GNVTG,64.28,T,,M,5.48,N,10.15,K,A*27
###2023-11-09 13:08:55.031991$GNGGA,130855.20,3611.0207693,N,07544.9877689,W,1,24,0.6,0.893,M,-39.962,M,0.0,*66
###2023-11-09 13:08:55.034587$GPGSV,2,1,07,05,20,090,42,10,19,293,43,13,24,045,41,15,61,037,46*76
###2023-11-09 13:08:55.036843$GPGSV,2,2,07,18,78,277,47,23,50,316,46,24,50,135,45,,,,*4E
###2023-11-09 13:08:55.039453$GLGSV,2,1,05,70,50,017,36,71,48,290,48,80,18,090,44,85,57,203,48*65
###2023-11-09 13:08:55.041068$GLGSV,2,2,05,86,53,308,48,,,,,,,,,,,,*5F
###2023-11-09 13:08:55.043650$GAGSV,1,1,04,07,72,258,45,08,48,043,45,13,64,160,45,26,57,310,45*61
###2023-11-09 13:08:55.046227$GBGSV,2,1,06,11,23,180,42,14,65,008,45,24,20,132,43,26,23,081,43*67
###2023-11-09 13:08:55.048179$GBGSV,2,2,06,28,43,287,47,33,59,304,47,,,,,,,,*66
###2023-11-09 13:08:55.049645$GNVTG,67.88,T,,M,5.64,N,10.44,K,A*24
###2023-11-09 13:08:55.130099$GNGGA,130855.30,3611.0208292,N,07544.9875890,W,1,24,0.6,0.835,M,-39.962,M,0.0,*65
###2023-11-09 13:08:55.132692$GPGSV,2,1,07,05,20,090,42,10,19,293,43,13,24,045,41,15,61,037,46*76
###2023-11-09 13:08:55.134938$GPGSV,2,2,07,18,78,277,47,23,50,316,45,24,50,135,45,,,,*4D
###2023-11-09 13:08:55.137547$GLGSV,2,1,05,70,50,017,36,71,48,290,47,80,18,090,44,85,57,203,48*6A
###2023-11-09 13:08:55.139160$GLGSV,2,2,05,86,53,308,47,,,,,,,,,,,,*50
###2023-11-09 13:08:55.141731$GAGSV,1,1,04,07,72,258,45,08,48,043,45,13,64,160,45,26,57,310,45*61
###2023-11-09 13:08:55.144317$GBGSV,2,1,06,11,23,180,42,14,65,008,45,24,20,132,43,26,23,081,43*67
###2023-11-09 13:08:55.146260$GBGSV,2,2,06,28,43,287,46,33,59,304,47,,,,,,,,*67
###2023-11-09 13:08:55.147753$GNVTG,67.80,T,,M,5.71,N,10.58,K,A*25
###2023-11-09 13:08:55.229492$GNGGA,130855.40,3611.0208899,N,07544.9874064,W,1,24,0.6,0.781,M,-39.962,M,0.0,*61
###2023-11-09 13:08:55.232080$GPGSV,2,1,07,05,20,090,42,10,19,293,43,13,24,045,41,15,61,037,45*75
###2023-11-09 13:08:55.234318$GPGSV,2,2,07,18,78,277,47,23,50,316,45,24,50,135,45,,,,*4D
###2023-11-09 13:08:55.236881$GLGSV,2,1,05,70,50,017,35,71,48,290,47,80,18,090,44,85,57,203,49*68
###2023-11-09 13:08:55.238502$GLGSV,2,2,05,86,53,308,46,,,,,,,,,,,,*51
###2023-11-09 13:08:55.241054$GAGSV,1,1,04,07,72,258,45,08,48,043,44,13,64,160,45,26,57,310,44*61
###2023-11-09 13:08:55.243646$GBGSV,2,1,06,11,23,180,43,14,65,008,45,24,20,132,44,26,23,081,43*61
###2023-11-09 13:08:55.245592$GBGSV,2,2,06,28,43,287,46,33,59,304,46,,,,,,,,*66
###2023-11-09 13:08:55.247064$GNVTG,67.99,T,,M,5.79,N,10.73,K,A*2C
###2023-11-09 13:08:55.329525$GNGGA,130855.50,3611.0209545,N,07544.9872232,W,1,24,0.6,0.730,M,-39.962,M,0.0,*60
###2023-11-09 13:08:55.332148$GPGSV,2,1,07,05,20,090,42,10,19,293,43,13,24,045,41,15,61,037,45*75
###2023-11-09 13:08:55.334417$GPGSV,2,2,07,18,78,277,47,23,50,316,44,24,50,135,45,,,,*4C
###2023-11-09 13:08:55.337130$GLGSV,2,1,05,70,50,017,35,71,48,290,47,80,18,090,44,85,57,203,49*68
###2023-11-09 13:08:55.338747$GLGSV,2,2,05,86,53,308,46,,,,,,,,,,,,*51
###2023-11-09 13:08:55.341330$GAGSV,1,1,04,07,72,258,45,08,48,043,44,13,64,160,45,26,57,310,43*66
###2023-11-09 13:08:55.343913$GBGSV,2,1,06,11,23,180,43,14,65,008,45,24,20,132,45,26,23,081,43*60
###2023-11-09 13:08:55.345858$GBGSV,2,2,06,28,43,287,46,33,59,304,45,,,,,,,,*65
###2023-11-09 13:08:55.347334$GNVTG,65.68,T,,M,5.87,N,10.87,K,A*2A
###2023-11-09 13:08:55.430500$GNGGA,130855.60,3611.0210252,N,07544.9870411,W,1,24,0.6,0.693,M,-39.962,M,0.0,*67
###2023-11-09 13:08:55.433111$GPGSV,2,1,07,05,20,090,43,10,19,293,43,13,24,045,41,15,61,037,45*74
###2023-11-09 13:08:55.435375$GPGSV,2,2,07,18,78,277,47,23,50,316,44,24,50,135,45,,,,*4C
###2023-11-09 13:08:55.437983$GLGSV,2,1,05,70,50,017,35,71,48,290,47,80,18,090,44,85,57,203,49*68
###2023-11-09 13:08:55.439602$GLGSV,2,2,05,86,53,308,46,,,,,,,,,,,,*51
###2023-11-09 13:08:55.442178$GAGSV,1,1,04,07,72,258,45,08,48,043,44,13,64,160,45,26,57,310,43*66
###2023-11-09 13:08:55.444775$GBGSV,2,1,06,11,23,180,43,14,65,008,44,24,20,132,45,26,23,081,43*61
###2023-11-09 13:08:55.446721$GBGSV,2,2,06,28,43,287,46,33,59,304,45,,,,,,,,*65
###2023-11-09 13:08:55.448211$GNVTG,63.82,T,,M,5.91,N,10.94,K,A*2D
###2023-11-09 13:08:55.529634$GNGGA,130855.70,3611.0210989,N,07544.9868584,W,1,24,0.6,0.668,M,-39.962,M,0.0,*6B
###2023-11-09 13:08:55.532222$GPGSV,2,1,07,05,20,090,43,10,19,293,43,13,24,045,41,15,61,037,45*74
###2023-11-09 13:08:55.534474$GPGSV,2,2,07,18,78,277,46,23,50,316,45,24,50,135,45,,,,*4C
###2023-11-09 13:08:55.537059$GLGSV,2,1,05,70,50,017,35,71,48,290,47,80,18,090,44,85,57,203,49*68
###2023-11-09 13:08:55.538670$GLGSV,2,2,05,86,53,308,47,,,,,,,,,,,,*50
###2023-11-09 13:08:55.541246$GAGSV,1,1,04,07,72,258,45,08,48,043,44,13,64,160,45,26,57,310,44*61
###2023-11-09 13:08:55.543816$GBGSV,2,1,06,11,23,180,43,14,65,008,44,24,20,132,45,26,23,081,43*61
###2023-11-09 13:08:55.545737$GBGSV,2,2,06,28,43,287,46,33,59,304,46,,,,,,,,*66
###2023-11-09 13:08:55.547206$GNVTG,63.73,T,,M,5.99,N,11.09,K,A*2E
###2023-11-09 13:08:55.628523$GNGGA,130855.80,3611.0211718,N,07544.9866745,W,1,24,0.6,0.655,M,-39.962,M,0.0,*6C
###2023-11-09 13:08:55.631124$GPGSV,2,1,07,05,20,090,43,10,19,293,43,13,24,045,41,15,61,037,45*74
###2023-11-09 13:08:55.633381$GPGSV,2,2,07,18,78,277,46,23,50,316,46,24,50,135,45,,,,*4F
###2023-11-09 13:08:55.635969$GLGSV,2,1,05,70,50,017,35,71,48,290,47,80,18,090,44,85,57,203,49*68
###2023-11-09 13:08:55.637592$GLGSV,2,2,05,86,53,308,48,,,,,,,,,,,,*5F
###2023-11-09 13:08:55.640172$GAGSV,1,1,04,07,72,258,45,08,48,043,44,13,64,160,45,26,57,310,44*61
###2023-11-09 13:08:55.642765$GBGSV,2,1,06,11,23,180,43,14,65,008,44,24,20,132,45,26,23,081,43*61
###2023-11-09 13:08:55.644701$GBGSV,2,2,06,28,43,287,47,33,59,304,47,,,,,,,,*66
###2023-11-09 13:08:55.646174$GNVTG,64.63,T,,M,5.97,N,11.05,K,A*2A
###2023-11-09 13:08:55.729539$GNGGA,130855.90,3611.0212425,N,07544.9864892,W,1,24,0.6,0.661,M,-39.962,M,0.0,*63
###2023-11-09 13:08:55.732155$GPGSV,2,1,07,05,20,090,43,10,19,293,44,13,24,045,41,15,61,037,45*73
###2023-11-09 13:08:55.734424$GPGSV,2,2,07,18,78,277,46,23,50,316,46,24,50,135,45,,,,*4F
###2023-11-09 13:08:55.737023$GLGSV,2,1,05,70,50,017,36,71,48,290,48,80,18,090,44,85,57,203,49*64
###2023-11-09 13:08:55.738641$GLGSV,2,2,05,86,53,308,48,,,,,,,,,,,,*5F
###2023-11-09 13:08:55.741237$GAGSV,1,1,04,07,72,258,45,08,48,043,45,13,64,160,45,26,57,310,44*60
###2023-11-09 13:08:55.743831$GBGSV,2,1,06,11,23,180,43,14,65,008,45,24,20,132,44,26,23,081,43*61
###2023-11-09 13:08:55.745778$GBGSV,2,2,06,28,43,287,47,33,59,304,47,,,,,,,,*66
###2023-11-09 13:08:55.747271$GNVTG,65.48,T,,M,5.99,N,11.09,K,A*20
###2023-11-09 13:08:55.831613$GNGGA,130856.00,3611.0213110,N,07544.9863028,W,1,24,0.6,0.677,M,-39.962,M,0.0,*62
###2023-11-09 13:08:55.834201$GPGSV,2,1,07,05,20,090,43,10,19,293,44,13,24,045,41,15,61,037,45*73
###2023-11-09 13:08:55.836455$GPGSV,2,2,07,18,78,277,46,23,50,316,46,24,50,135,45,,,,*4F
###2023-11-09 13:08:55.839038$GLGSV,2,1,05,70,50,017,36,71,48,290,48,80,18,090,44,85,57,203,48*65
###2023-11-09 13:08:55.840649$GLGSV,2,2,05,86,53,308,48,,,,,,,,,,,,*5F
###2023-11-09 13:08:55.843217$GAGSV,1,1,04,07,72,258,45,08,48,043,45,13,64,160,45,26,57,310,45*61
###2023-11-09 13:08:55.845787$GBGSV,2,1,06,11,23,180,42,14,65,008,44,24,20,132,44,26,23,081,42*60
###2023-11-09 13:08:55.847733$GBGSV,2,2,06,28,43,287,47,33,59,304,47,,,,,,,,*66
###2023-11-09 13:08:55.849200$GNVTG,66.36,T,,M,5.97,N,11.05,K,A*28
###2023-11-09 13:08:55.938540$GNGGA,130856.10,3611.0213776,N,07544.9861152,W,1,24,0.6,0.699,M,-39.962,M,0.0,*6B
###2023-11-09 13:08:55.941137$GPGSV,2,1,07,05,20,090,43,10,19,293,44,13,24,045,41,15,61,037,45*73
###2023-11-09 13:08:55.943408$GPGSV,2,2,07,18,78,277,47,23,50,316,46,24,50,135,45,,,,*4E
###2023-11-09 13:08:55.945981$GLGSV,2,1,05,70,50,017,36,71,48,290,48,80,18,090,45,85,57,203,48*64
###2023-11-09 13:08:55.947616$GLGSV,2,2,05,86,53,308,48,,,,,,,,,,,,*5F
###2023-11-09 13:08:55.950485$GAGSV,1,1,04,07,72,258,45,08,48,043,45,13,64,160,45,26,57,310,45*61
###2023-11-09 13:08:55.953094$GBGSV,2,1,06,11,23,180,42,14,65,008,44,24,20,132,44,26,23,081,42*60
###2023-11-09 13:08:55.955041$GBGSV,2,2,06,28,43,287,47,33,59,304,47,,,,,,,,*66
###2023-11-09 13:08:55.956519$GNVTG,66.85,T,,M,5.99,N,11.09,K,A*22
###2023-11-09 13:08:56.032886$GNGGA,130856.20,3611.0214424,N,07544.9859301,W,1,24,0.6,0.720,M,-39.962,M,0.0,*67
###2023-11-09 13:08:56.035491$GPGSV,2,1,07,05,20,090,43,10,19,293,43,13,24,045,41,15,61,037,45*74
###2023-11-09 13:08:56.037780$GPGSV,2,2,07,18,78,277,47,23,50,316,46,24,50,135,45,,,,*4E
###2023-11-09 13:08:56.040368$GLGSV,2,1,05,70,50,017,35,71,48,290,48,80,18,090,45,85,57,203,48*67
###2023-11-09 13:08:56.041988$GLGSV,2,2,05,86,53,308,48,,,,,,,,,,,,*5F
###2023-11-09 13:08:56.044570$GAGSV,1,1,04,07,72,258,45,08,48,043,44,13,64,160,45,26,57,310,45*60
