###2023-11-09 13:06:31.339650$GLGSV,2,1,05,70,50,016,36,71,48,288,48,80,17,091,44,85,58,203,48*6C
###2023-11-09 13:06:31.341282$GLGSV,2,2,05,86,52,309,47,,,,,,,,,,,,*50
###2023-11-09 13:06:31.343862$GAGSV,1,1,04,07,72,255,45,08,49,042,44,13,64,160,44,26,56,311,45*6C
###2023-11-09 13:06:31.346439$GBGSV,2,1,06,11,24,180,41,14,65,006,46,24,19,133,43,26,23,082,42*67
###2023-11-09 13:06:31.348403$GBGSV,2,2,06,28,43,289,47,33,58,302,47,,,,,,,,*6F
###2023-11-09 13:06:31.349842$GNVTG,36.82,T,,M,0.76,N,1.40,K,A*18
###2023-11-09 13:06:31.434001$GNGGA,130631.60,3611.0423839,N,07544.9799936,W,1,24,0.6,0.885,M,-39.961,M,0.0,*60
###2023-11-09 13:06:31.436603$GPGSV,2,1,07,05,21,090,42,10,18,292,43,13,24,045,41,15,62,037,45*77
###2023-11-09 13:06:31.438874$GPGSV,2,2,07,18,77,282,47,23,49,314,45,24,49,137,46,,,,*4B
###2023-11-09 13:06:31.441450$GLGSV,2,1,05,70,50,016,36,71,48,288,48,80,17,091,44,85,58,203,48*6C
###2023-11-09 13:06:31.443054$GLGSV,2,2,05,86,52,309,47,,,,,,,,,,,,*50
###2023-11-09 13:06:31.445615$GAGSV,1,1,04,07,72,255,45,08,49,042,44,13,64,160,44,26,56,311,45*6C
###2023-11-09 13:06:31.448191$GBGSV,2,1,06,11,24,180,41,14,65,006,46,24,19,133,43,26,23,082,42*67
###2023-11-09 13:06:31.450126$GBGSV,2,2,06,28,43,289,47,33,58,302,47,,,,,,,,*6F
###2023-11-09 13:06:31.451558$GNVTG,34.30,T,,M,0.99,N,1.84,K,A*1A
###2023-11-09 13:06:31.532332$GNGGA,130631.70,3611.0424088,N,07544.9799745,W,1,24,0.6,0.884,M,-39.961,M,0.0,*6F
###2023-11-09 13:06:31.534903$GPGSV,2,1,07,05,21,090,42,10,18,292,42,13,24,045,41,15,62,037,45*76
###2023-11-09 13:06:31.537173$GPGSV,2,2,07,18,77,282,47,23,49,314,45,24,49,137,46,,,,*4B
###2023-11-09 13:06:31.539751$GLGSV,2,1,05,70,50,016,36,71,48,288,48,80,17,091,44,85,58,203,48*6C
###2023-11-09 13:06:31.541361$GLGSV,2,2,05,86,52,309,47,,,,,,,,,,,,*50
###2023-11-09 13:06:31.543908$GAGSV,1,1,04,07,72,255,45,08,49,042,44,13,64,160,44,26,56,311,45*6C
###2023-11-09 13:06:31.546464$GBGSV,2,1,06,11,24,180,42,14,65,006,46,24,19,133,43,26,23,082,42*64
###2023-11-09 13:06:31.548402$GBGSV,2,2,06,28,43,289,47,33,58,302,47,,,,,,,,*6F
###2023-11-09 13:06:31.549819$GNVTG,31.70,T,,M,1.07,N,1.98,K,A*10
###2023-11-09 13:06:31.631375$GNGGA,130631.80,3611.0424369,N,07544.9799545,W,1,24,0.6,0.880,M,-39.961,M,0.0,*6A
###2023-11-09 13:06:31.633968$GPGSV,2,1,07,05,21,090,42,10,18,292,42,13,24,045,41,15,62,037,45*76
###2023-11-09 13:06:31.636215$GPGSV,2,2,07,18,77,282,47,23,49,314,45,24,49,137,46,,,,*4B
###2023-11-09 13:06:31.638803$GLGSV,2,1,05,70,50,016,36,71,48,288,48,80,17,091,43,85,58,203,48*6B
###2023-11-09 13:06:31.640408$GLGSV,2,2,05,86,52,309,47,,,,,,,,,,,,*50
###2023-11-09 13:06:31.642978$GAGSV,1,1,04,07,72,255,45,08,49,042,44,13,64,160,44,26,56,311,45*6C
###2023-11-09 13:06:31.645542$GBGSV,2,1,06,11,24,180,42,14,65,006,45,24,19,133,43,26,23,082,42*67
###2023-11-09 13:06:31.647492$GBGSV,2,2,06,28,43,289,47,33,58,302,47,,,,,,,,*6F
###2023-11-09 13:06:31.648917$GNVTG,31.05,T,,M,1.21,N,2.23,K,A*15
###2023-11-09 13:06:31.737372$GNGGA,130631.90,3611.0424673,N,07544.9799335,W,1,24,0.6,0.874,M,-39.961,M,0.0,*6F
###2023-11-09 13:06:31.739956$GPGSV,2,1,07,05,21,090,42,10,18,292,42,13,24,045,41,15,62,037,45*76
###2023-11-09 13:06:31.742209$GPGSV,2,2,07,18,77,282,47,23,49,314,45,24,49,137,46,,,,*4B
###2023-11-09 13:06:31.744771$GLGSV,2,1,05,70,50,016,36,71,48,288,48,80,17,091,43,85,58,203,48*6B
###2023-11-09 13:06:31.746380$GLGSV,2,2,05,86,52,309,47,,,,,,,,,,,,*50
###2023-11-09 13:06:31.748968$GAGSV,1,1,04,07,72,255,45,08,49,042,44,13,64,160,44,26,56,311,45*6C
###2023-11-09 13:06:31.751543$GBGSV,2,1,06,11,24,180,42,14,65,006,45,24,19,133,43,26,23,082,42*67
###2023-11-09 13:06:31.753478$GBGSV,2,2,06,28,43,289,47,33,58,302,47,,,,,,,,*6F
###2023-11-09 13:06:31.754909$GNVTG,29.13,T,,M,1.24,N,2.30,K,A*1C
###2023-11-09 13:06:31.837723$GNGGA,130632.00,3611.0424979,N,07544.9799116,W,1,24,0.6,0.871,M,-39.961,M,0.0,*66
###2023-11-09 13:06:31.840283$GPGSV,2,1,07,05,21,090,42,10,18,292,44,13,24,045,41,15,62,037,46*73
###2023-11-09 13:06:31.842518$GPGSV,2,2,07,18,77,282,47,23,49,314,45,24,49,137,46,,,,*4B
###2023-11-09 13:06:31.845074$GLGSV,2,1,05,70,50,016,36,71,48,288,48,80,17,091,44,85,58,203,48*6C
###2023-11-09 13:06:31.846673$GLGSV,2,2,05,86,52,309,47,,,,,,,,,,,,*50
###2023-11-09 13:06:31.849225$GAGSV,1,1,04,07,72,255,45,08,49,042,44,13,64,160,44,26,56,311,45*6C
###2023-11-09 13:06:31.851803$GBGSV,2,1,06,11,24,180,42,14,65,006,46,24,19,133,43,26,23,082,42*64
###2023-11-09 13:06:31.853738$GBGSV,2,2,06,28,43,289,47,33,58,302,47,,,,,,,,*6F
###2023-11-09 13:06:31.855170$GNVTG,32.75,T,,M,1.24,N,2.30,K,A*16
###2023-11-09 13:06:31.948871$GNGGA,130632.10,3611.0425268,N,07544.9798893,W,1,24,0.6,0.867,M,-39.961,M,0.0,*6F
###2023-11-09 13:06:31.951446$GPGSV,2,1,07,05,21,090,42,10,18,292,44,13,24,045,41,15,62,037,46*73
###2023-11-09 13:06:31.953709$GPGSV,2,2,07,18,77,282,47,23,49,314,45,24,49,137,46,,,,*4B
###2023-11-09 13:06:31.956270$GLGSV,2,1,05,70,50,016,36,71,48,288,48,80,17,091,45,85,58,203,48*6D
###2023-11-09 13:06:31.957888$GLGSV,2,2,05,86,52,309,47,,,,,,,,,,,,*50
###2023-11-09 13:06:31.960449$GAGSV,1,1,04,07,72,255,45,08,49,042,44,13,64,160,44,26,56,311,45*6C
###2023-11-09 13:06:31.963024$GBGSV,2,1,06,11,24,180,41,14,65,006,46,24,19,133,43,26,23,082,42*67
###2023-11-09 13:06:31.964949$GBGSV,2,2,06,28,43,289,47,33,58,302,47,,,,,,,,*6F
###2023-11-09 13:06:31.966370$GNVTG,32.92,T,,M,1.17,N,2.16,K,A*1B
###2023-11-09 13:06:32.039493$GNGGA,130632.20,3611.0425526,N,07544.9798681,W,1,24,0.6,0.858,M,-39.961,M,0.0,*60
###2023-11-09 13:06:32.042080$GPGSV,2,1,07,05,21,090,42,10,18,292,44,13,24,045,41,15,62,037,46*73
###2023-11-09 13:06:32.044333$GPGSV,2,2,07,18,77,282,47,23,49,314,45,24,49,137,46,,,,*4B
###2023-11-09 13:06:32.046884$GLGSV,2,1,05,70,50,016,36,71,48,288,48,80,17,091,45,85,58,203,48*6D
###2023-11-09 13:06:32.048500$GLGSV,2,2,05,86,52,309,47,,,,,,,,,,,,*50
###2023-11-09 13:06:32.051053$GAGSV,1,1,04,07,72,255,45,08,49,042,44,13,64,160,44,26,56,311,45*6C
###2023-11-09 13:06:32.053618$GBGSV,2,1,06,11,24,180,41,14,65,006,46,24,19,133,43,26,23,082,42*67
###2023-11-09 13:06:32.055551$GBGSV,2,2,06,28,43,289,47,33,58,302,47,,,,,,,,*6F
###2023-11-09 13:06:32.056988$GNVTG,36.57,T,,M,1.03,N,1.91,K,A*1F
###2023-11-09 13:06:32.137223$GNGGA,130632.30,3611.0425742,N,07544.9798469,W,1,24,0.6,0.853,M,-39.961,M,0.0,*6E
###2023-11-09 13:06:32.139792$GPGSV,2,1,07,05,21,090,42,10,18,292,44,13,24,045,41,15,62,037,46*73
###2023-11-09 13:06:32.142025$GPGSV,2,2,07,18,77,282,47,23,49,314,45,24,49,137,46,,,,*4B
###2023-11-09 13:06:32.144576$GLGSV,2,1,05,70,50,016,36,71,48,288,48,80,17,091,45,85,58,203,48*6D
###2023-11-09 13:06:32.146167$GLGSV,2,2,05,86,52,309,47,,,,,,,,,,,,*50
###2023-11-09 13:06:32.148723$GAGSV,1,1,04,07,72,255,45,08,49,042,44,13,64,160,44,26,56,311,45*6C
###2023-11-09 13:06:32.151292$GBGSV,2,1,06,11,24,180,41,14,65,006,46,24,19,133,43,26,23,082,42*67
###2023-11-09 13:06:32.153239$GBGSV,2,2,06,28,43,289,47,33,58,302,47,,,,,,,,*6F
###2023-11-09 13:06:32.154674$GNVTG,36.57,T,,M,0.91,N,1.69,K,A*12
###2023-11-09 13:06:32.232717$GNGGA,130632.40,3611.0425933,N,07544.9798256,W,1,24,0.6,0.848,M,-39.961,M,0.0,*61
###2023-11-09 13:06:32.235299$GPGSV,2,1,07,05,21,090,42,10,18,292,44,13,24,045,41,15,62,037,46*73
###2023-11-09 13:06:32.237572$GPGSV,2,2,07,18,77,282,47,23,49,314,45,24,49,137,46,,,,*4B
###2023-11-09 13:06:32.240146$GLGSV,2,1,05,70,50,016,36,71,48,288,48,80,17,091,45,85,58,203,48*6D
###2023-11-09 13:06:32.241765$GLGSV,2,2,05,86,52,309,47,,,,,,,,,,,,*50
###2023-11-09 13:06:32.244330$GAGSV,1,1,04,07,72,255,45,08,49,042,44,13,64,160,44,26,56,311,45*6C
###2023-11-09 13:06:32.246918$GBGSV,2,1,06,11,24,180,41,14,65,006,46,24,19,133,43,26,23,082,42*67
###2023-11-09 13:06:32.248868$GBGSV,2,2,06,28,43,289,47,33,58,302,47,,,,,,,,*6F
###2023-11-09 13:06:32.250298$GNVTG,36.57,T,,M,0.89,N,1.66,K,A*14
###2023-11-09 13:06:32.333023$GNGGA,130632.50,3611.0426122,N,07544.9798044,W,1,24,0.6,0.836,M,-39.961,M,0.0,*63
###2023-11-09 13:06:32.335605$GPGSV,2,1,07,05,21,090,42,10,18,292,44,13,24,045,41,15,62,037,46*73
###2023-11-09 13:06:32.337884$GPGSV,2,2,07,18,77,282,47,23,49,314,45,24,49,137,46,,,,*4B
###2023-11-09 13:06:32.340457$GLGSV,2,1,05,70,50,016,36,71,48,288,48,80,17,091,44,85,58,203,48*6C
###2023-11-09 13:06:32.342370$GLGSV,2,2,05,86,52,309,47,,,,,,,,,,,,*50
###2023-11-09 13:06:32.344936$GAGSV,1,1,04,07,72,255,45,08,49,042,44,13,64,160,44,26,56,311,45*6C
###2023-11-09 13:06:32.347525$GBGSV,2,1,06,11,24,180,41,14,65,006,46,24,19,133,43,26,23,082,42*67
###2023-11-09 13:06:32.349462$GBGSV,2,2,06,28,43,289,47,33,58,302,47,,,,,,,,*6F
###2023-11-09 13:06:32.350885$GNVTG,36.57,T,,M,0.89,N,1.66,K,A*14
###2023-11-09 13:06:32.431846$GNGGA,130632.60,3611.0426311,N,07544.9797814,W,1,24,0.6,0.822,M,-39.961,M,0.0,*65
###2023-11-09 13:06:32.434419$GPGSV,2,1,07,05,21,090,42,10,18,292,44,13,24,045,41,15,62,037,46*73
###2023-11-09 13:06:32.436664$GPGSV,2,2,07,18,77,282,47,23,49,314,45,24,49,137,46,,,,*4B
###2023-11-09 13:06:32.439257$GLGSV,2,1,05,70,50,016,36,71,48,288,48,80,17,091,44,85,58,203,48*6C
