###2023-11-09 13:06:08.146345$GAGSV,1,1,04,07,72,255,45,08,49,042,45,13,64,160,45,26,56,311,45*6C
###2023-11-09 13:06:08.148964$GBGSV,2,1,06,11,24,180,40,14,65,006,45,24,19,133,42,26,23,082,43*65
###2023-11-09 13:06:08.150917$GBGSV,2,2,06,28,43,289,47,33,58,302,48,,,,,,,,*60
###2023-11-09 13:06:08.152376$GNVTG,67.46,T,,M,1.03,N,1.91,K,A*1B
###2023-11-09 13:06:08.230743$GNGGA,130608.40,3611.0388790,N,07544.9834532,W,1,23,0.6,0.914,M,-39.962,M,0.0,*6F
###2023-11-09 13:06:08.233346$GPGSV,2,1,07,05,21,089,42,10,17,292,44,13,25,045,41,15,62,036,46*74
###2023-11-09 13:06:08.235600$GPGSV,2,2,07,18,77,285,47,23,49,314,46,24,49,137,45,,,,*4C
###2023-11-09 13:06:08.238187$GLGSV,1,1,04,71,48,288,49,80,17,091,45,85,59,204,48,86,52,311,48*6E
###2023-11-09 13:06:08.240767$GAGSV,1,1,04,07,72,255,45,08,49,042,45,13,64,160,45,26,56,311,45*6C
###2023-11-09 13:06:08.243345$GBGSV,2,1,06,11,24,180,40,14,65,006,45,24,19,133,42,26,23,082,43*65
###2023-11-09 13:06:08.245277$GBGSV,2,2,06,28,43,289,47,33,58,302,48,,,,,,,,*60
###2023-11-09 13:06:08.246699$GNVTG,68.09,T,,M,0.99,N,1.84,K,A*19
###2023-11-09 13:06:08.332844$GNGGA,130608.50,3611.0388900,N,07544.9834207,W,1,23,0.6,0.894,M,-39.962,M,0.0,*61
###2023-11-09 13:06:08.335430$GPGSV,2,1,07,05,21,089,42,10,17,292,44,13,25,045,41,15,62,036,46*74
###2023-11-09 13:06:08.337699$GPGSV,2,2,07,18,77,285,47,23,49,314,46,24,49,137,45,,,,*4C
###2023-11-09 13:06:08.340273$GLGSV,1,1,04,71,48,288,50,80,17,091,44,85,59,204,48,86,52,311,48*67
###2023-11-09 13:06:08.342845$GAGSV,1,1,04,07,72,255,45,08,49,042,45,13,64,160,45,26,56,311,45*6C
###2023-11-09 13:06:08.345428$GBGSV,2,1,06,11,24,180,40,14,65,006,45,24,19,133,41,26,23,082,43*66
###2023-11-09 13:06:08.347381$GBGSV,2,2,06,28,43,289,47,33,58,302,48,,,,,,,,*60
###2023-11-09 13:06:08.348813$GNVTG,67.75,T,,M,1.03,N,1.91,K,A*1B
###2023-11-09 13:06:08.431884$GNGGA,130608.60,3611.0389013,N,07544.9833866,W,1,23,0.6,0.868,M,-39.962,M,0.0,*61
###2023-11-09 13:06:08.434461$GPGSV,2,1,07,05,21,089,42,10,17,292,44,13,25,045,40,15,62,036,46*75
###2023-11-09 13:06:08.436703$GPGSV,2,2,07,18,77,285,47,23,49,314,46,24,49,137,45,,,,*4C
###2023-11-09 13:06:08.439274$GLGSV,1,1,04,71,48,288,50,80,17,091,44,85,59,204,48,86,52,311,48*67
###2023-11-09 13:06:08.441823$GAGSV,1,1,04,07,72,255,45,08,49,042,45,13,64,160,45,26,56,311,45*6C
###2023-11-09 13:06:08.444379$GBGSV,2,1,06,11,24,180,40,14,65,006,44,24,19,133,41,26,23,082,43*67
###2023-11-09 13:06:08.446296$GBGSV,2,2,06,28,43,289,47,33,58,302,48,,,,,,,,*60
###2023-11-09 13:06:08.447728$GNVTG,69.00,T,,M,1.11,N,2.05,K,A*1A
###2023-11-09 13:06:08.532008$GNGGA,130608.70,3611.0389136,N,07544.9833502,W,1,23,0.6,0.839,M,-39.962,M,0.0,*6D
###2023-11-09 13:06:08.534623$GPGSV,2,1,07,05,21,089,42,10,17,292,43,13,25,045,40,15,62,036,46*72
###2023-11-09 13:06:08.536883$GPGSV,2,2,07,18,77,285,47,23,49,314,46,24,49,137,45,,,,*4C
###2023-11-09 13:06:08.539473$GLGSV,1,1,04,71,48,288,49,80,17,091,44,85,59,204,48,86,52,311,48*6F
###2023-11-09 13:06:08.542067$GAGSV,1,1,04,07,72,255,45,08,49,042,45,13,64,160,45,26,56,311,45*6C
###2023-11-09 13:06:08.544653$GBGSV,2,1,06,11,24,180,40,14,65,006,44,24,19,133,41,26,23,082,43*67
###2023-11-09 13:06:08.546596$GBGSV,2,2,06,28,43,289,47,33,58,302,48,,,,,,,,*60
###2023-11-09 13:06:08.548040$GNVTG,67.27,T,,M,1.19,N,2.20,K,A*1E
###2023-11-09 13:06:08.632891$GNGGA,130608.80,3611.0389276,N,07544.9833096,W,1,23,0.6,0.814,M,-39.962,M,0.0,*62
###2023-11-09 13:06:08.635497$GPGSV,2,1,07,05,21,089,42,10,17,292,43,13,25,045,40,15,62,036,46*72
###2023-11-09 13:06:08.637781$GPGSV,2,2,07,18,77,285,47,23,49,314,46,24,49,137,45,,,,*4C
###2023-11-09 13:06:08.640363$GLGSV,1,1,04,71,48,288,49,80,17,091,44,85,59,204,48,86,52,311,48*6F
###2023-11-09 13:06:08.642952$GAGSV,1,1,04,07,72,255,45,08,49,042,45,13,64,160,45,26,56,311,45*6C
###2023-11-09 13:06:08.645548$GBGSV,2,1,06,11,24,180,40,14,65,006,44,24,19,133,41,26,23,082,43*67
###2023-11-09 13:06:08.647508$GBGSV,2,2,06,28,43,289,47,33,58,302,48,,,,,,,,*60
###2023-11-09 13:06:08.648953$GNVTG,67.83,T,,M,1.38,N,2.56,K,A*12
###2023-11-09 13:06:08.733622$GNGGA,130608.90,3611.0389432,N,07544.9832656,W,1,23,0.6,0.786,M,-39.962,M,0.0,*6A
###2023-11-09 13:06:08.736213$GPGSV,2,1,07,05,21,089,42,10,17,292,44,13,25,045,40,15,62,036,46*75
###2023-11-09 13:06:08.738489$GPGSV,2,2,07,18,77,285,47,23,49,314,46,24,49,137,45,,,,*4C
###2023-11-09 13:06:08.741069$GLGSV,1,1,04,71,48,288,49,80,17,091,45,85,59,204,48,86,52,311,48*6E
###2023-11-09 13:06:08.743639$GAGSV,1,1,04,07,72,255,45,08,49,042,45,13,64,160,45,26,56,311,45*6C
###2023-11-09 13:06:08.746225$GBGSV,2,1,06,11,24,180,40,14,65,006,45,24,19,133,42,26,23,082,43*65
###2023-11-09 13:06:08.748175$GBGSV,2,2,06,28,43,289,47,33,58,302,48,,,,,,,,*60
###2023-11-09 13:06:08.749603$GNVTG,66.13,T,,M,1.40,N,2.59,K,A*1A
###2023-11-09 13:06:08.836630$GNGGA,130609.00,3611.0389584,N,07544.9832230,W,1,23,0.6,0.758,M,-39.962,M,0.0,*69
###2023-11-09 13:06:08.839257$GPGSV,2,1,07,05,21,089,42,10,17,292,44,13,25,045,40,15,62,036,46*75
###2023-11-09 13:06:08.841523$GPGSV,2,2,07,18,77,285,47,23,49,314,46,24,49,137,45,,,,*4C
###2023-11-09 13:06:08.844092$GLGSV,1,1,04,71,48,288,49,80,17,091,45,85,59,204,48,86,52,311,47*61
###2023-11-09 13:06:08.846676$GAGSV,1,1,04,07,72,255,45,08,49,042,45,13,64,160,45,26,56,311,45*6C
###2023-11-09 13:06:08.849280$GBGSV,2,1,06,11,24,180,40,14,65,006,45,24,19,133,42,26,23,082,43*65
###2023-11-09 13:06:08.851225$GBGSV,2,2,06,28,43,289,47,33,58,302,48,,,,,,,,*60
###2023-11-09 13:06:08.852659$GNVTG,67.73,T,,M,1.30,N,2.41,K,A*13
###2023-11-09 13:06:08.933863$GNGGA,130609.10,3611.0389720,N,07544.9831836,W,1,23,0.6,0.734,M,-39.962,M,0.0,*61
###2023-11-09 13:06:08.936455$GPGSV,2,1,07,05,21,089,42,10,17,292,44,13,25,045,40,15,62,036,46*75
###2023-11-09 13:06:08.938867$GPGSV,2,2,07,18,77,285,47,23,49,314,46,24,49,137,45,,,,*4C
###2023-11-09 13:06:08.941456$GLGSV,1,1,04,71,48,288,49,80,17,091,45,85,59,204,48,86,52,311,47*61
###2023-11-09 13:06:08.944034$GAGSV,1,1,04,07,72,255,45,08,49,042,45,13,64,160,44,26,56,311,45*6D
###2023-11-09 13:06:08.946617$GBGSV,2,1,06,11,24,180,40,14,65,006,45,24,19,133,42,26,23,082,44*62
###2023-11-09 13:06:08.948584$GBGSV,2,2,06,28,43,289,47,33,58,302,48,,,,,,,,*60
###2023-11-09 13:06:08.950020$GNVTG,67.73,T,,M,1.19,N,2.20,K,A*1F
###2023-11-09 13:06:09.034484$GNGGA,130609.20,3611.0389831,N,07544.9831468,W,1,23,0.6,0.726,M,-39.962,M,0.0,*69
###2023-11-09 13:06:09.037085$GPGSV,2,1,07,05,21,089,42,10,17,292,44,13,25,045,40,15,62,036,46*75
###2023-11-09 13:06:09.039343$GPGSV,2,2,07,18,77,285,47,23,49,314,46,24,49,137,45,,,,*4C
###2023-11-09 13:06:09.041908$GLGSV,1,1,04,71,48,288,50,80,17,091,45,85,59,204,48,86,52,311,48*66
###2023-11-09 13:06:09.044476$GAGSV,1,1,04,07,72,255,45,08,49,042,45,13,64,160,44,26,56,311,45*6D
###2023-11-09 13:06:09.047067$GBGSV,2,1,06,11,24,180,40,14,65,006,45,24,19,133,43,26,23,082,44*63
###2023-11-09 13:06:09.048997$GBGSV,2,2,06,28,43,289,47,33,58,302,48,,,,,,,,*60
###2023-11-09 13:06:09.050421$GNVTG,72.55,T,,M,1.09,N,2.02,K,A*1E
###2023-11-09 13:06:09.132145$GNGGA,130609.30,3611.0389946,N,07544.9831100,W,1,23,0.6,0.732,M,-39.962,M,0.0,*67
###2023-11-09 13:06:09.134751$GPGSV,2,1,07,05,21,089,42,10,17,292,44,13,25,045,40,15,62,036,46*75
###2023-11-09 13:06:09.137036$GPGSV,2,2,07,18,77,285,47,23,49,314,46,24,49,137,45,,,,*4C
###2023-11-09 13:06:09.139617$GLGSV,1,1,04,71,48,288,50,80,17,091,45,85,59,204,48,86,52,311,48*66
###2023-11-09 13:06:09.142208$GAGSV,1,1,04,07,72,255,45,08,49,042,45,13,64,160,45,26,56,311,45*6C
###2023-11-09 13:06:09.144793$GBGSV,2,1,06,11,24,180,41,14,65,006,45,24,19,133,43,26,23,082,43*65
###2023-11-09 13:06:09.146733$GBGSV,2,2,06,28,43,289,47,33,58,302,48,,,,,,,,*60
###2023-11-09 13:06:09.148178$GNVTG,66.41,T,,M,1.21,N,2.23,K,A*17
###2023-11-09 13:06:09.232620$GNGGA,130609.40,3611.0390110,N,07544.9830714,W,1,23,0.6,0.748,M,-39.962,M,0.0,*6C
###2023-11-09 13:06:09.235225$GPGSV,2,1,07,05,21,089,42,10,17,292,44,13,25,045,40,15,62,036,46*75
###2023-11-09 13:06:09.237509$GPGSV,2,2,07,18,77,285,46,23,49,314,46,24,49,137,45,,,,*4D
###2023-11-09 13:06:09.240094$GLGSV,1,1,04,71,48,288,49,80,17,091,45,85,59,204,48,86,52,311,48*6E
###2023-11-09 13:06:09.242961$GAGSV,1,1,04,07,72,255,45,08,49,042,45,13,64,160,45,26,56,311,45*6C
###2023-11-09 13:06:09.245561$GBGSV,2,1,06,11,24,180,41,14,65,006,45,24,19,133,43,26,23,082,43*65
###2023-11-09 13:06:09.247535$GBGSV,2,2,06,28,43,289,47,33,58,302,48,,,,,,,,*60
###2023-11-09 13:06:09.248979$GNVTG,60.20,T,,M,1.32,N,2.45,K,A*14
###2023-11-09 13:06:09.332884$GNGGA,130609.50,3611.0390311,N,07544.9830316,W,1,23,0.6,0.772,M,-39.962,M,0.0,*61
###2023-11-09 13:06:09.335473$GPGSV,2,1,07,05,21,089,42,10,17,292,44,13,25,045,40,15,62,036,46*75
###2023-11-09 13:06:09.337748$GPGSV,2,2,07,18,77,285,46,23,49,314,46,24,49,137,44,,,,*4C
###2023-11-09 13:06:09.340337$GLGSV,1,1,04,71,48,288,49,80,17,091,45,85,59,204,48,86,52,311,48*6E
###2023-11-09 13:06:09.342915$GAGSV,1,1,04,07,72,255,45,08,49,042,45,13,64,160,45,26,56,311,45*6C
###2023-11-09 13:06:09.345495$GBGSV,2,1,06,11,24,180,41,14,65,006,45,24,19,133,43,26,23,082,43*65
###2023-11-09 13:06:09.347429$GBGSV,2,2,06,28,43,289,47,33,58,302,48,,,,,,,,*60
###2023-11-09 13:06:09.348845$GNVTG,57.50,T,,M,1.40,N,2.59,K,A*1F
