###2023-11-09 13:08:28.247316$GNVTG,200.10,T,,M,4.63,N,8.57,K,A*2B
###2023-11-09 13:08:28.329272$GNGGA,130828.50,3611.0296675,N,07545.0195021,W,1,24,0.6,0.680,M,-39.962,M,0.0,*6E
###2023-11-09 13:08:28.331862$GPGSV,2,1,07,05,20,090,43,10,19,293,43,13,24,045,42,15,61,037,46*74
###2023-11-09 13:08:28.334115$GPGSV,2,2,07,18,77,281,46,23,50,315,46,24,49,136,45,,,,*41
###2023-11-09 13:08:28.336684$GLGSV,2,1,05,70,50,017,36,71,48,290,49,80,18,090,45,85,57,203,48*65
###2023-11-09 13:08:28.338300$GLGSV,2,2,05,86,53,308,48,,,,,,,,,,,,*5F
###2023-11-09 13:08:28.340861$GAGSV,1,1,04,07,72,258,45,08,48,043,45,13,64,160,44,26,57,310,45*60
###2023-11-09 13:08:28.343435$GBGSV,2,1,06,11,23,180,40,14,65,008,46,24,20,132,44,26,23,081,43*61
###2023-11-09 13:08:28.345369$GBGSV,2,2,06,28,43,287,47,33,59,304,48,,,,,,,,*69
###2023-11-09 13:08:28.346843$GNVTG,201.89,T,,M,4.55,N,8.42,K,A*2B
###2023-11-09 13:08:28.430390$GNGGA,130828.60,3611.0295470,N,07545.0195592,W,1,24,0.6,0.697,M,-39.962,M,0.0,*62
###2023-11-09 13:08:28.432982$GPGSV,2,1,07,05,20,090,43,10,19,293,44,13,24,045,42,15,61,037,46*73
###2023-11-09 13:08:28.435247$GPGSV,2,2,07,18,77,281,46,23,50,315,46,24,49,136,45,,,,*41
###2023-11-09 13:08:28.437842$GLGSV,2,1,05,70,50,017,36,71,48,290,49,80,18,090,44,85,57,203,48*64
###2023-11-09 13:08:28.439461$GLGSV,2,2,05,86,53,308,48,,,,,,,,,,,,*5F
###2023-11-09 13:08:28.442041$GAGSV,1,1,04,07,72,258,45,08,48,043,45,13,64,160,44,26,57,310,45*60
###2023-11-09 13:08:28.444642$GBGSV,2,1,06,11,23,180,40,14,65,008,45,24,20,132,43,26,23,081,43*65
###2023-11-09 13:08:28.446590$GBGSV,2,2,06,28,43,287,47,33,59,304,48,,,,,,,,*69
###2023-11-09 13:08:28.448081$GNVTG,200.41,T,,M,4.68,N,8.68,K,A*28
###2023-11-09 13:08:28.529261$GNGGA,130828.70,3611.0294228,N,07545.0196102,W,1,24,0.6,0.710,M,-39.962,M,0.0,*69
###2023-11-09 13:08:28.531848$GPGSV,2,1,07,05,20,090,42,10,19,293,44,13,24,045,42,15,61,037,46*72
###2023-11-09 13:08:28.534095$GPGSV,2,2,07,18,77,281,46,23,50,315,46,24,49,136,45,,,,*41
###2023-11-09 13:08:28.536656$GLGSV,2,1,05,70,50,017,36,71,48,290,49,80,18,090,44,85,57,203,49*65
###2023-11-09 13:08:28.538280$GLGSV,2,2,05,86,53,308,49,,,,,,,,,,,,*5E
###2023-11-09 13:08:28.540854$GAGSV,1,1,04,07,72,258,45,08,48,043,45,13,64,160,44,26,57,310,45*60
###2023-11-09 13:08:28.543428$GBGSV,2,1,06,11,23,180,40,14,65,008,45,24,20,132,43,26,23,081,42*64
###2023-11-09 13:08:28.545356$GBGSV,2,2,06,28,43,287,47,33,59,304,48,,,,,,,,*69
###2023-11-09 13:08:28.546818$GNVTG,196.43,T,,M,4.70,N,8.71,K,A*27
###2023-11-09 13:08:28.628404$GNGGA,130828.80,3611.0292944,N,07545.0196507,W,1,24,0.6,0.722,M,-39.962,M,0.0,*61
###2023-11-09 13:08:28.631015$GPGSV,2,1,07,05,20,090,42,10,19,293,44,13,24,045,42,15,61,037,46*72
###2023-11-09 13:08:28.633281$GPGSV,2,2,07,18,77,281,46,23,50,315,46,24,49,136,45,,,,*41
###2023-11-09 13:08:28.635860$GLGSV,2,1,05,70,50,017,36,71,48,290,49,80,18,090,44,85,57,203,49*65
###2023-11-09 13:08:28.637488$GLGSV,2,2,05,86,53,308,49,,,,,,,,,,,,*5E
###2023-11-09 13:08:28.640058$GAGSV,1,1,04,07,72,258,45,08,48,043,45,13,64,160,44,26,57,310,45*60
###2023-11-09 13:08:28.642630$GBGSV,2,1,06,11,23,180,40,14,65,008,46,24,20,132,43,26,23,081,42*67
###2023-11-09 13:08:28.644549$GBGSV,2,2,06,28,43,287,47,33,59,304,48,,,,,,,,*69
###2023-11-09 13:08:28.646013$GNVTG,192.44,T,,M,4.78,N,8.86,K,A*24
###2023-11-09 13:08:28.730349$GNGGA,130828.90,3611.0291665,N,07545.0196892,W,1,24,0.6,0.721,M,-39.962,M,0.0,*6D
###2023-11-09 13:08:28.732930$GPGSV,2,1,07,05,20,090,43,10,19,293,43,13,24,045,42,15,61,037,46*74
###2023-11-09 13:08:28.735170$GPGSV,2,2,07,18,77,281,46,23,50,315,46,24,49,136,45,,,,*41
###2023-11-09 13:08:28.737744$GLGSV,2,1,05,70,50,017,36,71,48,290,49,80,18,090,45,85,57,203,49*64
###2023-11-09 13:08:28.739354$GLGSV,2,2,05,86,53,308,47,,,,,,,,,,,,*50
###2023-11-09 13:08:28.741913$GAGSV,1,1,04,07,72,258,45,08,48,043,45,13,64,160,44,26,57,310,45*60
###2023-11-09 13:08:28.744489$GBGSV,2,1,06,11,23,180,40,14,65,008,46,24,20,132,43,26,23,081,44*61
###2023-11-09 13:08:28.746410$GBGSV,2,2,06,28,43,287,47,33,59,304,48,,,,,,,,*69
###2023-11-09 13:08:28.747887$GNVTG,194.91,T,,M,4.63,N,8.57,K,A*2C
###2023-11-09 13:08:28.831211$GNGGA,130829.00,3611.0290424,N,07545.0197351,W,1,24,0.6,0.717,M,-39.962,M,0.0,*63
###2023-11-09 13:08:28.833790$GPGSV,2,1,07,05,20,090,43,10,19,293,43,13,24,045,42,15,61,037,46*74
###2023-11-09 13:08:28.836032$GPGSV,2,2,07,18,77,281,46,23,50,315,46,24,49,136,45,,,,*41
###2023-11-09 13:08:28.838606$GLGSV,2,1,05,70,50,017,36,71,48,290,48,80,18,090,45,85,57,203,49*65
###2023-11-09 13:08:28.840196$GLGSV,2,2,05,86,53,308,47,,,,,,,,,,,,*50
###2023-11-09 13:08:28.842743$GAGSV,1,1,04,07,72,258,45,08,48,043,45,13,64,160,44,26,57,310,45*60
###2023-11-09 13:08:28.845299$GBGSV,2,1,06,11,23,180,40,14,65,008,46,24,20,132,44,26,23,081,44*66
###2023-11-09 13:08:28.847227$GBGSV,2,2,06,28,43,287,46,33,59,304,47,,,,,,,,*67
###2023-11-09 13:08:28.848678$GNVTG,198.38,T,,M,4.65,N,8.60,K,A*21
###2023-11-09 13:08:28.930263$GNGGA,130829.10,3611.0289182,N,07545.0197902,W,1,24,0.6,0.724,M,-39.962,M,0.0,*6F
###2023-11-09 13:08:28.932850$GPGSV,2,1,07,05,20,090,43,10,19,293,43,13,24,045,42,15,61,037,46*74
###2023-11-09 13:08:28.935089$GPGSV,2,2,07,18,77,281,46,23,50,315,46,24,49,136,45,,,,*41
###2023-11-09 13:08:28.937672$GLGSV,2,1,05,70,50,017,36,71,48,290,48,80,18,090,46,85,57,203,48*67
###2023-11-09 13:08:28.939274$GLGSV,2,2,05,86,53,308,48,,,,,,,,,,,,*5F
###2023-11-09 13:08:28.941822$GAGSV,1,1,04,07,72,258,45,08,48,043,45,13,64,160,44,26,57,310,45*60
###2023-11-09 13:08:28.944385$GBGSV,2,1,06,11,23,180,40,14,65,008,46,24,20,132,44,26,23,081,44*66
###2023-11-09 13:08:28.946312$GBGSV,2,2,06,28,43,287,46,33,59,304,47,,,,,,,,*67
###2023-11-09 13:08:28.947784$GNVTG,201.19,T,,M,4.80,N,8.89,K,A*2D
###2023-11-09 13:08:29.032494$GNGGA,130829.20,3611.0287931,N,07545.0198523,W,1,24,0.6,0.729,M,-39.962,M,0.0,*6F
###2023-11-09 13:08:29.035096$GPGSV,2,1,07,05,20,090,43,10,19,293,44,13,24,045,43,15,61,037,46*72
###2023-11-09 13:08:29.037371$GPGSV,2,2,07,18,77,281,46,23,50,315,46,24,49,136,45,,,,*41
###2023-11-09 13:08:29.039946$GLGSV,2,1,05,70,50,017,36,71,48,290,49,80,18,090,45,85,57,203,48*65
###2023-11-09 13:08:29.041558$GLGSV,2,2,05,86,53,308,48,,,,,,,,,,,,*5F
###2023-11-09 13:08:29.044125$GAGSV,1,1,04,07,72,258,45,08,48,043,45,13,64,160,44,26,57,310,45*60
###2023-11-09 13:08:29.046700$GBGSV,2,1,06,11,23,180,40,14,65,008,46,24,20,132,44,26,23,081,44*66
###2023-11-09 13:08:29.048649$GBGSV,2,2,06,28,43,287,47,33,59,304,47,,,,,,,,*66
###2023-11-09 13:08:29.050112$GNVTG,202.71,T,,M,4.84,N,8.96,K,A*2A
###2023-11-09 13:08:29.130331$GNGGA,130829.30,3611.0286665,N,07545.0199145,W,1,24,0.6,0.729,M,-39.962,M,0.0,*64
###2023-11-09 13:08:29.132898$GPGSV,2,1,07,05,20,090,43,10,19,293,44,13,24,045,43,15,61,037,46*72
###2023-11-09 13:08:29.135134$GPGSV,2,2,07,18,77,281,46,23,50,315,46,24,49,136,45,,,,*41
###2023-11-09 13:08:29.137712$GLGSV,2,1,05,70,50,017,36,71,48,290,49,80,18,090,45,85,57,203,49*64
###2023-11-09 13:08:29.139310$GLGSV,2,2,05,86,53,308,48,,,,,,,,,,,,*5F
###2023-11-09 13:08:29.141861$GAGSV,1,1,04,07,72,258,45,08,48,043,45,13,64,160,44,26,57,310,45*60
###2023-11-09 13:08:29.144419$GBGSV,2,1,06,11,23,180,40,14,65,008,46,24,20,132,43,26,23,081,44*61
###2023-11-09 13:08:29.146346$GBGSV,2,2,06,28,43,287,47,33,59,304,47,,,,,,,,*66
###2023-11-09 13:08:29.147815$GNVTG,200.89,T,,M,4.94,N,9.14,K,A*25
###2023-11-09 13:08:29.230360$GNGGA,130829.40,3611.0285387,N,07545.0199738,W,1,24,0.6,0.725,M,-39.962,M,0.0,*69
###2023-11-09 13:08:29.232943$GPGSV,2,1,07,05,20,090,42,10,19,293,44,13,24,045,42,15,61,037,46*72
###2023-11-09 13:08:29.235194$GPGSV,2,2,07,18,77,281,46,23,50,315,46,24,49,136,45,,,,*41
###2023-11-09 13:08:29.237787$GLGSV,2,1,05,70,50,017,36,71,48,290,49,80,18,090,45,85,57,203,49*64
###2023-11-09 13:08:29.239404$GLGSV,2,2,05,86,53,308,48,,,,,,,,,,,,*5F
###2023-11-09 13:08:29.241971$GAGSV,1,1,04,07,72,258,45,08,48,043,45,13,64,160,44,26,57,310,45*60
###2023-11-09 13:08:29.244543$GBGSV,2,1,06,11,23,180,40,14,65,008,46,24,20,132,43,26,23,081,43*66
###2023-11-09 13:08:29.246471$GBGSV,2,2,06,28,43,287,47,33,59,304,47,,,,,,,,*66
###2023-11-09 13:08:29.248241$GNVTG,200.52,T,,M,4.84,N,8.96,K,A*29
###2023-11-09 13:08:29.330365$GNGGA,130829.50,3611.0284113,N,07545.0200305,W,1,24,0.6,0.726,M,-39.962,M,0.0,*6C
###2023-11-09 13:08:29.332964$GPGSV,2,1,07,05,20,090,42,10,19,293,45,13,24,045,42,15,61,037,46*73
###2023-11-09 13:08:29.335227$GPGSV,2,2,07,18,77,281,46,23,50,315,46,24,49,136,45,,,,*41
###2023-11-09 13:08:29.337955$GLGSV,2,1,05,70,50,017,36,71,48,290,49,80,18,090,45,85,57,203,49*64
###2023-11-09 13:08:29.339565$GLGSV,2,2,05,86,53,308,48,,,,,,,,,,,,*5F
###2023-11-09 13:08:29.342124$GAGSV,1,1,04,07,72,258,45,08,48,043,45,13,64,160,44,26,57,310,45*60
###2023-11-09 13:08:29.344702$GBGSV,2,1,06,11,23,180,40,14,65,008,45,24,20,132,43,26,23,081,43*65
###2023-11-09 13:08:29.346639$GBGSV,2,2,06,28,43,287,47,33,59,304,48,,,,,,,,*69
###2023-11-09 13:08:29.348114$GNVTG,199.21,T,,M,4.86,N,9.00,K,A*22
