###2023-11-09 13:09:38.538398$GLGSV,2,1,05,70,50,017,35,71,48,290,47,80,18,090,40,85,57,203,48*6D
###2023-11-09 13:09:38.540038$GLGSV,2,2,05,86,53,308,47,,,,,,,,,,,,*50
###2023-11-09 13:09:38.542605$GAGSV,1,1,04,07,73,259,45,08,48,043,43,13,63,161,44,26,57,310,44*61
###2023-11-09 13:09:38.545192$GBGSV,2,1,06,11,22,180,42,14,65,009,45,24,20,132,42,26,23,081,41*64
###2023-11-09 13:09:38.547151$GBGSV,2,2,06,28,43,287,47,33,59,304,46,,,,,,,,*67
###2023-11-09 13:09:38.548621$GNVTG,91.42,T,,M,9.89,N,18.32,K,A*2D
###2023-11-09 13:09:38.630611$GNGGA,130938.80,3611.0338221,N,07544.9326883,W,1,24,0.6,0.721,M,-39.961,M,0.0,*68
###2023-11-09 13:09:38.633215$GPGSV,2,1,07,05,20,090,38,10,19,293,45,13,24,045,39,15,61,037,45*71
###2023-11-09 13:09:38.635474$GPGSV,2,2,07,18,78,277,46,23,50,316,45,24,50,134,45,,,,*4D
###2023-11-09 13:09:38.638072$GLGSV,2,1,05,70,50,017,35,71,48,290,47,80,18,090,40,85,57,203,48*6D
###2023-11-09 13:09:38.639689$GLGSV,2,2,05,86,53,308,47,,,,,,,,,,,,*50
###2023-11-09 13:09:38.642255$GAGSV,1,1,04,07,73,259,45,08,48,043,43,13,63,161,44,26,57,310,45*60
###2023-11-09 13:09:38.644842$GBGSV,2,1,06,11,22,180,40,14,65,009,45,24,20,132,41,26,23,081,41*65
###2023-11-09 13:09:38.646785$GBGSV,2,2,06,28,43,287,47,33,59,304,47,,,,,,,,*66
###2023-11-09 13:09:38.648266$GNVTG,86.31,T,,M,9.87,N,18.29,K,A*2B
###2023-11-09 13:09:38.730485$GNGGA,130938.90,3611.0338310,N,07544.9323490,W,1,24,0.6,0.752,M,-39.961,M,0.0,*65
###2023-11-09 13:09:38.733071$GPGSV,2,1,07,05,20,090,38,10,19,293,44,13,24,045,39,15,61,037,45*70
###2023-11-09 13:09:38.735316$GPGSV,2,2,07,18,78,277,45,23,50,316,45,24,50,134,44,,,,*4F
###2023-11-09 13:09:38.737898$GLGSV,2,1,05,70,50,017,35,71,48,290,47,80,18,090,39,85,57,203,47*6C
###2023-11-09 13:09:38.739500$GLGSV,2,2,05,86,53,308,46,,,,,,,,,,,,*51
###2023-11-09 13:09:38.742064$GAGSV,1,1,04,07,73,259,45,08,48,043,43,13,63,161,44,26,57,310,44*61
###2023-11-09 13:09:38.744631$GBGSV,2,1,06,11,22,180,39,14,65,009,45,24,20,132,41,26,23,081,41*6B
###2023-11-09 13:09:38.746560$GBGSV,2,2,06,28,43,287,47,33,59,304,47,,,,,,,,*66
###2023-11-09 13:09:38.748032$GNVTG,89.77,T,,M,9.93,N,18.40,K,A*2C
###2023-11-09 13:09:38.832605$GNGGA,130939.00,3611.0338163,N,07544.9320081,W,1,24,0.6,0.735,M,-39.961,M,0.0,*6D
###2023-11-09 13:09:38.835200$GPGSV,2,1,07,05,20,090,38,10,19,293,44,13,24,045,39,15,61,037,45*70
###2023-11-09 13:09:38.837474$GPGSV,2,2,07,18,78,277,45,23,50,316,45,24,50,134,44,,,,*4F
###2023-11-09 13:09:38.840045$GLGSV,2,1,05,70,50,017,35,71,48,290,47,80,18,090,40,85,57,203,46*63
###2023-11-09 13:09:38.841656$GLGSV,2,2,05,86,53,308,46,,,,,,,,,,,,*51
###2023-11-09 13:09:38.844226$GAGSV,1,1,04,07,73,259,44,08,48,043,43,13,63,161,43,26,57,310,44*67
###2023-11-09 13:09:38.846796$GBGSV,2,1,06,11,22,180,39,14,65,009,45,24,20,132,41,26,23,081,41*6B
###2023-11-09 13:09:38.848752$GBGSV,2,2,06,28,43,287,46,33,59,304,47,,,,,,,,*67
###2023-11-09 13:09:38.850222$GNVTG,96.25,T,,M,9.99,N,18.50,K,A*2E
###2023-11-09 13:09:38.927265$GNGGA,130939.10,3611.0337823,N,07544.9316757,W,1,23,0.6,0.721,M,-39.961,M,0.0,*65
###2023-11-09 13:09:38.929857$GPGSV,2,1,07,05,20,090,40,10,19,293,44,13,24,045,39,15,61,037,45*7F
###2023-11-09 13:09:38.932115$GPGSV,2,2,07,18,78,277,46,23,50,316,45,24,50,134,45,,,,*4D
###2023-11-09 13:09:38.934693$GLGSV,1,1,04,71,48,290,47,80,18,090,40,85,57,203,47,86,53,308,46*63
###2023-11-09 13:09:38.937289$GAGSV,1,1,04,07,73,259,44,08,48,043,43,13,63,161,44,26,57,310,44*60
###2023-11-09 13:09:38.939884$GBGSV,2,1,06,11,22,180,41,14,65,009,45,24,21,132,41,26,23,081,41*65
###2023-11-09 13:09:38.941816$GBGSV,2,2,06,28,43,287,46,33,59,304,47,,,,,,,,*67
###2023-11-09 13:09:38.943275$GNVTG,98.09,T,,M,9.54,N,17.68,K,A*2B
###2023-11-09 13:09:39.030605$GNGGA,130939.20,3611.0337619,N,07544.9313574,W,1,23,0.6,0.705,M,-39.961,M,0.0,*61
###2023-11-09 13:09:39.033195$GPGSV,2,1,07,05,20,090,39,10,19,293,44,13,24,045,39,15,61,037,45*71
###2023-11-09 13:09:39.035436$GPGSV,2,2,07,18,78,277,46,23,50,316,45,24,50,134,46,,,,*4E
###2023-11-09 13:09:39.038017$GLGSV,1,1,04,71,48,290,47,80,18,090,40,85,57,203,48,86,53,308,46*6C
###2023-11-09 13:09:39.040583$GAGSV,1,1,04,07,73,259,44,08,48,043,43,13,63,161,44,26,57,310,44*60
###2023-11-09 13:09:39.043156$GBGSV,2,1,06,11,22,180,42,14,65,009,45,24,21,132,43,26,23,081,41*64
###2023-11-09 13:09:39.045085$GBGSV,2,2,06,28,43,287,46,33,59,304,47,,,,,,,,*67
###2023-11-09 13:09:39.046544$GNVTG,90.71,T,,M,9.14,N,16.92,K,A*2C
###2023-11-09 13:09:39.127164$GNGGA,130939.30,3611.0337674,N,07544.9310496,W,1,24,0.6,0.707,M,-39.961,M,0.0,*60
###2023-11-09 13:09:39.129774$GPGSV,2,1,07,05,20,090,39,10,19,293,44,13,24,045,39,15,61,037,45*71
###2023-11-09 13:09:39.132040$GPGSV,2,2,07,18,78,277,46,23,50,316,45,24,50,134,46,,,,*4E
###2023-11-09 13:09:39.134626$GLGSV,2,1,05,70,50,017,35,71,48,290,48,80,18,090,40,85,57,203,48*62
###2023-11-09 13:09:39.136237$GLGSV,2,2,05,86,53,308,47,,,,,,,,,,,,*50
###2023-11-09 13:09:39.138834$GAGSV,1,1,04,07,73,259,45,08,48,043,43,13,63,161,44,26,57,310,44*61
###2023-11-09 13:09:39.141425$GBGSV,2,1,06,11,22,180,42,14,65,009,45,24,21,132,43,26,23,081,41*64
###2023-11-09 13:09:39.143362$GBGSV,2,2,06,28,43,287,46,33,59,304,47,,,,,,,,*67
###2023-11-09 13:09:39.144833$GNVTG,86.61,T,,M,8.84,N,16.38,K,A*22
###2023-11-09 13:09:39.229633$GNGGA,130939.40,3611.0337768,N,07544.9307491,W,1,24,0.6,0.734,M,-39.961,M,0.0,*6A
###2023-11-09 13:09:39.232218$GPGSV,2,1,07,05,20,090,39,10,19,293,45,13,24,045,39,15,61,037,45*70
###2023-11-09 13:09:39.234471$GPGSV,2,2,07,18,78,277,46,23,50,316,45,24,50,134,46,,,,*4E
###2023-11-09 13:09:39.237052$GLGSV,2,1,05,70,50,017,35,71,48,290,48,80,18,090,40,85,57,203,48*62
###2023-11-09 13:09:39.238669$GLGSV,2,2,05,86,53,308,47,,,,,,,,,,,,*50
###2023-11-09 13:09:39.241243$GAGSV,1,1,04,07,73,259,45,08,48,043,44,13,63,161,44,26,57,310,44*66
###2023-11-09 13:09:39.243830$GBGSV,2,1,06,11,22,180,42,14,65,009,46,24,21,132,42,26,23,081,41*66
###2023-11-09 13:09:39.245776$GBGSV,2,2,06,28,43,287,47,33,59,304,47,,,,,,,,*66
###2023-11-09 13:09:39.247256$GNVTG,88.69,T,,M,8.71,N,16.13,K,A*27
###2023-11-09 13:09:39.327277$GNGGA,130939.50,3611.0337771,N,07544.9304570,W,1,24,0.6,0.744,M,-39.961,M,0.0,*69
###2023-11-09 13:09:39.329853$GPGSV,2,1,07,05,20,090,39,10,19,293,45,13,24,045,41,15,61,037,45*7F
###2023-11-09 13:09:39.332094$GPGSV,2,2,07,18,78,277,46,23,50,316,46,24,50,134,45,,,,*4E
###2023-11-09 13:09:39.334658$GLGSV,2,1,05,70,50,017,35,71,48,290,49,80,18,090,40,85,57,203,48*63
###2023-11-09 13:09:39.336257$GLGSV,2,2,05,86,53,308,48,,,,,,,,,,,,*5F
###2023-11-09 13:09:39.338827$GAGSV,1,1,04,07,73,259,45,08,48,043,44,13,63,161,44,26,57,310,44*66
###2023-11-09 13:09:39.341408$GBGSV,2,1,06,11,22,180,40,14,65,009,46,24,21,132,42,26,23,081,41*64
###2023-11-09 13:09:39.343348$GBGSV,2,2,06,28,43,287,47,33,59,304,47,,,,,,,,*66
###2023-11-09 13:09:39.344809$GNVTG,91.21,T,,M,8.34,N,15.44,K,A*23
###2023-11-09 13:09:39.428540$GNGGA,130939.60,3611.0337660,N,07544.9301735,W,1,24,0.6,0.747,M,-39.961,M,0.0,*6E
###2023-11-09 13:09:39.431154$GPGSV,2,1,07,05,20,090,39,10,19,293,45,13,24,045,41,15,61,037,45*7F
###2023-11-09 13:09:39.433411$GPGSV,2,2,07,18,78,277,46,23,50,316,46,24,50,134,45,,,,*4E
###2023-11-09 13:09:39.435992$GLGSV,2,1,05,70,50,017,35,71,48,290,49,80,18,090,40,85,57,203,48*63
###2023-11-09 13:09:39.437622$GLGSV,2,2,05,86,53,308,48,,,,,,,,,,,,*5F
###2023-11-09 13:09:39.440199$GAGSV,1,1,04,07,73,259,45,08,48,043,44,13,63,161,44,26,57,310,45*67
###2023-11-09 13:09:39.442783$GBGSV,2,1,06,11,22,180,40,14,65,009,46,24,21,132,42,26,23,081,42*67
###2023-11-09 13:09:39.444718$GBGSV,2,2,06,28,43,287,47,33,59,304,48,,,,,,,,*69
###2023-11-09 13:09:39.446189$GNVTG,94.27,T,,M,8.22,N,15.23,K,A*26
###2023-11-09 13:09:39.526306$GNGGA,130939.70,3611.0337461,N,07544.9298936,W,1,24,0.6,0.734,M,-39.961,M,0.0,*64
###2023-11-09 13:09:39.528929$GPGSV,2,1,07,05,20,090,39,10,19,293,45,13,24,045,41,15,61,037,45*7F
###2023-11-09 13:09:39.531199$GPGSV,2,2,07,18,78,277,46,23,50,316,45,24,50,134,46,,,,*4E
###2023-11-09 13:09:39.533786$GLGSV,2,1,05,70,50,017,35,71,48,290,48,80,18,090,40,85,57,203,48*62
###2023-11-09 13:09:39.535395$GLGSV,2,2,05,86,53,308,47,,,,,,,,,,,,*50
###2023-11-09 13:09:39.538265$GAGSV,1,1,04,07,73,259,45,08,48,043,44,13,63,161,44,26,57,310,45*67
###2023-11-09 13:09:39.540862$GBGSV,2,1,06,11,22,180,42,14,65,009,46,24,21,132,42,26,23,081,42*65
###2023-11-09 13:09:39.542813$GBGSV,2,2,06,28,43,287,46,33,59,304,47,,,,,,,,*67
###2023-11-09 13:09:39.544283$GNVTG,95.56,T,,M,8.18,N,15.16,K,A*2E
###2023-11-09 13:09:39.626995$GNGGA,130939.80,3611.0337290,N,07544.9296220,W,1,24,0.6,0.697,M,-39.961,M,0.0,*69
###2023-11-09 13:09:39.629594$GPGSV,2,1,07,05,20,090,39,10,19,293,44,13,24,045,39,15,61,037,45*71
###2023-11-09 13:09:39.631845$GPGSV,2,2,07,18,78,277,46,23,50,316,44,24,50,134,46,,,,*4F
###2023-11-09 13:09:39.634414$GLGSV,2,1,05,70,50,017,35,71,48,290,48,80,18,090,40,85,57,203,49*63
###2023-11-09 13:09:39.636014$GLGSV,2,2,05,86,53,308,46,,,,,,,,,,,,*51
###2023-11-09 13:09:39.638579$GAGSV,1,1,04,07,73,259,45,08,48,043,44,13,63,161,45,26,57,310,45*66
