###2023-11-09 13:08:33.841624$GLGSV,2,2,05,86,53,308,49,,,,,,,,,,,,*5E
###2023-11-09 13:08:33.844211$GAGSV,1,1,04,07,72,258,45,08,48,043,46,13,64,160,45,26,57,310,45*62
###2023-11-09 13:08:33.846811$GBGSV,2,1,06,11,23,180,41,14,65,008,46,24,20,132,42,26,23,081,44*61
###2023-11-09 13:08:33.848782$GBGSV,2,2,06,28,43,287,47,33,59,304,48,,,,,,,,*69
###2023-11-09 13:08:33.850250$GNVTG,147.86,T,,M,4.43,N,8.21,K,A*27
###2023-11-09 13:08:33.933344$GNGGA,130834.10,3611.0223635,N,07545.0205007,W,1,24,0.6,0.722,M,-39.962,M,0.0,*6A
###2023-11-09 13:08:33.935920$GPGSV,2,1,07,05,20,090,42,10,19,293,44,13,24,045,41,15,61,037,47*70
###2023-11-09 13:08:33.938181$GPGSV,2,2,07,18,78,277,46,23,50,315,46,24,49,136,45,,,,*47
###2023-11-09 13:08:33.940749$GLGSV,2,1,05,70,50,017,35,71,48,290,49,80,18,090,44,85,57,203,48*67
###2023-11-09 13:08:33.942345$GLGSV,2,2,05,86,53,308,48,,,,,,,,,,,,*5F
###2023-11-09 13:08:33.944908$GAGSV,1,1,04,07,72,258,45,08,48,043,46,13,64,160,45,26,57,310,45*62
###2023-11-09 13:08:33.947487$GBGSV,2,1,06,11,23,180,41,14,65,008,46,24,20,132,42,26,23,081,44*61
###2023-11-09 13:08:33.949417$GBGSV,2,2,06,28,43,287,48,33,59,304,48,,,,,,,,*66
###2023-11-09 13:08:33.950876$GNVTG,144.76,T,,M,4.41,N,8.17,K,A*2C
###2023-11-09 13:08:34.031120$GNGGA,130834.20,3611.0222679,N,07545.0204125,W,1,24,0.6,0.708,M,-39.962,M,0.0,*68
###2023-11-09 13:08:34.033718$GPGSV,2,1,07,05,20,090,42,10,19,293,44,13,24,045,41,15,61,037,47*70
###2023-11-09 13:08:34.035971$GPGSV,2,2,07,18,78,277,46,23,50,315,46,24,49,136,45,,,,*47
###2023-11-09 13:08:34.038556$GLGSV,2,1,05,70,50,017,35,71,48,290,49,80,18,090,44,85,57,203,48*67
###2023-11-09 13:08:34.040160$GLGSV,2,2,05,86,53,308,48,,,,,,,,,,,,*5F
###2023-11-09 13:08:34.042735$GAGSV,1,1,04,07,72,258,45,08,48,043,45,13,64,160,45,26,57,310,45*61
###2023-11-09 13:08:34.045325$GBGSV,2,1,06,11,23,180,41,14,65,008,46,24,20,132,42,26,23,081,44*61
###2023-11-09 13:08:34.047282$GBGSV,2,2,06,28,43,287,47,33,59,304,48,,,,,,,,*69
###2023-11-09 13:08:34.048749$GNVTG,141.39,T,,M,4.22,N,7.81,K,A*27
###2023-11-09 13:08:34.130736$GNGGA,130834.30,3611.0221781,N,07545.0203188,W,1,24,0.6,0.698,M,-39.962,M,0.0,*64
###2023-11-09 13:08:34.133324$GPGSV,2,1,07,05,20,090,42,10,19,293,44,13,24,045,41,15,61,037,47*70
###2023-11-09 13:08:34.135575$GPGSV,2,2,07,18,78,277,46,23,50,315,46,24,49,136,45,,,,*47
###2023-11-09 13:08:34.138171$GLGSV,2,1,05,70,50,017,35,71,48,290,49,80,18,090,44,85,57,203,48*67
###2023-11-09 13:08:34.139784$GLGSV,2,2,05,86,53,308,48,,,,,,,,,,,,*5F
###2023-11-09 13:08:34.142343$GAGSV,1,1,04,07,72,258,45,08,48,043,45,13,64,160,45,26,57,310,45*61
###2023-11-09 13:08:34.144924$GBGSV,2,1,06,11,23,180,41,14,65,008,46,24,20,132,42,26,23,081,44*61
###2023-11-09 13:08:34.146855$GBGSV,2,2,06,28,43,287,47,33,59,304,48,,,,,,,,*69
###2023-11-09 13:08:34.148331$GNVTG,138.71,T,,M,4.24,N,7.85,K,A*27
###2023-11-09 13:08:34.228995$GNGGA,130834.40,3611.0220925,N,07545.0202226,W,1,24,0.6,0.693,M,-39.962,M,0.0,*6F
###2023-11-09 13:08:34.231569$GPGSV,2,1,07,05,20,090,42,10,19,293,44,13,24,045,42,15,61,037,46*72
###2023-11-09 13:08:34.233808$GPGSV,2,2,07,18,78,277,46,23,50,315,46,24,49,136,45,,,,*47
###2023-11-09 13:08:34.236363$GLGSV,2,1,05,70,50,017,35,71,48,290,49,80,18,090,44,85,57,203,48*67
###2023-11-09 13:08:34.237969$GLGSV,2,2,05,86,53,308,48,,,,,,,,,,,,*5F
###2023-11-09 13:08:34.240524$GAGSV,1,1,04,07,72,258,45,08,48,043,45,13,64,160,45,26,57,310,45*61
###2023-11-09 13:08:34.243080$GBGSV,2,1,06,11,23,180,41,14,65,008,46,24,20,132,41,26,23,081,44*62
###2023-11-09 13:08:34.245004$GBGSV,2,2,06,28,43,287,47,33,59,304,48,,,,,,,,*69
###2023-11-09 13:08:34.246462$GNVTG,137.24,T,,M,4.10,N,7.60,K,A*24
###2023-11-09 13:08:34.329141$GNGGA,130834.50,3611.0220090,N,07545.0201248,W,1,24,0.6,0.703,M,-39.962,M,0.0,*6A
###2023-11-09 13:08:34.331731$GPGSV,2,1,07,05,20,090,42,10,19,293,44,13,24,045,42,15,61,037,46*72
###2023-11-09 13:08:34.333986$GPGSV,2,2,07,18,78,277,46,23,50,315,46,24,49,136,45,,,,*47
###2023-11-09 13:08:34.336554$GLGSV,2,1,05,70,50,017,35,71,48,290,49,80,18,090,44,85,57,203,48*67
###2023-11-09 13:08:34.338168$GLGSV,2,2,05,86,53,308,48,,,,,,,,,,,,*5F
###2023-11-09 13:08:34.340735$GAGSV,1,1,04,07,72,258,45,08,48,043,45,13,64,160,45,26,57,310,45*61
###2023-11-09 13:08:34.343309$GBGSV,2,1,06,11,23,180,41,14,65,008,46,24,20,132,40,26,23,081,44*63
###2023-11-09 13:08:34.345240$GBGSV,2,2,06,28,43,287,47,33,59,304,48,,,,,,,,*69
###2023-11-09 13:08:34.346700$GNVTG,136.39,T,,M,4.18,N,7.74,K,A*24
###2023-11-09 13:08:34.430113$GNGGA,130834.60,3611.0219261,N,07545.0200241,W,1,24,0.6,0.711,M,-39.962,M,0.0,*64
###2023-11-09 13:08:34.432715$GPGSV,2,1,07,05,20,090,42,10,19,293,43,13,24,045,42,15,61,037,46*75
###2023-11-09 13:08:34.434976$GPGSV,2,2,07,18,78,277,46,23,50,315,46,24,49,136,45,,,,*47
###2023-11-09 13:08:34.437574$GLGSV,2,1,05,70,50,017,36,71,48,290,49,80,18,090,44,85,57,203,48*64
###2023-11-09 13:08:34.439188$GLGSV,2,2,05,86,53,308,48,,,,,,,,,,,,*5F
###2023-11-09 13:08:34.441770$GAGSV,1,1,04,07,72,258,45,08,48,043,45,13,64,160,45,26,57,310,45*61
###2023-11-09 13:08:34.444358$GBGSV,2,1,06,11,23,180,41,14,65,008,46,24,20,132,40,26,23,081,44*63
###2023-11-09 13:08:34.446291$GBGSV,2,2,06,28,43,287,48,33,59,304,47,,,,,,,,*69
###2023-11-09 13:08:34.447775$GNVTG,135.10,T,,M,4.20,N,7.78,K,A*2B
###2023-11-09 13:08:34.529983$GNGGA,130834.70,3611.0218446,N,07545.0199232,W,1,24,0.6,0.719,M,-39.962,M,0.0,*68
###2023-11-09 13:08:34.532563$GPGSV,2,1,07,05,20,090,41,10,19,293,43,13,24,045,42,15,61,037,46*76
###2023-11-09 13:08:34.534805$GPGSV,2,2,07,18,78,277,46,23,50,315,46,24,49,136,44,,,,*46
###2023-11-09 13:08:34.537507$GLGSV,2,1,05,70,50,017,36,71,48,290,49,80,18,090,44,85,57,203,48*64
###2023-11-09 13:08:34.539116$GLGSV,2,2,05,86,53,308,48,,,,,,,,,,,,*5F
###2023-11-09 13:08:34.541671$GAGSV,1,1,04,07,72,258,45,08,48,043,45,13,64,160,45,26,57,310,45*61
###2023-11-09 13:08:34.544243$GBGSV,2,1,06,11,23,180,41,14,65,008,46,24,20,132,40,26,23,081,44*63
###2023-11-09 13:08:34.546182$GBGSV,2,2,06,28,43,287,48,33,59,304,48,,,,,,,,*66
###2023-11-09 13:08:34.547659$GNVTG,135.38,T,,M,4.10,N,7.60,K,A*2B
###2023-11-09 13:08:34.629282$GNGGA,130834.80,3611.0217668,N,07545.0198244,W,1,24,0.6,0.720,M,-39.962,M,0.0,*6C
###2023-11-09 13:08:34.631894$GPGSV,2,1,07,05,20,090,41,10,19,293,43,13,24,045,42,15,61,037,46*76
###2023-11-09 13:08:34.634154$GPGSV,2,2,07,18,78,277,46,23,50,315,46,24,49,136,45,,,,*47
###2023-11-09 13:08:34.636737$GLGSV,2,1,05,70,50,017,36,71,48,290,49,80,18,090,44,85,57,203,48*64
###2023-11-09 13:08:34.638362$GLGSV,2,2,05,86,53,308,48,,,,,,,,,,,,*5F
###2023-11-09 13:08:34.640942$GAGSV,1,1,04,07,72,258,45,08,48,043,45,13,64,160,45,26,57,310,45*61
###2023-11-09 13:08:34.643536$GBGSV,2,1,06,11,23,180,41,14,65,008,46,24,20,132,41,26,23,081,44*62
###2023-11-09 13:08:34.645480$GBGSV,2,2,06,28,43,287,48,33,59,304,48,,,,,,,,*66
###2023-11-09 13:08:34.646965$GNVTG,133.48,T,,M,3.97,N,7.34,K,A*23
###2023-11-09 13:08:34.729005$GNGGA,130834.90,3611.0216936,N,07545.0197254,W,1,24,0.6,0.731,M,-39.962,M,0.0,*66
###2023-11-09 13:08:34.731602$GPGSV,2,1,07,05,20,090,41,10,19,293,43,13,24,045,42,15,61,037,46*76
###2023-11-09 13:08:34.733860$GPGSV,2,2,07,18,78,277,46,23,50,315,46,24,49,136,45,,,,*47
###2023-11-09 13:08:34.736429$GLGSV,2,1,05,70,50,017,36,71,48,290,49,80,18,090,42,85,57,203,48*62
###2023-11-09 13:08:34.738054$GLGSV,2,2,05,86,53,308,48,,,,,,,,,,,,*5F
###2023-11-09 13:08:34.740633$GAGSV,1,1,04,07,72,258,45,08,48,043,44,13,64,160,45,26,57,310,45*60
###2023-11-09 13:08:34.743212$GBGSV,2,1,06,11,23,180,41,14,65,008,46,24,20,132,42,26,23,081,44*61
###2023-11-09 13:08:34.745152$GBGSV,2,2,06,28,43,287,48,33,59,304,47,,,,,,,,*69
###2023-11-09 13:08:34.746617$GNVTG,131.80,T,,M,3.87,N,7.16,K,A*24
###2023-11-09 13:08:34.831113$GNGGA,130835.00,3611.0216257,N,07545.0196257,W,1,24,0.6,0.753,M,-39.962,M,0.0,*64
###2023-11-09 13:08:34.833709$GPGSV,2,1,07,05,20,090,41,10,19,293,43,13,24,045,42,15,61,037,46*76
###2023-11-09 13:08:34.835970$GPGSV,2,2,07,18,78,277,46,23,50,315,46,24,49,136,45,,,,*47
###2023-11-09 13:08:34.838562$GLGSV,2,1,05,70,50,017,36,71,48,290,49,80,18,090,42,85,57,203,48*62
###2023-11-09 13:08:34.840457$GLGSV,2,2,05,86,53,308,48,,,,,,,,,,,,*5F
###2023-11-09 13:08:34.843040$GAGSV,1,1,04,07,72,258,45,08,48,043,44,13,64,160,45,26,57,310,45*60
###2023-11-09 13:08:34.845611$GBGSV,2,1,06,11,23,180,41,14,65,008,46,24,20,132,42,26,23,081,43*66
###2023-11-09 13:08:34.847564$GBGSV,2,2,06,28,43,287,48,33,59,304,48,,,,,,,,*66
###2023-11-09 13:08:34.849027$GNVTG,128.95,T,,M,3.75,N,6.95,K,A*2F
###2023-11-09 13:08:34.930134$GNGGA,130835.10,3611.0215616,N,07545.0195237,W,1,24,0.6,0.786,M,-39.962,M,0.0,*6A
###2023-11-09 13:08:34.932739$GPGSV,2,1,07,05,20,090,39,10,19,293,43,13,24,045,42,15,61,037,46*79
###2023-11-09 13:08:34.934994$GPGSV,2,2,07,18,78,277,46,23,50,315,46,24,49,136,45,,,,*47
###2023-11-09 13:08:34.937591$GLGSV,2,1,05,70,50,017,36,71,48,290,49,80,18,090,41,85,57,203,48*61
###2023-11-09 13:08:34.939208$GLGSV,2,2,05,86,53,308,48,,,,,,,,,,,,*5F
