###2023-11-09 13:07:49.431253$GNGGA,130749.60,3611.0485058,N,07544.9682120,W,1,24,0.6,0.640,M,-39.961,M,0.0,*6E
###2023-11-09 13:07:49.433871$GPGSV,2,1,07,05,21,090,42,10,18,292,44,13,24,045,42,15,62,037,46*70
###2023-11-09 13:07:49.436130$GPGSV,2,2,07,18,77,281,46,23,50,315,46,24,49,136,45,,,,*41
###2023-11-09 13:07:49.438749$GLGSV,2,1,05,70,50,016,37,71,48,288,47,80,17,091,45,85,58,203,48*63
###2023-11-09 13:07:49.440366$GLGSV,2,2,05,86,52,309,48,,,,,,,,,,,,*5F
###2023-11-09 13:07:49.442932$GAGSV,1,1,04,07,72,257,45,08,49,042,45,13,64,160,44,26,56,310,45*6E
###2023-11-09 13:07:49.445506$GBGSV,2,1,06,11,23,180,40,14,65,008,45,24,20,132,43,26,23,081,43*65
###2023-11-09 13:07:49.447460$GBGSV,2,2,06,28,43,287,47,33,59,304,47,,,,,,,,*66
###2023-11-09 13:07:49.448943$GNVTG,215.37,T,,M,2.66,N,4.93,K,A*2D
###2023-11-09 13:07:49.530219$GNGGA,130749.70,3611.0484485,N,07544.9682683,W,1,24,0.6,0.632,M,-39.961,M,0.0,*61
###2023-11-09 13:07:49.532799$GPGSV,2,1,07,05,21,090,43,10,18,292,44,13,24,045,42,15,62,037,46*71
###2023-11-09 13:07:49.535043$GPGSV,2,2,07,18,77,281,46,23,50,315,46,24,49,136,45,,,,*41
###2023-11-09 13:07:49.537638$GLGSV,2,1,05,70,50,016,37,71,48,288,48,80,17,091,45,85,58,203,48*6C
###2023-11-09 13:07:49.539240$GLGSV,2,2,05,86,52,309,48,,,,,,,,,,,,*5F
###2023-11-09 13:07:49.541788$GAGSV,1,1,04,07,72,257,44,08,49,042,46,13,64,160,44,26,56,310,45*6C
###2023-11-09 13:07:49.544357$GBGSV,2,1,06,11,23,180,40,14,65,008,45,24,20,132,43,26,23,081,44*62
###2023-11-09 13:07:49.546283$GBGSV,2,2,06,28,43,287,47,33,59,304,47,,,,,,,,*66
###2023-11-09 13:07:49.547748$GNVTG,221.43,T,,M,2.59,N,4.79,K,A*21
###2023-11-09 13:07:49.630239$GNGGA,130749.80,3611.0483930,N,07544.9683262,W,1,24,0.6,0.640,M,-39.961,M,0.0,*65
###2023-11-09 13:07:49.632830$GPGSV,2,1,07,05,21,090,42,10,18,292,45,13,24,045,42,15,62,037,46*71
###2023-11-09 13:07:49.635087$GPGSV,2,2,07,18,77,281,46,23,50,315,46,24,49,136,45,,,,*41
###2023-11-09 13:07:49.637682$GLGSV,2,1,05,70,50,016,37,71,48,288,48,80,17,091,45,85,58,203,48*6C
###2023-11-09 13:07:49.639295$GLGSV,2,2,05,86,52,309,48,,,,,,,,,,,,*5F
###2023-11-09 13:07:49.641875$GAGSV,1,1,04,07,72,257,44,08,49,042,46,13,64,160,44,26,56,310,45*6C
###2023-11-09 13:07:49.644454$GBGSV,2,1,06,11,23,180,40,14,65,008,45,24,20,132,42,26,23,081,44*63
###2023-11-09 13:07:49.646395$GBGSV,2,2,06,28,43,287,47,33,59,304,47,,,,,,,,*66
###2023-11-09 13:07:49.647872$GNVTG,218.99,T,,M,2.64,N,4.90,K,A*25
###2023-11-09 13:07:49.730751$GNGGA,130749.90,3611.0483339,N,07544.9683804,W,1,24,0.6,0.648,M,-39.961,M,0.0,*65
###2023-11-09 13:07:49.733385$GPGSV,2,1,07,05,21,090,42,10,18,292,45,13,24,045,42,15,62,037,46*71
###2023-11-09 13:07:49.735648$GPGSV,2,2,07,18,77,281,46,23,50,315,46,24,49,136,45,,,,*41
###2023-11-09 13:07:49.738255$GLGSV,2,1,05,70,50,016,37,71,48,288,48,80,17,091,45,85,58,203,48*6C
###2023-11-09 13:07:49.739877$GLGSV,2,2,05,86,52,309,49,,,,,,,,,,,,*5E
###2023-11-09 13:07:49.742458$GAGSV,1,1,04,07,72,257,44,08,49,042,45,13,64,160,44,26,56,310,45*6F
###2023-11-09 13:07:49.745028$GBGSV,2,1,06,11,23,180,40,14,65,008,46,24,20,132,42,26,23,081,44*60
###2023-11-09 13:07:49.746974$GBGSV,2,2,06,28,43,287,47,33,59,304,47,,,,,,,,*66
###2023-11-09 13:07:49.748455$GNVTG,214.22,T,,M,2.64,N,4.90,K,A*29
###2023-11-09 13:07:49.832251$GNGGA,130750.00,3611.0482754,N,07544.9684308,W,1,24,0.6,0.654,M,-39.961,M,0.0,*67
###2023-11-09 13:07:49.834844$GPGSV,2,1,07,05,21,090,42,10,18,292,45,13,24,045,42,15,62,037,46*71
###2023-11-09 13:07:49.837108$GPGSV,2,2,07,18,77,281,46,23,50,315,46,24,49,136,45,,,,*41
###2023-11-09 13:07:49.839671$GLGSV,2,1,05,70,50,016,37,71,48,288,48,80,17,091,44,85,58,203,48*6D
###2023-11-09 13:07:49.841270$GLGSV,2,2,05,86,52,309,49,,,,,,,,,,,,*5E
###2023-11-09 13:07:49.843833$GAGSV,1,1,04,07,72,257,44,08,49,042,45,13,64,160,44,26,56,310,45*6F
###2023-11-09 13:07:49.846397$GBGSV,2,1,06,11,23,180,38,14,65,008,46,24,20,132,42,26,23,081,44*6F
###2023-11-09 13:07:49.848340$GBGSV,2,2,06,28,43,287,48,33,59,304,47,,,,,,,,*69
###2023-11-09 13:07:49.849800$GNVTG,215.99,T,,M,2.47,N,4.57,K,A*22
###2023-11-09 13:07:49.931244$GNGGA,130750.10,3611.0482213,N,07544.9684825,W,1,24,0.6,0.657,M,-39.961,M,0.0,*67
###2023-11-09 13:07:49.933838$GPGSV,2,1,07,05,21,090,42,10,18,292,45,13,24,045,42,15,62,037,46*71
###2023-11-09 13:07:49.936089$GPGSV,2,2,07,18,77,281,46,23,50,315,46,24,49,136,45,,,,*41
###2023-11-09 13:07:49.938696$GLGSV,2,1,05,70,50,016,37,71,48,288,48,80,17,091,44,85,58,203,48*6D
###2023-11-09 13:07:49.940312$GLGSV,2,2,05,86,52,309,49,,,,,,,,,,,,*5E
###2023-11-09 13:07:49.942893$GAGSV,1,1,04,07,72,257,44,08,49,042,45,13,64,160,44,26,56,310,45*6F
###2023-11-09 13:07:49.945480$GBGSV,2,1,06,11,23,180,38,14,65,008,46,24,20,132,42,26,23,081,44*6F
###2023-11-09 13:07:49.947430$GBGSV,2,2,06,28,43,287,48,33,59,304,47,,,,,,,,*69
###2023-11-09 13:07:49.948905$GNVTG,219.69,T,,M,2.43,N,4.50,K,A*22
###2023-11-09 13:07:50.038991$GNGGA,130750.20,3611.0481688,N,07544.9685362,W,1,24,0.6,0.662,M,-39.961,M,0.0,*6E
###2023-11-09 13:07:50.041587$GPGSV,2,1,07,05,21,090,42,10,18,292,45,13,24,045,42,15,62,037,46*71
###2023-11-09 13:07:50.043851$GPGSV,2,2,07,18,77,281,46,23,50,315,46,24,49,136,45,,,,*41
###2023-11-09 13:07:50.046434$GLGSV,2,1,05,70,50,016,37,71,48,288,48,80,17,091,44,85,58,203,48*6D
###2023-11-09 13:07:50.048067$GLGSV,2,2,05,86,52,309,48,,,,,,,,,,,,*5F
###2023-11-09 13:07:50.050639$GAGSV,1,1,04,07,72,257,44,08,49,042,45,13,64,160,44,26,56,310,45*6F
###2023-11-09 13:07:50.053221$GBGSV,2,1,06,11,23,180,38,14,65,008,46,24,20,132,42,26,23,081,44*6F
###2023-11-09 13:07:50.055165$GBGSV,2,2,06,28,43,287,47,33,59,304,47,,,,,,,,*66
###2023-11-09 13:07:50.056629$GNVTG,220.05,T,,M,2.45,N,4.54,K,A*20
###2023-11-09 13:07:50.135224$GNGGA,130750.30,3611.0481143,N,07544.9685915,W,1,24,0.6,0.661,M,-39.961,M,0.0,*66
###2023-11-09 13:07:50.137825$GPGSV,2,1,07,05,21,090,43,10,18,292,44,13,24,045,42,15,62,037,46*71
###2023-11-09 13:07:50.140072$GPGSV,2,2,07,18,77,281,46,23,50,315,46,24,49,136,45,,,,*41
###2023-11-09 13:07:50.142625$GLGSV,2,1,05,70,50,016,37,71,48,288,48,80,17,091,44,85,58,203,47*62
###2023-11-09 13:07:50.144218$GLGSV,2,2,05,86,52,309,48,,,,,,,,,,,,*5F
###2023-11-09 13:07:50.146774$GAGSV,1,1,04,07,72,257,44,08,49,042,45,13,64,160,44,26,56,310,45*6F
###2023-11-09 13:07:50.149346$GBGSV,2,1,06,11,23,180,38,14,65,008,46,24,20,132,42,26,23,081,44*6F
###2023-11-09 13:07:50.151277$GBGSV,2,2,06,28,43,287,47,33,59,304,47,,,,,,,,*66
###2023-11-09 13:07:50.152751$GNVTG,219.01,T,,M,2.60,N,4.82,K,A*22
###2023-11-09 13:07:50.231233$GNGGA,130750.40,3611.0480589,N,07544.9686503,W,1,24,0.6,0.650,M,-39.961,M,0.0,*68
###2023-11-09 13:07:50.233823$GPGSV,2,1,07,05,21,090,43,10,18,292,44,13,24,045,42,15,62,037,46*71
###2023-11-09 13:07:50.236073$GPGSV,2,2,07,18,77,281,46,23,50,315,46,24,49,136,46,,,,*42
###2023-11-09 13:07:50.238662$GLGSV,2,1,05,70,50,016,37,71,48,288,48,80,17,091,45,85,58,203,48*6C
###2023-11-09 13:07:50.240280$GLGSV,2,2,05,86,52,309,47,,,,,,,,,,,,*50
###2023-11-09 13:07:50.242873$GAGSV,1,1,04,07,72,257,44,08,49,042,45,13,64,160,45,26,56,310,44*6F
###2023-11-09 13:07:50.245456$GBGSV,2,1,06,11,23,180,40,14,65,008,46,24,20,132,43,26,23,081,44*61
###2023-11-09 13:07:50.247417$GBGSV,2,2,06,28,43,287,47,33,59,304,46,,,,,,,,*67
###2023-11-09 13:07:50.248892$GNVTG,222.59,T,,M,2.64,N,4.90,K,A*20
###2023-11-09 13:07:50.330876$GNGGA,130750.50,3611.0480074,N,07544.9687131,W,1,24,0.6,0.622,M,-39.961,M,0.0,*6F
###2023-11-09 13:07:50.333472$GPGSV,2,1,07,05,21,090,43,10,18,292,44,13,24,045,42,15,62,037,46*71
###2023-11-09 13:07:50.335718$GPGSV,2,2,07,18,77,281,46,23,50,315,45,24,49,136,46,,,,*41
###2023-11-09 13:07:50.338315$GLGSV,2,1,05,70,50,016,37,71,48,288,48,80,17,091,45,85,58,203,48*6C
###2023-11-09 13:07:50.339927$GLGSV,2,2,05,86,52,309,47,,,,,,,,,,,,*50
###2023-11-09 13:07:50.342512$GAGSV,1,1,04,07,72,257,44,08,49,042,45,13,64,160,45,26,56,310,44*6F
###2023-11-09 13:07:50.345096$GBGSV,2,1,06,11,23,180,40,14,65,008,46,24,20,132,44,26,23,081,44*66
###2023-11-09 13:07:50.347049$GBGSV,2,2,06,28,43,287,47,33,59,304,46,,,,,,,,*67
###2023-11-09 13:07:50.348519$GNVTG,226.86,T,,M,2.55,N,4.72,K,A*28
###2023-11-09 13:07:50.430257$GNGGA,130750.60,3611.0479622,N,07544.9687809,W,1,24,0.6,0.596,M,-39.961,M,0.0,*61
###2023-11-09 13:07:50.432851$GPGSV,2,1,07,05,21,090,44,10,18,292,43,13,24,045,42,15,62,037,46*71
###2023-11-09 13:07:50.435097$GPGSV,2,2,07,18,77,281,46,23,50,315,45,24,49,136,46,,,,*41
###2023-11-09 13:07:50.437687$GLGSV,2,1,05,70,50,016,37,71,48,288,48,80,17,091,45,85,58,203,48*6C
###2023-11-09 13:07:50.439298$GLGSV,2,2,05,86,52,309,48,,,,,,,,,,,,*5F
###2023-11-09 13:07:50.441868$GAGSV,1,1,04,07,72,257,44,08,49,042,45,13,64,160,45,26,56,310,44*6F
###2023-11-09 13:07:50.444452$GBGSV,2,1,06,11,23,180,40,14,65,008,45,24,20,132,44,26,23,081,44*65
###2023-11-09 13:07:50.446384$GBGSV,2,2,06,28,43,287,47,33,59,304,46,,,,,,,,*67
###2023-11-09 13:07:50.447860$GNVTG,234.57,T,,M,2.57,N,4.75,K,A*22
###2023-11-09 13:07:50.529641$GNGGA,130750.70,3611.0479228,N,07544.9688538,W,1,24,0.6,0.582,M,-39.961,M,0.0,*6B
