###2023-11-09 13:09:59.645636$GBGSV,2,1,06,11,22,180,42,14,65,009,44,24,21,132,45,26,23,080,43*60
###2023-11-09 13:09:59.647650$GBGSV,2,2,06,28,43,286,47,33,59,305,47,,,,,,,,*66
###2023-11-09 13:09:59.649101$GNVTG,56.90,T,,M,4.72,N,8.75,K,A*12
###2023-11-09 13:09:59.730130$GNGGA,130959.90,3611.0485463,N,07544.9013340,W,1,24,0.6,0.509,M,-39.961,M,0.0,*66
###2023-11-09 13:09:59.732720$GPGSV,2,1,07,05,20,090,43,10,19,293,44,13,24,045,42,15,61,037,45*70
###2023-11-09 13:09:59.734968$GPGSV,2,2,07,18,78,277,47,23,50,316,46,24,50,134,45,,,,*4F
###2023-11-09 13:09:59.737549$GLGSV,2,1,05,70,49,019,35,71,48,291,48,80,18,090,44,85,57,203,49*60
###2023-11-09 13:09:59.739149$GLGSV,2,2,05,86,53,308,48,,,,,,,,,,,,*5F
###2023-11-09 13:09:59.741715$GAGSV,1,1,04,07,73,259,45,08,48,043,44,13,63,161,45,26,57,310,45*66
###2023-11-09 13:09:59.744291$GBGSV,2,1,06,11,22,180,42,14,65,009,44,24,21,132,45,26,23,080,43*60
###2023-11-09 13:09:59.746220$GBGSV,2,2,06,28,43,286,47,33,59,305,48,,,,,,,,*69
###2023-11-09 13:09:59.747660$GNVTG,60.62,T,,M,4.61,N,8.53,K,A*1C
###2023-11-09 13:09:59.837769$GNGGA,131000.00,3611.0486081,N,07544.9011953,W,1,24,0.6,0.512,M,-39.961,M,0.0,*60
###2023-11-09 13:09:59.840376$GPGSV,2,1,07,05,20,090,42,10,19,293,44,13,24,045,42,15,61,037,45*71
###2023-11-09 13:09:59.842634$GPGSV,2,2,07,18,78,277,47,23,50,316,46,24,50,134,45,,,,*4F
###2023-11-09 13:09:59.845213$GLGSV,2,1,05,70,49,019,35,71,48,291,48,80,18,090,44,85,57,203,49*60
###2023-11-09 13:09:59.846825$GLGSV,2,2,05,86,53,308,48,,,,,,,,,,,,*5F
###2023-11-09 13:09:59.849405$GAGSV,1,1,04,07,73,259,45,08,48,043,44,13,63,161,45,26,57,310,45*66
###2023-11-09 13:09:59.851988$GBGSV,2,1,06,11,22,180,42,14,65,009,44,24,21,132,44,26,23,080,43*61
###2023-11-09 13:09:59.853928$GBGSV,2,2,06,28,43,286,47,33,59,305,47,,,,,,,,*66
###2023-11-09 13:09:59.855361$GNVTG,62.26,T,,M,4.59,N,8.50,K,A*16
###2023-11-09 13:09:59.939627$GNGGA,131000.10,3611.0486681,N,07544.9010565,W,1,24,0.6,0.517,M,-39.961,M,0.0,*6A
###2023-11-09 13:09:59.942218$GPGSV,2,1,07,05,20,090,42,10,19,293,44,13,24,045,42,15,61,037,45*71
###2023-11-09 13:09:59.944482$GPGSV,2,2,07,18,78,277,47,23,50,316,46,24,50,134,45,,,,*4F
###2023-11-09 13:09:59.947076$GLGSV,2,1,05,70,49,019,35,71,48,291,48,80,18,090,44,85,57,203,49*60
###2023-11-09 13:09:59.948685$GLGSV,2,2,05,86,53,308,47,,,,,,,,,,,,*50
###2023-11-09 13:09:59.951264$GAGSV,1,1,04,07,73,259,45,08,48,043,44,13,63,161,45,26,57,310,45*66
###2023-11-09 13:09:59.953848$GBGSV,2,1,06,11,22,180,42,14,65,009,44,24,21,132,44,26,23,080,43*61
###2023-11-09 13:09:59.955784$GBGSV,2,2,06,28,43,286,47,33,59,305,47,,,,,,,,*66
###2023-11-09 13:09:59.957240$GNVTG,62.18,T,,M,4.55,N,8.42,K,A*14
###2023-11-09 13:10:00.032997$GNGGA,131000.20,3611.0487281,N,07544.9009179,W,1,24,0.6,0.513,M,-39.961,M,0.0,*69
###2023-11-09 13:10:00.035581$GPGSV,2,1,07,05,20,090,42,10,19,293,43,13,24,045,42,15,61,037,45*76
###2023-11-09 13:10:00.037846$GPGSV,2,2,07,18,78,277,47,23,50,316,46,24,50,134,45,,,,*4F
###2023-11-09 13:10:00.040405$GLGSV,2,1,05,70,49,019,35,71,48,291,48,80,18,090,44,85,57,203,50*68
###2023-11-09 13:10:00.042006$GLGSV,2,2,05,86,53,308,47,,,,,,,,,,,,*50
###2023-11-09 13:10:00.044558$GAGSV,1,1,04,07,73,259,45,08,48,043,44,13,63,161,45,26,57,310,45*66
###2023-11-09 13:10:00.047127$GBGSV,2,1,06,11,22,180,42,14,65,009,44,24,21,132,44,26,23,080,43*61
###2023-11-09 13:10:00.049061$GBGSV,2,2,06,28,43,286,47,33,59,305,47,,,,,,,,*66
###2023-11-09 13:10:00.050480$GNVTG,62.27,T,,M,4.59,N,8.50,K,A*17
###2023-11-09 13:10:00.131108$GNGGA,131000.30,3611.0487864,N,07544.9007765,W,1,24,0.6,0.504,M,-39.961,M,0.0,*6A
###2023-11-09 13:10:00.133701$GPGSV,2,1,07,05,20,090,42,10,19,293,42,13,24,045,42,15,61,037,45*77
###2023-11-09 13:10:00.135952$GPGSV,2,2,07,18,78,277,47,23,50,316,45,24,50,134,45,,,,*4C
###2023-11-09 13:10:00.138546$GLGSV,2,1,05,70,49,019,35,71,48,291,47,80,18,090,44,85,57,203,49*6F
###2023-11-09 13:10:00.140154$GLGSV,2,2,05,86,53,308,47,,,,,,,,,,,,*50
###2023-11-09 13:10:00.142723$GAGSV,1,1,04,07,73,259,45,08,48,043,44,13,63,161,45,26,57,310,45*66
###2023-11-09 13:10:00.145310$GBGSV,2,1,06,11,22,180,42,14,65,009,44,24,21,132,44,26,23,080,43*61
###2023-11-09 13:10:00.147309$GBGSV,2,2,06,28,43,286,47,33,59,305,47,,,,,,,,*66
###2023-11-09 13:10:00.148753$GNVTG,63.92,T,,M,4.63,N,8.57,K,A*16
###2023-11-09 13:10:00.231112$GNGGA,131000.40,3611.0488408,N,07544.9006329,W,1,24,0.6,0.475,M,-39.961,M,0.0,*6E
###2023-11-09 13:10:00.233709$GPGSV,2,1,07,05,20,090,43,10,19,293,42,13,24,045,42,15,61,037,45*76
###2023-11-09 13:10:00.235972$GPGSV,2,2,07,18,78,277,47,23,50,316,45,24,50,134,44,,,,*4D
###2023-11-09 13:10:00.238587$GLGSV,2,1,05,70,49,019,35,71,48,291,47,80,18,090,45,85,57,203,49*6E
###2023-11-09 13:10:00.240207$GLGSV,2,2,05,86,53,308,47,,,,,,,,,,,,*50
###2023-11-09 13:10:00.242787$GAGSV,1,1,04,07,73,259,45,08,48,043,44,13,63,161,45,26,57,310,44*67
###2023-11-09 13:10:00.245378$GBGSV,2,1,06,11,22,180,42,14,65,009,44,24,21,132,45,26,23,080,42*61
###2023-11-09 13:10:00.247336$GBGSV,2,2,06,28,43,286,46,33,59,305,46,,,,,,,,*66
###2023-11-09 13:10:00.248764$GNVTG,66.14,T,,M,4.59,N,8.50,K,A*13
###2023-11-09 13:10:00.330977$GNGGA,131000.50,3611.0488894,N,07544.9004890,W,1,24,0.6,0.435,M,-39.961,M,0.0,*69
###2023-11-09 13:10:00.333573$GPGSV,2,1,07,05,20,090,44,10,19,293,42,13,24,045,42,15,61,037,45*71
###2023-11-09 13:10:00.335825$GPGSV,2,2,07,18,78,277,47,23,50,316,45,24,50,134,45,,,,*4C
###2023-11-09 13:10:00.338401$GLGSV,2,1,05,70,49,019,35,71,48,291,47,80,18,090,45,85,57,203,49*6E
###2023-11-09 13:10:00.340000$GLGSV,2,2,05,86,53,308,46,,,,,,,,,,,,*51
###2023-11-09 13:10:00.342563$GAGSV,1,1,04,07,73,259,45,08,48,043,44,13,63,161,45,26,57,310,44*67
###2023-11-09 13:10:00.345137$GBGSV,2,1,06,11,22,180,43,14,65,009,44,24,21,132,45,26,23,080,43*61
###2023-11-09 13:10:00.347079$GBGSV,2,2,06,28,43,286,46,33,59,305,46,,,,,,,,*66
###2023-11-09 13:10:00.348506$GNVTG,68.84,T,,M,4.47,N,8.28,K,A*14
###2023-11-09 13:10:00.429524$GNGGA,131000.60,3611.0489358,N,07544.9003477,W,1,24,0.6,0.412,M,-39.961,M,0.0,*67
###2023-11-09 13:10:00.432148$GPGSV,2,1,07,05,20,090,44,10,19,293,42,13,24,045,42,15,61,037,45*71
###2023-11-09 13:10:00.434421$GPGSV,2,2,07,18,78,277,47,23,50,316,45,24,50,134,45,,,,*4C
###2023-11-09 13:10:00.437027$GLGSV,2,1,05,70,49,019,35,71,48,291,47,80,18,090,45,85,57,203,49*6E
###2023-11-09 13:10:00.438648$GLGSV,2,2,05,86,53,308,46,,,,,,,,,,,,*51
###2023-11-09 13:10:00.441241$GAGSV,1,1,04,07,73,259,45,08,48,043,44,13,63,161,45,26,57,310,44*67
###2023-11-09 13:10:00.443827$GBGSV,2,1,06,11,22,180,44,14,65,009,44,24,21,132,45,26,23,080,43*66
###2023-11-09 13:10:00.445762$GBGSV,2,2,06,28,43,286,47,33,59,305,46,,,,,,,,*67
###2023-11-09 13:10:00.447217$GNVTG,67.03,T,,M,4.37,N,8.10,K,A*18
###2023-11-09 13:10:00.531002$GNGGA,131000.70,3611.0489893,N,07544.9002140,W,1,24,0.6,0.423,M,-39.961,M,0.0,*68
###2023-11-09 13:10:00.533613$GPGSV,2,1,07,05,20,090,44,10,19,293,43,13,24,045,41,15,61,037,45*73
###2023-11-09 13:10:00.535877$GPGSV,2,2,07,18,78,277,47,23,50,316,45,24,50,134,45,,,,*4C
###2023-11-09 13:10:00.538480$GLGSV,2,1,05,70,49,019,35,71,48,291,47,80,18,090,45,85,57,203,49*6E
###2023-11-09 13:10:00.540094$GLGSV,2,2,05,86,53,308,47,,,,,,,,,,,,*50
###2023-11-09 13:10:00.542665$GAGSV,1,1,04,07,73,259,45,08,48,043,44,13,63,161,45,26,57,310,44*67
###2023-11-09 13:10:00.545259$GBGSV,2,1,06,11,22,180,43,14,65,009,44,24,21,132,45,26,23,080,43*61
###2023-11-09 13:10:00.547211$GBGSV,2,2,06,28,43,286,47,33,59,305,46,,,,,,,,*67
###2023-11-09 13:10:00.548653$GNVTG,60.17,T,,M,4.28,N,7.92,K,A*11
###2023-11-09 13:10:00.630976$GNGGA,131000.80,3611.0490552,N,07544.9000905,W,1,24,0.6,0.445,M,-39.961,M,0.0,*64
###2023-11-09 13:10:00.633555$GPGSV,2,1,07,05,20,090,43,10,19,293,43,13,24,045,41,15,61,037,45*74
###2023-11-09 13:10:00.635805$GPGSV,2,2,07,18,78,277,47,23,50,316,46,24,50,134,45,,,,*4F
###2023-11-09 13:10:00.638392$GLGSV,2,1,05,70,49,019,35,71,48,291,47,80,18,090,44,85,57,203,49*6F
###2023-11-09 13:10:00.639992$GLGSV,2,2,05,86,53,308,48,,,,,,,,,,,,*5F
###2023-11-09 13:10:00.642561$GAGSV,1,1,04,07,73,259,45,08,48,043,44,13,63,161,45,26,57,310,45*66
###2023-11-09 13:10:00.645140$GBGSV,2,1,06,11,22,180,43,14,65,009,44,24,21,132,44,26,23,080,43*60
###2023-11-09 13:10:00.647418$GBGSV,2,2,06,28,43,286,47,33,59,305,47,,,,,,,,*66
###2023-11-09 13:10:00.648873$GNVTG,53.09,T,,M,4.32,N,7.99,K,A*1E
###2023-11-09 13:10:00.731009$GNGGA,131000.90,3611.0491265,N,07544.8999691,W,1,24,0.6,0.464,M,-39.961,M,0.0,*6E
###2023-11-09 13:10:00.733624$GPGSV,2,1,07,05,20,090,42,10,19,293,44,13,24,045,41,15,61,037,45*72
###2023-11-09 13:10:00.735896$GPGSV,2,2,07,18,78,277,47,23,50,316,47,24,50,134,45,,,,*4E
###2023-11-09 13:10:00.738507$GLGSV,2,1,05,70,49,019,35,71,48,291,48,80,18,090,44,85,57,203,48*61
###2023-11-09 13:10:00.740119$GLGSV,2,2,05,86,53,308,49,,,,,,,,,,,,*5E
###2023-11-09 13:10:00.742691$GAGSV,1,1,04,07,73,259,45,08,48,043,44,13,63,161,44,26,57,310,45*67
###2023-11-09 13:10:00.745267$GBGSV,2,1,06,11,22,180,42,14,65,009,44,24,21,132,42,26,23,080,42*66
