###2023-11-09 13:10:00.748439$GBGSV,2,2,06,28,43,286,47,33,59,305,48,,,,,,,,*69
###2023-11-09 13:10:00.749905$GNVTG,54.75,T,,M,4.39,N,8.14,K,A*13
###2023-11-09 13:10:00.832890$GNGGA,131001.00,3611.0491906,N,07544.8998416,W,1,24,0.6,0.468,M,-39.961,M,0.0,*68
###2023-11-09 13:10:00.835506$GPGSV,2,1,07,05,20,090,42,10,19,293,44,13,24,045,41,15,61,037,45*72
###2023-11-09 13:10:00.837792$GPGSV,2,2,07,18,78,277,47,23,50,316,46,24,50,134,44,,,,*4E
###2023-11-09 13:10:00.840375$GLGSV,2,1,05,70,49,019,35,71,48,291,48,80,18,090,44,85,57,203,48*61
###2023-11-09 13:10:00.841996$GLGSV,2,2,05,86,53,308,48,,,,,,,,,,,,*5F
###2023-11-09 13:10:00.844584$GAGSV,1,1,04,07,73,259,45,08,48,043,44,13,63,161,44,26,57,310,46*64
###2023-11-09 13:10:00.847200$GBGSV,2,1,06,11,22,180,41,14,65,009,45,24,21,132,41,26,23,080,42*67
###2023-11-09 13:10:00.849153$GBGSV,2,2,06,28,43,286,47,33,59,305,48,,,,,,,,*69
###2023-11-09 13:10:00.850586$GNVTG,61.74,T,,M,4.33,N,8.03,K,A*18
###2023-11-09 13:10:00.931981$GNGGA,131001.10,3611.0492417,N,07544.8997050,W,1,24,0.6,0.463,M,-39.961,M,0.0,*65
###2023-11-09 13:10:00.934568$GPGSV,2,1,07,05,20,090,42,10,19,293,43,13,24,045,41,15,61,037,45*75
###2023-11-09 13:10:00.936818$GPGSV,2,2,07,18,78,277,47,23,50,316,46,24,50,134,44,,,,*4E
###2023-11-09 13:10:00.939399$GLGSV,2,1,05,70,49,019,35,71,48,291,48,80,18,090,43,85,57,203,48*66
###2023-11-09 13:10:00.940997$GLGSV,2,2,05,86,53,308,48,,,,,,,,,,,,*5F
###2023-11-09 13:10:00.943570$GAGSV,1,1,04,07,73,259,45,08,48,043,44,13,63,161,44,26,57,310,45*67
###2023-11-09 13:10:00.946144$GBGSV,2,1,06,11,22,180,41,14,65,009,45,24,21,132,41,26,23,080,42*67
###2023-11-09 13:10:00.948082$GBGSV,2,2,06,28,43,286,47,33,59,305,48,,,,,,,,*69
###2023-11-09 13:10:00.949501$GNVTG,68.48,T,,M,4.41,N,8.17,K,A*1E
###2023-11-09 13:10:01.032500$GNGGA,131001.20,3611.0492835,N,07544.8995637,W,1,24,0.6,0.441,M,-39.961,M,0.0,*6F
###2023-11-09 13:10:01.035114$GPGSV,2,1,07,05,20,090,42,10,19,293,43,13,24,045,41,15,61,037,45*75
###2023-11-09 13:10:01.037393$GPGSV,2,2,07,18,78,277,47,23,50,316,46,24,50,134,44,,,,*4E
###2023-11-09 13:10:01.039973$GLGSV,2,1,05,70,49,019,35,71,48,291,48,80,18,090,44,85,57,203,49*60
###2023-11-09 13:10:01.041580$GLGSV,2,2,05,86,53,308,47,,,,,,,,,,,,*50
###2023-11-09 13:10:01.044148$GAGSV,1,1,04,07,73,259,45,08,48,043,44,13,63,161,45,26,57,310,44*67
###2023-11-09 13:10:01.046724$GBGSV,2,1,06,11,22,180,41,14,65,009,45,24,21,132,43,26,23,080,42*65
###2023-11-09 13:10:01.048667$GBGSV,2,2,06,28,43,286,46,33,59,305,46,,,,,,,,*66
###2023-11-09 13:10:01.050099$GNVTG,71.33,T,,M,4.33,N,8.03,K,A*1A
###2023-11-09 13:10:01.130974$GNGGA,131001.30,3611.0493239,N,07544.8994235,W,1,24,0.6,0.406,M,-39.961,M,0.0,*6D
###2023-11-09 13:10:01.133578$GPGSV,2,1,07,05,20,090,43,10,19,293,42,13,24,045,41,15,61,037,44*74
###2023-11-09 13:10:01.135832$GPGSV,2,2,07,18,78,277,46,23,50,316,45,24,50,134,45,,,,*4D
###2023-11-09 13:10:01.138425$GLGSV,2,1,05,70,49,019,35,71,48,291,48,80,18,090,45,85,57,203,49*61
###2023-11-09 13:10:01.140028$GLGSV,2,2,05,86,53,308,45,,,,,,,,,,,,*52
###2023-11-09 13:10:01.142603$GAGSV,1,1,04,07,73,259,45,08,48,043,44,13,63,161,45,26,57,310,44*67
###2023-11-09 13:10:01.145188$GBGSV,2,1,06,11,22,180,43,14,65,009,44,24,21,132,44,26,23,080,42*61
###2023-11-09 13:10:01.147144$GBGSV,2,2,06,28,43,286,46,33,59,305,46,,,,,,,,*66
###2023-11-09 13:10:01.148584$GNVTG,69.57,T,,M,4.30,N,7.96,K,A*11
###2023-11-09 13:10:01.231101$GNGGA,131001.40,3611.0493715,N,07544.8992869,W,1,24,0.6,0.370,M,-39.961,M,0.0,*62
###2023-11-09 13:10:01.233690$GPGSV,2,1,07,05,20,090,43,10,19,293,41,13,24,045,40,15,61,037,44*76
###2023-11-09 13:10:01.235939$GPGSV,2,2,07,18,78,277,46,23,50,316,44,24,50,134,46,,,,*4F
###2023-11-09 13:10:01.238525$GLGSV,2,1,05,70,49,019,35,71,48,291,47,80,18,090,45,85,57,203,50*66
###2023-11-09 13:10:01.240120$GLGSV,2,2,05,86,53,308,45,,,,,,,,,,,,*52
###2023-11-09 13:10:01.242662$GAGSV,1,1,04,07,73,259,45,08,48,043,43,13,63,161,45,26,57,310,43*67
###2023-11-09 13:10:01.245227$GBGSV,2,1,06,11,22,180,44,14,65,009,44,24,21,132,46,26,23,080,42*64
###2023-11-09 13:10:01.247160$GBGSV,2,2,06,28,43,286,46,33,59,305,46,,,,,,,,*66
###2023-11-09 13:10:01.248589$GNVTG,64.05,T,,M,4.33,N,8.03,K,A*1B
###2023-11-09 13:10:01.329996$GNGGA,131001.50,3611.0494288,N,07544.8991543,W,1,24,0.6,0.352,M,-39.961,M,0.0,*63
###2023-11-09 13:10:01.332580$GPGSV,2,1,07,05,20,090,43,10,19,293,41,13,24,045,40,15,61,037,44*76
###2023-11-09 13:10:01.334837$GPGSV,2,2,07,18,78,277,46,23,50,316,44,24,50,134,46,,,,*4F
###2023-11-09 13:10:01.337435$GLGSV,2,1,05,70,49,019,35,71,48,291,47,80,18,090,45,85,57,203,49*6E
###2023-11-09 13:10:01.339049$GLGSV,2,2,05,86,53,308,45,,,,,,,,,,,,*52
###2023-11-09 13:10:01.341624$GAGSV,1,1,04,07,73,259,45,08,48,043,43,13,63,161,45,26,57,310,43*67
###2023-11-09 13:10:01.344198$GBGSV,2,1,06,11,22,180,44,14,65,009,44,24,21,132,46,26,23,080,43*65
###2023-11-09 13:10:01.346139$GBGSV,2,2,06,28,43,286,45,33,59,305,45,,,,,,,,*66
###2023-11-09 13:10:01.347584$GNVTG,59.86,T,,M,4.37,N,8.10,K,A*18
###2023-11-09 13:10:01.430987$GNGGA,131001.60,3611.0494904,N,07544.8990256,W,1,24,0.6,0.350,M,-39.961,M,0.0,*6F
###2023-11-09 13:10:01.433575$GPGSV,2,1,07,05,20,090,43,10,19,293,43,13,24,045,40,15,61,037,44*74
###2023-11-09 13:10:01.435826$GPGSV,2,2,07,18,78,277,46,23,50,316,44,24,50,134,46,,,,*4F
###2023-11-09 13:10:01.438419$GLGSV,2,1,05,70,49,019,35,71,48,291,47,80,18,090,45,85,57,203,49*6E
###2023-11-09 13:10:01.440025$GLGSV,2,2,05,86,53,308,46,,,,,,,,,,,,*51
###2023-11-09 13:10:01.442603$GAGSV,1,1,04,07,73,259,45,08,48,043,44,13,63,161,45,26,57,310,43*60
###2023-11-09 13:10:01.445193$GBGSV,2,1,06,11,22,180,44,14,65,009,44,24,21,132,46,26,23,080,43*65
###2023-11-09 13:10:01.447147$GBGSV,2,2,06,28,43,286,45,33,59,305,46,,,,,,,,*65
###2023-11-09 13:10:01.448580$GNVTG,59.10,T,,M,4.30,N,7.96,K,A*11
###2023-11-09 13:10:01.531236$GNGGA,131001.70,3611.0495516,N,07544.8988989,W,1,24,0.6,0.365,M,-39.961,M,0.0,*66
###2023-11-09 13:10:01.533818$GPGSV,2,1,07,05,20,090,43,10,19,293,44,13,24,045,40,15,61,037,45*72
###2023-11-09 13:10:01.536068$GPGSV,2,2,07,18,78,277,46,23,50,316,45,24,50,134,45,,,,*4D
###2023-11-09 13:10:01.538669$GLGSV,2,1,05,70,49,019,35,71,48,291,48,80,18,090,45,85,57,203,49*61
###2023-11-09 13:10:01.540277$GLGSV,2,2,05,86,53,308,47,,,,,,,,,,,,*50
###2023-11-09 13:10:01.542860$GAGSV,1,1,04,07,73,259,45,08,48,043,45,13,63,161,45,26,57,310,44*66
###2023-11-09 13:10:01.545439$GBGSV,2,1,06,11,22,180,43,14,65,009,45,24,21,132,44,26,23,080,43*61
###2023-11-09 13:10:01.547380$GBGSV,2,2,06,28,43,286,47,33,59,305,47,,,,,,,,*66
###2023-11-09 13:10:01.548811$GNVTG,58.95,T,,M,4.24,N,7.85,K,A*1A
###2023-11-09 13:10:01.630639$GNGGA,131001.80,3611.0496083,N,07544.8987694,W,1,24,0.6,0.390,M,-39.961,M,0.0,*65
###2023-11-09 13:10:01.633249$GPGSV,2,1,07,05,20,090,42,10,19,293,45,13,24,045,42,15,61,037,45*70
###2023-11-09 13:10:01.635522$GPGSV,2,2,07,18,78,277,47,23,50,316,46,24,50,134,45,,,,*4F
###2023-11-09 13:10:01.638135$GLGSV,2,1,05,70,49,019,35,71,48,291,49,80,18,090,45,85,57,203,48*61
###2023-11-09 13:10:01.639752$GLGSV,2,2,05,86,53,308,48,,,,,,,,,,,,*5F
###2023-11-09 13:10:01.642331$GAGSV,1,1,04,07,73,259,45,08,48,043,45,13,63,161,45,26,57,310,46*64
###2023-11-09 13:10:01.644921$GBGSV,2,1,06,11,22,180,41,14,65,009,45,24,21,132,43,26,23,080,42*65
###2023-11-09 13:10:01.646863$GBGSV,2,2,06,28,43,286,47,33,59,305,48,,,,,,,,*69
###2023-11-09 13:10:01.648318$GNVTG,63.97,T,,M,4.30,N,7.96,K,A*17
###2023-11-09 13:10:01.731511$GNGGA,131001.90,3611.0496559,N,07544.8986337,W,1,24,0.6,0.427,M,-39.961,M,0.0,*60
###2023-11-09 13:10:01.734134$GPGSV,2,1,07,05,20,090,42,10,19,293,45,13,24,045,42,15,61,037,45*70
###2023-11-09 13:10:01.736403$GPGSV,2,2,07,18,78,277,47,23,50,316,46,24,50,134,45,,,,*4F
###2023-11-09 13:10:01.739032$GLGSV,2,1,05,70,49,019,35,71,48,291,49,80,18,090,44,85,57,203,47*6F
###2023-11-09 13:10:01.740651$GLGSV,2,2,05,86,53,308,49,,,,,,,,,,,,*5E
###2023-11-09 13:10:01.743233$GAGSV,1,1,04,07,73,259,46,08,48,043,45,13,63,161,45,26,57,310,46*67
###2023-11-09 13:10:01.745820$GBGSV,2,1,06,11,22,180,41,14,65,009,45,24,21,132,42,26,23,080,42*64
###2023-11-09 13:10:01.747775$GBGSV,2,2,06,28,43,286,47,33,59,305,48,,,,,,,,*69
###2023-11-09 13:10:01.749523$GNVTG,69.20,T,,M,4.30,N,7.96,K,A*11
###2023-11-09 13:10:01.832862$GNGGA,131002.00,3611.0496959,N,07544.8984944,W,1,24,0.6,0.473,M,-39.961,M,0.0,*6B
###2023-11-09 13:10:01.835449$GPGSV,2,1,07,05,20,090,42,10,19,293,45,13,24,045,42,15,61,037,45*70
###2023-11-09 13:10:01.837722$GPGSV,2,2,07,18,78,277,47,23,50,316,45,24,50,134,45,,,,*4C
###2023-11-09 13:10:01.840312$GLGSV,2,1,05,70,49,019,35,71,48,291,48,80,18,090,44,85,57,203,48*61
###2023-11-09 13:10:01.841926$GLGSV,2,2,05,86,53,308,49,,,,,,,,,,,,*5E
###2023-11-09 13:10:01.844507$GAGSV,1,1,04,07,73,259,46,08,48,043,45,13,63,161,45,26,57,310,46*67
###2023-11-09 13:10:01.847112$GBGSV,2,1,06,11,22,180,41,14,65,009,45,24,21,132,42,26,23,080,42*64
###2023-11-09 13:10:01.849049$GBGSV,2,2,06,28,43,286,47,33,59,305,48,,,,,,,,*69
