###2023-11-09 13:08:13.840940$GLGSV,2,2,05,86,53,308,48,,,,,,,,,,,,*5F
###2023-11-09 13:08:13.843514$GAGSV,1,1,04,07,72,258,44,08,49,042,45,13,64,160,45,26,56,310,44*60
###2023-11-09 13:08:13.846090$GBGSV,2,1,06,11,23,180,39,14,65,008,46,24,20,132,43,26,23,081,43*68
###2023-11-09 13:08:13.848045$GBGSV,2,2,06,28,43,287,46,33,59,304,47,,,,,,,,*67
###2023-11-09 13:08:13.849509$GNVTG,254.56,T,,M,3.65,N,6.77,K,A*25
###2023-11-09 13:08:13.929667$GNGGA,130814.10,3611.0403034,N,07545.0024745,W,1,24,0.6,0.778,M,-39.962,M,0.0,*64
###2023-11-09 13:08:13.932275$GPGSV,2,1,07,05,21,090,43,10,18,292,44,13,24,045,42,15,62,037,46*71
###2023-11-09 13:08:13.934531$GPGSV,2,2,07,18,77,281,46,23,50,315,45,24,49,136,44,,,,*43
###2023-11-09 13:08:13.937128$GLGSV,2,1,05,70,50,017,36,71,48,290,49,80,18,090,45,85,57,203,47*6A
###2023-11-09 13:08:13.938745$GLGSV,2,2,05,86,53,308,48,,,,,,,,,,,,*5F
###2023-11-09 13:08:13.941317$GAGSV,1,1,04,07,72,258,44,08,49,042,45,13,64,160,45,26,56,310,44*60
###2023-11-09 13:08:13.943889$GBGSV,2,1,06,11,23,180,39,14,65,008,46,24,20,132,42,26,23,081,43*69
###2023-11-09 13:08:13.945828$GBGSV,2,2,06,28,43,287,47,33,59,304,47,,,,,,,,*66
###2023-11-09 13:08:13.947316$GNVTG,252.45,T,,M,3.52,N,6.52,K,A*22
###2023-11-09 13:08:14.032877$GNGGA,130814.20,3611.0402731,N,07545.0025862,W,1,24,0.6,0.772,M,-39.962,M,0.0,*65
###2023-11-09 13:08:14.035476$GPGSV,2,1,07,05,21,090,43,10,18,292,44,13,24,045,42,15,62,037,46*71
###2023-11-09 13:08:14.037763$GPGSV,2,2,07,18,77,281,46,23,50,315,45,24,49,136,44,,,,*43
###2023-11-09 13:08:14.040346$GLGSV,2,1,05,70,50,017,36,71,48,290,49,80,18,090,45,85,57,203,47*6A
###2023-11-09 13:08:14.041961$GLGSV,2,2,05,86,53,308,48,,,,,,,,,,,,*5F
###2023-11-09 13:08:14.044541$GAGSV,1,1,04,07,72,258,44,08,49,042,45,13,64,160,45,26,56,310,44*60
###2023-11-09 13:08:14.047144$GBGSV,2,1,06,11,23,180,39,14,65,008,46,24,20,132,42,26,23,081,43*69
###2023-11-09 13:08:14.049084$GBGSV,2,2,06,28,43,287,47,33,59,304,47,,,,,,,,*66
###2023-11-09 13:08:14.050559$GNVTG,250.53,T,,M,3.42,N,6.34,K,A*26
###2023-11-09 13:08:14.131730$GNGGA,130814.30,3611.0402395,N,07545.0026971,W,1,24,0.6,0.778,M,-39.962,M,0.0,*64
###2023-11-09 13:08:14.134308$GPGSV,2,1,07,05,21,090,43,10,18,292,44,13,24,045,42,15,62,037,46*71
###2023-11-09 13:08:14.136558$GPGSV,2,2,07,18,77,281,46,23,50,315,45,24,49,136,45,,,,*42
###2023-11-09 13:08:14.139135$GLGSV,2,1,05,70,50,017,36,71,48,290,49,80,18,090,45,85,57,203,47*6A
###2023-11-09 13:08:14.140734$GLGSV,2,2,05,86,53,308,48,,,,,,,,,,,,*5F
###2023-11-09 13:08:14.143301$GAGSV,1,1,04,07,72,258,44,08,49,042,45,13,64,160,45,26,56,310,44*60
###2023-11-09 13:08:14.145885$GBGSV,2,1,06,11,23,180,40,14,65,008,46,24,20,132,44,26,23,081,43*61
###2023-11-09 13:08:14.147829$GBGSV,2,2,06,28,43,287,46,33,59,304,47,,,,,,,,*67
###2023-11-09 13:08:14.149285$GNVTG,248.60,T,,M,3.56,N,6.59,K,A*21
###2023-11-09 13:08:14.227642$GNGGA,130814.40,3611.0402054,N,07545.0028122,W,1,24,0.6,0.785,M,-39.962,M,0.0,*6F
###2023-11-09 13:08:14.230252$GPGSV,2,1,07,05,21,090,43,10,18,292,44,13,24,045,42,15,62,037,46*71
###2023-11-09 13:08:14.232515$GPGSV,2,2,07,18,77,281,46,23,50,315,45,24,49,136,45,,,,*42
###2023-11-09 13:08:14.235093$GLGSV,2,1,05,70,50,017,36,71,48,290,49,80,18,090,45,85,57,203,47*6A
###2023-11-09 13:08:14.236709$GLGSV,2,2,05,86,53,308,47,,,,,,,,,,,,*50
###2023-11-09 13:08:14.239297$GAGSV,1,1,04,07,72,258,44,08,49,042,45,13,64,160,45,26,56,310,44*60
###2023-11-09 13:08:14.241882$GBGSV,2,1,06,11,23,180,41,14,65,008,46,24,20,132,44,26,23,081,43*60
###2023-11-09 13:08:14.243819$GBGSV,2,2,06,28,43,287,46,33,59,304,46,,,,,,,,*66
###2023-11-09 13:08:14.245281$GNVTG,251.13,T,,M,3.65,N,6.77,K,A*21
###2023-11-09 13:08:14.328647$GNGGA,130814.50,3611.0401754,N,07545.0029315,W,1,24,0.6,0.786,M,-39.962,M,0.0,*6E
###2023-11-09 13:08:14.331248$GPGSV,2,1,07,05,21,090,44,10,18,292,43,13,24,045,42,15,62,037,46*71
###2023-11-09 13:08:14.333500$GPGSV,2,2,07,18,77,281,46,23,50,315,45,24,49,136,45,,,,*42
###2023-11-09 13:08:14.336080$GLGSV,2,1,05,70,50,017,36,71,48,290,48,80,18,090,45,85,57,203,47*6B
###2023-11-09 13:08:14.337706$GLGSV,2,2,05,86,53,308,47,,,,,,,,,,,,*50
###2023-11-09 13:08:14.340279$GAGSV,1,1,04,07,72,258,45,08,49,042,45,13,64,160,45,26,56,310,43*66
###2023-11-09 13:08:14.342859$GBGSV,2,1,06,11,23,180,41,14,65,008,46,24,20,132,45,26,23,081,44*66
###2023-11-09 13:08:14.344792$GBGSV,2,2,06,28,43,287,46,33,59,304,46,,,,,,,,*66
###2023-11-09 13:08:14.346256$GNVTG,254.26,T,,M,3.71,N,6.88,K,A*27
###2023-11-09 13:08:14.427663$GNGGA,130814.60,3611.0401490,N,07545.0030544,W,1,24,0.6,0.776,M,-39.962,M,0.0,*63
###2023-11-09 13:08:14.430266$GPGSV,2,1,07,05,21,090,44,10,18,292,43,13,24,045,42,15,62,037,46*71
###2023-11-09 13:08:14.432528$GPGSV,2,2,07,18,77,281,46,23,50,315,45,24,49,136,45,,,,*42
###2023-11-09 13:08:14.435081$GLGSV,2,1,05,70,50,017,36,71,48,290,48,80,18,090,45,85,57,203,47*6B
###2023-11-09 13:08:14.436680$GLGSV,2,2,05,86,53,308,47,,,,,,,,,,,,*50
###2023-11-09 13:08:14.439255$GAGSV,1,1,04,07,72,258,45,08,49,042,45,13,64,160,45,26,56,310,43*66
###2023-11-09 13:08:14.441830$GBGSV,2,1,06,11,23,180,41,14,65,008,46,24,20,132,44,26,23,081,44*67
###2023-11-09 13:08:14.443759$GBGSV,2,2,06,28,43,287,47,33,59,304,46,,,,,,,,*67
###2023-11-09 13:08:14.445211$GNVTG,255.72,T,,M,3.77,N,6.98,K,A*20
###2023-11-09 13:08:14.527644$GNGGA,130814.70,3611.0401231,N,07545.0031756,W,1,24,0.6,0.773,M,-39.962,M,0.0,*6A
###2023-11-09 13:08:14.530240$GPGSV,2,1,07,05,21,090,44,10,18,292,43,13,24,045,42,15,62,037,46*71
###2023-11-09 13:08:14.532496$GPGSV,2,2,07,18,77,281,46,23,50,315,45,24,49,136,45,,,,*42
###2023-11-09 13:08:14.535071$GLGSV,2,1,05,70,50,017,36,71,48,290,49,80,18,090,45,85,57,203,47*6A
###2023-11-09 13:08:14.536677$GLGSV,2,2,05,86,53,308,47,,,,,,,,,,,,*50
###2023-11-09 13:08:14.539262$GAGSV,1,1,04,07,72,258,45,08,49,042,45,13,64,160,45,26,56,310,43*66
###2023-11-09 13:08:14.541844$GBGSV,2,1,06,11,23,180,41,14,65,008,46,24,20,132,44,26,23,081,44*67
###2023-11-09 13:08:14.543790$GBGSV,2,2,06,28,43,287,47,33,59,304,46,,,,,,,,*67
###2023-11-09 13:08:14.545250$GNVTG,254.61,T,,M,3.65,N,6.77,K,A*21
###2023-11-09 13:08:14.627638$GNGGA,130814.80,3611.0400934,N,07545.0032950,W,1,24,0.6,0.776,M,-39.962,M,0.0,*64
###2023-11-09 13:08:14.630225$GPGSV,2,1,07,05,21,090,44,10,18,292,43,13,24,045,42,15,62,037,46*71
###2023-11-09 13:08:14.632479$GPGSV,2,2,07,18,77,281,46,23,50,315,45,24,49,136,45,,,,*42
###2023-11-09 13:08:14.635053$GLGSV,2,1,05,70,50,017,36,71,48,290,49,80,18,090,45,85,57,203,47*6A
###2023-11-09 13:08:14.636657$GLGSV,2,2,05,86,53,308,48,,,,,,,,,,,,*5F
###2023-11-09 13:08:14.639236$GAGSV,1,1,04,07,72,258,45,08,49,042,45,13,64,160,45,26,56,310,44*61
###2023-11-09 13:08:14.641812$GBGSV,2,1,06,11,23,180,41,14,65,008,46,24,20,132,43,26,23,081,44*60
###2023-11-09 13:08:14.643749$GBGSV,2,2,06,28,43,287,47,33,59,304,46,,,,,,,,*67
###2023-11-09 13:08:14.645213$GNVTG,251.25,T,,M,3.71,N,6.88,K,A*21
###2023-11-09 13:08:14.727605$GNGGA,130814.90,3611.0400586,N,07545.0034135,W,1,24,0.6,0.794,M,-39.962,M,0.0,*61
###2023-11-09 13:08:14.730176$GPGSV,2,1,07,05,21,090,44,10,18,292,43,13,24,045,42,15,62,037,46*71
###2023-11-09 13:08:14.732418$GPGSV,2,2,07,18,77,281,46,23,50,315,46,24,49,136,45,,,,*41
###2023-11-09 13:08:14.734977$GLGSV,2,1,05,70,50,017,36,71,48,290,49,80,18,090,45,85,57,203,47*6A
###2023-11-09 13:08:14.736578$GLGSV,2,2,05,86,53,308,48,,,,,,,,,,,,*5F
###2023-11-09 13:08:14.739155$GAGSV,1,1,04,07,72,258,45,08,49,042,45,13,64,160,45,26,56,310,44*61
###2023-11-09 13:08:14.741726$GBGSV,2,1,06,11,23,180,41,14,65,008,46,24,20,132,43,26,23,081,44*60
###2023-11-09 13:08:14.743653$GBGSV,2,2,06,28,43,287,47,33,59,304,46,,,,,,,,*67
###2023-11-09 13:08:14.745114$GNVTG,249.10,T,,M,3.71,N,6.88,K,A*2E
###2023-11-09 13:08:14.831623$GNGGA,130815.00,3611.0400202,N,07545.0035321,W,1,24,0.6,0.822,M,-39.962,M,0.0,*66
###2023-11-09 13:08:14.834227$GPGSV,2,1,07,05,21,090,44,10,18,292,43,13,24,045,42,15,62,037,46*71
###2023-11-09 13:08:14.836482$GPGSV,2,2,07,18,77,281,46,23,50,315,46,24,49,136,45,,,,*41
###2023-11-09 13:08:14.839079$GLGSV,2,1,05,70,50,017,36,71,48,290,49,80,18,090,45,85,57,203,47*6A
###2023-11-09 13:08:14.841030$GLGSV,2,2,05,86,53,308,48,,,,,,,,,,,,*5F
###2023-11-09 13:08:14.843655$GAGSV,1,1,04,07,72,258,45,08,49,042,45,13,64,160,45,26,56,310,44*61
###2023-11-09 13:08:14.846265$GBGSV,2,1,06,11,23,180,41,14,65,008,46,24,20,132,43,26,23,081,44*60
###2023-11-09 13:08:14.848244$GBGSV,2,2,06,28,43,287,47,33,59,304,46,,,,,,,,*67
###2023-11-09 13:08:14.849728$GNVTG,247.54,T,,M,3.83,N,7.09,K,A*25
###2023-11-09 13:08:14.928664$GNGGA,130815.10,3611.0399780,N,07545.0036521,W,1,24,0.6,0.842,M,-39.962,M,0.0,*6C
###2023-11-09 13:08:14.931289$GPGSV,2,1,07,05,21,090,44,10,18,292,42,13,24,045,41,15,62,037,46*73
###2023-11-09 13:08:14.933557$GPGSV,2,2,07,18,77,281,46,23,50,315,45,24,49,136,45,,,,*42
###2023-11-09 13:08:14.936140$GLGSV,2,1,05,70,50,017,36,71,48,290,49,80,18,090,45,85,57,203,47*6A
###2023-11-09 13:08:14.937775$GLGSV,2,2,05,86,53,308,48,,,,,,,,,,,,*5F
